filename,latitude,longitude,height,roll,pitch,heading,date,time,unix_time_sec,distancetoprevious
003491-20211011-130642-000000001,2.417854,102.736103,20.7506980896,0,0,162.5970928151,2021-10-11,13:06:40,1633928800,0.0
003491-20211011-130642-000000002,2.417848,102.736105,20.8224468231,0,0,162.8640712494,2021-10-11,13:06:43,1633928803,0.735
003491-20211011-130642-000000003,2.417821,102.736113,20.686580658,0,0,163.4222069876,2021-10-11,13:06:44,1633928804,3.135
003491-20211011-130642-000000004,2.417794,102.736121,20.6145267487,0,0,161.6754544093,2021-10-11,13:06:45,1633928805,3.164
003491-20211011-130642-000000005,2.417767,102.736130,20.5558071136,0,0,160.0456483299,2021-10-11,13:06:46,1633928806,3.14
003491-20211011-130642-000000006,2.417741,102.736140,20.5492134094,0,0,159.0262016151,2021-10-11,13:06:47,1633928807,3.063
003491-20211011-130642-000000007,2.417714,102.736149,20.5042133331,0,0,159.0482767865,2021-10-11,13:06:47,1633928807,3.169
003491-20211011-130642-000000008,2.417688,102.736158,20.3535327911,0,0,159.8685961662,2021-10-11,13:06:48,1633928808,3.113
003491-20211011-130642-000000009,2.417660,102.736169,20.0665378571,0,0,159.4882229314,2021-10-11,13:06:48,1633928808,3.27
003491-20211011-130642-000000010,2.417633,102.736178,19.954668045,0,0,159.3735167344,2021-10-11,13:06:49,1633928809,3.192
003491-20211011-130642-000000011,2.417605,102.736188,19.8623542786,0,0,159.4542905516,2021-10-11,13:06:49,1633928809,3.259
003491-20211011-130642-000000012,2.417580,102.736197,19.8147544861,0,0,159.658376604,2021-10-11,13:06:50,1633928810,3.041
003491-20211011-130642-000000013,2.417553,102.736207,19.6876010895,0,0,159.5835587118,2021-10-11,13:06:50,1633928810,3.139
003491-20211011-130642-000000014,2.417525,102.736217,19.5484580994,0,0,159.8289264275,2021-10-11,13:06:51,1633928811,3.303
003491-20211011-130642-000000015,2.417498,102.736225,19.4856414795,0,0,159.8258255217,2021-10-11,13:06:51,1633928811,3.118
003491-20211011-130642-000000016,2.417471,102.736234,19.4724903107,0,0,159.6836346435,2021-10-11,13:06:52,1633928812,3.219
003491-20211011-130642-000000017,2.417443,102.736243,19.4239463806,0,0,159.8766967706,2021-10-11,13:06:52,1633928812,3.319
003491-20211011-130642-000000018,2.417417,102.736252,19.4067173004,0,0,160.090604635,2021-10-11,13:06:53,1633928813,3.015
003491-20211011-130642-000000019,2.417391,102.736261,19.3924789429,0,0,160.2006116618,2021-10-11,13:06:53,1633928813,3.087
003491-20211011-130642-000000020,2.417364,102.736271,19.4117622375,0,0,160.2563186847,2021-10-11,13:06:54,1633928814,3.14
003491-20211011-130642-000000021,2.417337,102.736280,19.3582420349,0,0,160.291138989,2021-10-11,13:06:54,1633928814,3.176
003491-20211011-130642-000000022,2.417310,102.736289,19.2992801666,0,0,160.2857431396,2021-10-11,13:06:54,1633928814,3.132
003491-20211011-130642-000000023,2.417284,102.736298,19.2318725586,0,0,160.2612637416,2021-10-11,13:06:55,1633928815,3.037
003491-20211011-130642-000000024,2.417257,102.736307,19.1764125824,0,0,160.2431227592,2021-10-11,13:06:55,1633928815,3.234
003491-20211011-130642-000000025,2.417230,102.736317,19.1563167572,0,0,159.9381684731,2021-10-11,13:06:56,1633928816,3.204
003491-20211011-130642-000000026,2.417203,102.736327,19.1974391937,0,0,159.3048733333,2021-10-11,13:06:56,1633928816,3.225
003491-20211011-130642-000000027,2.417176,102.736337,19.2857246399,0,0,158.8385216771,2021-10-11,13:06:57,1633928817,3.137
003491-20211011-130642-000000028,2.417151,102.736346,19.3642959595,0,0,158.349603076,2021-10-11,13:06:59,1633928819,3.001
003491-20211011-130642-000000029,2.417125,102.736355,19.2091751099,0,0,157.9967828242,2021-10-11,13:07:07,1633928827,3.04
003491-20211011-130642-000000030,2.417099,102.736366,19.3303833008,0,0,157.3037371895,2021-10-11,13:07:08,1633928828,3.151
003491-20211011-130642-000000031,2.417074,102.736377,19.5978431702,0,0,156.7063961654,2021-10-11,13:07:09,1633928829,3.001
003491-20211011-130642-000000032,2.417049,102.736388,19.9023761749,0,0,155.9448983749,2021-10-11,13:07:10,1633928830,3.019
003491-20211011-130642-000000033,2.417024,102.736399,20.210943222,0,0,155.4147800726,2021-10-11,13:07:12,1633928832,3.027
003491-20211011-130642-000000034,2.417000,102.736410,20.5201797485,0,0,154.124939829,2021-10-11,13:07:16,1633928836,3.027
003491-20211011-130642-000000035,2.416975,102.736423,20.8759918213,0,0,150.4826731522,2021-10-11,13:07:17,1633928837,3.076
003491-20211011-130642-000000036,2.416952,102.736438,21.181230545,0,0,146.4279176911,2021-10-11,13:07:18,1633928838,3.037
003491-20211011-130642-000000037,2.416930,102.736454,21.4529266357,0,0,143.0734205444,2021-10-11,13:07:18,1633928838,3.03
003491-20211011-130642-000000038,2.416909,102.736471,21.6853504181,0,0,141.40768767,2021-10-11,13:07:19,1633928839,3.03
003491-20211011-130642-000000039,2.416886,102.736488,21.9475402832,0,0,141.8875221195,2021-10-11,13:07:20,1633928840,3.105
003491-20211011-130642-000000040,2.416863,102.736504,22.1297893524,0,0,143.7815335764,2021-10-11,13:07:21,1633928841,3.208
003491-20211011-130642-000000041,2.416840,102.736520,22.2740802765,0,0,143.909408378,2021-10-11,13:07:21,1633928841,3.108
003491-20211011-130642-000000042,2.416817,102.736536,22.301776886,0,0,144.0737837106,2021-10-11,13:07:22,1633928842,3.021
003491-20211011-130642-000000043,2.416795,102.736552,22.3917274475,0,0,144.3428521827,2021-10-11,13:07:22,1633928842,3.059
003491-20211011-130642-000000044,2.416773,102.736568,22.5388126373,0,0,143.5860945435,2021-10-11,13:07:23,1633928843,3.001
003491-20211011-130642-000000045,2.416752,102.736584,22.6580753326,0,0,143.2881890126,2021-10-11,13:07:24,1633928844,3.029
003491-20211011-130642-000000046,2.416729,102.736600,22.7185077667,0,0,143.908793661,2021-10-11,13:07:24,1633928844,3.126
003491-20211011-130642-000000047,2.416705,102.736617,22.8969039917,0,0,144.1346133753,2021-10-11,13:07:25,1633928845,3.203
003491-20211011-130642-000000048,2.416682,102.736635,23.0120868683,0,0,144.1324823563,2021-10-11,13:07:25,1633928845,3.253
003491-20211011-130642-000000049,2.416659,102.736651,23.26628685,0,0,144.6430663175,2021-10-11,13:07:26,1633928846,3.171
003491-20211011-130642-000000050,2.416635,102.736668,23.482383728,0,0,145.6894512984,2021-10-11,13:07:27,1633928847,3.164
003491-20211011-130642-000000051,2.416612,102.736683,23.7120456696,0,0,146.7508217143,2021-10-11,13:07:27,1633928847,3.123
003491-20211011-130642-000000052,2.416588,102.736699,23.8955821991,0,0,148.1418170595,2021-10-11,13:07:28,1633928848,3.13
003491-20211011-130642-000000053,2.416564,102.736713,24.1094093323,0,0,148.6574007192,2021-10-11,13:07:29,1633928849,3.103
003491-20211011-130642-000000054,2.416541,102.736728,24.222240448,0,0,146.4473564094,2021-10-11,13:07:30,1633928850,3.097
003491-20211011-130642-000000055,2.416519,102.736745,24.4619121552,0,0,144.374380336,2021-10-11,13:07:31,1633928851,3.066
003491-20211011-130642-000000056,2.416496,102.736761,24.6767234802,0,0,143.2799654649,2021-10-11,13:07:32,1633928852,3.144
003491-20211011-130642-000000057,2.416474,102.736779,24.963558197,0,0,142.9911850668,2021-10-11,13:07:33,1633928853,3.16
003491-20211011-130642-000000058,2.416450,102.736796,25.167011261,0,0,143.6266931879,2021-10-11,13:07:34,1633928854,3.192
003491-20211011-130642-000000059,2.416427,102.736813,25.3877353668,0,0,144.0994925426,2021-10-11,13:07:34,1633928854,3.244
003491-20211011-130642-000000060,2.416403,102.736829,25.569442749,0,0,145.0846653681,2021-10-11,13:07:35,1633928855,3.226
003491-20211011-130642-000000061,2.416380,102.736845,25.7234287262,0,0,146.343537534,2021-10-11,13:07:35,1633928855,3.134
003491-20211011-130642-000000062,2.416355,102.736861,25.8494644165,0,0,147.8885399847,2021-10-11,13:07:36,1633928856,3.277
003491-20211011-130642-000000063,2.416331,102.736876,25.9421272278,0,0,148.888834849,2021-10-11,13:07:36,1633928856,3.072
003491-20211011-130642-000000064,2.416307,102.736890,26.0535373688,0,0,150.0573572726,2021-10-11,13:07:37,1633928857,3.183
003491-20211011-130642-000000065,2.416281,102.736905,26.1620044708,0,0,151.0272304744,2021-10-11,13:07:37,1633928857,3.256
003491-20211011-130642-000000066,2.416255,102.736919,26.2672538757,0,0,152.0359811129,2021-10-11,13:07:38,1633928858,3.316
003491-20211011-130642-000000067,2.416231,102.736931,26.34034729,0,0,152.6800406308,2021-10-11,13:07:38,1633928858,3.027
003491-20211011-130642-000000068,2.416206,102.736944,26.4380836487,0,0,152.9626328776,2021-10-11,13:07:39,1633928859,3.083
003491-20211011-130642-000000069,2.416181,102.736956,26.4731693268,0,0,153.3591936608,2021-10-11,13:07:39,1633928859,3.142
003491-20211011-130642-000000070,2.416155,102.736969,26.5838794708,0,0,153.609957226,2021-10-11,13:07:40,1633928860,3.218
003491-20211011-130642-000000071,2.416129,102.736982,26.6570091248,0,0,153.5741670347,2021-10-11,13:07:40,1633928860,3.241
003491-20211011-130642-000000072,2.416102,102.736995,26.7548904419,0,0,153.7085168557,2021-10-11,13:07:41,1633928861,3.333
003491-20211011-130642-000000073,2.416077,102.737007,26.7600307465,0,0,153.8214608638,2021-10-11,13:07:41,1633928861,3.017
003491-20211011-130642-000000074,2.416052,102.737019,26.9463500977,0,0,153.8940111332,2021-10-11,13:07:41,1633928861,3.106
003491-20211011-130642-000000075,2.416026,102.737031,27.0444908142,0,0,154.0336611809,2021-10-11,13:07:42,1633928862,3.154
003491-20211011-130642-000000076,2.416000,102.737044,27.1114273071,0,0,154.2147158355,2021-10-11,13:07:42,1633928862,3.208
003491-20211011-130642-000000077,2.415974,102.737056,27.1974029541,0,0,154.3910576595,2021-10-11,13:07:43,1633928863,3.265
003491-20211011-130642-000000078,2.415947,102.737069,27.2863407135,0,0,154.6450587343,2021-10-11,13:07:43,1633928863,3.281
003491-20211011-130642-000000079,2.415920,102.737081,27.4238262177,0,0,154.9044829794,2021-10-11,13:07:43,1633928863,3.344
003491-20211011-130642-000000080,2.415892,102.737094,27.5849895477,0,0,155.1223386931,2021-10-11,13:07:44,1633928864,3.38
003491-20211011-130642-000000081,2.415864,102.737107,27.7351570129,0,0,155.2882439881,2021-10-11,13:07:44,1633928864,3.409
003491-20211011-130642-000000082,2.415840,102.737118,27.8818531036,0,0,155.3990979583,2021-10-11,13:07:45,1633928865,3.001
003491-20211011-130642-000000083,2.415812,102.737131,28.0467205048,0,0,155.4949938142,2021-10-11,13:07:45,1633928865,3.43
003491-20211011-130642-000000084,2.415784,102.737144,28.2356987,0,0,155.5848244622,2021-10-11,13:07:45,1633928865,3.412
003491-20211011-130642-000000085,2.415756,102.737157,28.4194583893,0,0,155.6288245408,2021-10-11,13:07:46,1633928866,3.416
003491-20211011-130642-000000086,2.415728,102.737169,28.596364975,0,0,155.6997492252,2021-10-11,13:07:46,1633928866,3.398
003491-20211011-130642-000000087,2.415700,102.737182,28.7825870514,0,0,155.7664528526,2021-10-11,13:07:47,1633928867,3.373
003491-20211011-130642-000000088,2.415673,102.737194,28.9724349976,0,0,155.8428416883,2021-10-11,13:07:47,1633928867,3.36
003491-20211011-130642-000000089,2.415646,102.737206,29.1944141388,0,0,155.905187655,2021-10-11,13:07:47,1633928867,3.333
003491-20211011-130642-000000090,2.415619,102.737219,29.4400997162,0,0,155.9667686406,2021-10-11,13:07:48,1633928868,3.295
003491-20211011-130642-000000091,2.415592,102.737230,29.6925163269,0,0,155.998665624,2021-10-11,13:07:48,1633928868,3.264
003491-20211011-130642-000000092,2.415565,102.737242,29.9362220764,0,0,156.0743577804,2021-10-11,13:07:49,1633928869,3.254
003491-20211011-130642-000000093,2.415538,102.737254,30.1534347534,0,0,156.1808131088,2021-10-11,13:07:49,1633928869,3.232
003491-20211011-130642-000000094,2.415512,102.737265,30.3668289185,0,0,156.3391778749,2021-10-11,13:07:49,1633928869,3.187
003491-20211011-130642-000000095,2.415485,102.737276,30.6123008728,0,0,156.4748800733,2021-10-11,13:07:50,1633928870,3.197
003491-20211011-130642-000000096,2.415459,102.737288,30.829864502,0,0,156.5824692131,2021-10-11,13:07:50,1633928870,3.224
003491-20211011-130642-000000097,2.415432,102.737300,31.0209789276,0,0,156.7050574484,2021-10-11,13:07:51,1633928871,3.228
003491-20211011-130642-000000098,2.415405,102.737311,31.1451225281,0,0,156.8064174556,2021-10-11,13:07:51,1633928871,3.238
003491-20211011-130642-000000099,2.415379,102.737322,31.5290489197,0,0,157.0726309087,2021-10-11,13:07:51,1633928871,3.18
003491-20211011-130642-000000100,2.415352,102.737333,31.7719173431,0,0,157.221324127,2021-10-11,13:07:52,1633928872,3.192
003491-20211011-130642-000000101,2.415326,102.737344,31.9755935669,0,0,157.2632888092,2021-10-11,13:07:52,1633928872,3.175
003491-20211011-130642-000000102,2.415300,102.737355,32.1797065735,0,0,157.4032530457,2021-10-11,13:07:53,1633928873,3.127
003491-20211011-130642-000000103,2.415274,102.737366,32.2631988525,0,0,157.408211763,2021-10-11,13:07:53,1633928873,3.185
003491-20211011-130642-000000104,2.415248,102.737377,32.4165916443,0,0,156.9811200342,2021-10-11,13:07:53,1633928873,3.116
003491-20211011-130642-000000105,2.415223,102.737389,32.5158004761,0,0,156.3513082909,2021-10-11,13:07:54,1633928874,3.141
003491-20211011-130642-000000106,2.415196,102.737401,32.6469078064,0,0,156.1532737861,2021-10-11,13:07:54,1633928874,3.201
003491-20211011-130642-000000107,2.415170,102.737412,32.8155403137,0,0,156.3418416487,2021-10-11,13:07:55,1633928875,3.148
003491-20211011-130642-000000108,2.415144,102.737424,32.8483734131,0,0,156.1654315228,2021-10-11,13:07:55,1633928875,3.194
003491-20211011-130642-000000109,2.415117,102.737436,32.8663978577,0,0,155.9399396575,2021-10-11,13:07:55,1633928875,3.24
003491-20211011-130642-000000110,2.415091,102.737448,32.7141952515,0,0,155.943819205,2021-10-11,13:07:56,1633928876,3.23
003491-20211011-130642-000000111,2.415064,102.737461,32.6042900085,0,0,155.9688450181,2021-10-11,13:07:56,1633928876,3.286
003491-20211011-130642-000000112,2.415037,102.737473,32.7318725586,0,0,156.1114866887,2021-10-11,13:07:57,1633928877,3.348
003491-20211011-130642-000000113,2.415009,102.737485,32.6923675537,0,0,156.4794699605,2021-10-11,13:07:57,1633928877,3.42
003491-20211011-130642-000000114,2.414983,102.737497,32.8081207275,0,0,156.6076043093,2021-10-11,13:07:57,1633928877,3.093
003491-20211011-130642-000000115,2.414955,102.737509,32.6307945251,0,0,156.8520977608,2021-10-11,13:07:58,1633928878,3.429
003491-20211011-130642-000000116,2.414930,102.737520,32.612361908,0,0,156.6240104237,2021-10-11,13:07:58,1633928878,3.087
003491-20211011-130642-000000117,2.414904,102.737531,32.6088027954,0,0,156.1820015617,2021-10-11,13:07:58,1633928878,3.113
003491-20211011-130642-000000118,2.414878,102.737542,32.5541305542,0,0,155.8180344412,2021-10-11,13:07:59,1633928879,3.163
003491-20211011-130642-000000119,2.414852,102.737554,32.6238594055,0,0,155.4567447549,2021-10-11,13:07:59,1633928879,3.144
003491-20211011-130642-000000120,2.414826,102.737566,32.5530471802,0,0,155.1477196761,2021-10-11,13:08:00,1633928880,3.16
003491-20211011-130642-000000121,2.414800,102.737578,32.4831390381,0,0,155.0732159726,2021-10-11,13:08:00,1633928880,3.199
003491-20211011-130642-000000122,2.414773,102.737590,32.4498825073,0,0,154.7800642534,2021-10-11,13:08:00,1633928880,3.265
003491-20211011-130642-000000123,2.414746,102.737603,32.2930221558,0,0,154.6182707324,2021-10-11,13:08:01,1633928881,3.294
003491-20211011-130642-000000124,2.414719,102.737615,32.1927909851,0,0,154.4962972142,2021-10-11,13:08:01,1633928881,3.311
003491-20211011-130642-000000125,2.414694,102.737627,32.2428436279,0,0,154.3450085241,2021-10-11,13:08:01,1633928881,3.15
003491-20211011-130642-000000126,2.414668,102.737639,32.2175559998,0,0,154.1398433018,2021-10-11,13:08:02,1633928882,3.136
003491-20211011-130642-000000127,2.414643,102.737651,32.1248283386,0,0,154.0071737073,2021-10-11,13:08:02,1633928882,3.13
003491-20211011-130642-000000128,2.414618,102.737663,32.0440368652,0,0,154.0259567276,2021-10-11,13:08:02,1633928882,3.091
003491-20211011-130642-000000129,2.414590,102.737677,32.0650253296,0,0,153.9562478169,2021-10-11,13:08:03,1633928883,3.428
003491-20211011-130642-000000130,2.414566,102.737689,32.0015945435,0,0,154.0055617827,2021-10-11,13:08:03,1633928883,3.029
003491-20211011-130642-000000131,2.414538,102.737702,31.8667354584,0,0,153.9543900054,2021-10-11,13:08:03,1633928883,3.416
003491-20211011-130642-000000132,2.414512,102.737716,31.8069076538,0,0,153.7960662205,2021-10-11,13:08:04,1633928884,3.309
003491-20211011-130642-000000133,2.414486,102.737729,31.5938796997,0,0,153.4006392487,2021-10-11,13:08:04,1633928884,3.226
003491-20211011-130642-000000134,2.414460,102.737742,31.3243560791,0,0,152.8714635125,2021-10-11,13:08:05,1633928885,3.191
003491-20211011-130642-000000135,2.414433,102.737755,31.1628646851,0,0,152.4294409902,2021-10-11,13:08:05,1633928885,3.289
003491-20211011-130642-000000136,2.414407,102.737767,30.9336795807,0,0,152.4911449192,2021-10-11,13:08:05,1633928885,3.281
003491-20211011-130642-000000137,2.414381,102.737780,30.8010158539,0,0,152.2574158458,2021-10-11,13:08:06,1633928886,3.203
003491-20211011-130642-000000138,2.414355,102.737793,30.4687919617,0,0,152.1625991597,2021-10-11,13:08:06,1633928886,3.224
003491-20211011-130642-000000139,2.414328,102.737808,30.3574867249,0,0,152.3152129065,2021-10-11,13:08:07,1633928887,3.427
003491-20211011-130642-000000140,2.414302,102.737821,30.0528011322,0,0,152.31931102,2021-10-11,13:08:07,1633928887,3.248
003491-20211011-130642-000000141,2.414274,102.737834,29.7070026398,0,0,152.3449242294,2021-10-11,13:08:07,1633928887,3.339
003491-20211011-130642-000000142,2.414247,102.737847,29.4035644531,0,0,152.5987477193,2021-10-11,13:08:08,1633928888,3.353
003491-20211011-130642-000000143,2.414220,102.737861,28.9844932556,0,0,152.6288688536,2021-10-11,13:08:08,1633928888,3.387
003491-20211011-130642-000000144,2.414196,102.737872,28.7952957153,0,0,152.5511139801,2021-10-11,13:08:09,1633928889,3.005
003491-20211011-130642-000000145,2.414170,102.737885,28.5181846619,0,0,152.0120344696,2021-10-11,13:08:09,1633928889,3.205
003491-20211011-130642-000000146,2.414143,102.737899,28.0224304199,0,0,151.577402212,2021-10-11,13:08:09,1633928889,3.361
003491-20211011-130642-000000147,2.414117,102.737912,27.45844841,0,0,151.3772366882,2021-10-11,13:08:10,1633928890,3.203
003491-20211011-130642-000000148,2.414092,102.737925,26.9612045288,0,0,150.7871083439,2021-10-11,13:08:10,1633928890,3.207
003491-20211011-130642-000000149,2.414067,102.737939,26.5181674957,0,0,150.5070979087,2021-10-11,13:08:11,1633928891,3.179
003491-20211011-130642-000000150,2.414042,102.737952,26.0443897247,0,0,151.43109956,2021-10-11,13:08:12,1633928892,3.037
003491-20211011-130642-000000151,2.414017,102.737965,25.4677009583,0,0,152.4759682388,2021-10-11,13:08:12,1633928892,3.158
003491-20211011-130642-000000152,2.413991,102.737977,24.8933677673,0,0,154.225603157,2021-10-11,13:08:13,1633928893,3.242
003491-20211011-130642-000000153,2.413964,102.737989,24.4221801758,0,0,156.4683504125,2021-10-11,13:08:13,1633928893,3.251
003491-20211011-130642-000000154,2.413937,102.737999,24.211938858,0,0,157.758873675,2021-10-11,13:08:14,1633928894,3.212
003491-20211011-130642-000000155,2.413909,102.738010,23.7228965759,0,0,157.9211862905,2021-10-11,13:08:14,1633928894,3.318
003491-20211011-130642-000000156,2.413883,102.738021,23.474811554,0,0,157.146875065,2021-10-11,13:08:15,1633928895,3.175
003491-20211011-130642-000000157,2.413856,102.738032,23.2320175171,0,0,156.1261579351,2021-10-11,13:08:15,1633928895,3.286
003491-20211011-130642-000000158,2.413831,102.738044,22.9748535156,0,0,155.2038228499,2021-10-11,13:08:16,1633928896,3.032
003491-20211011-130642-000000159,2.413806,102.738056,22.7496891022,0,0,154.7690539885,2021-10-11,13:08:16,1633928896,3.115
003491-20211011-130642-000000160,2.413779,102.738068,22.5221767426,0,0,154.5565941242,2021-10-11,13:08:16,1633928896,3.248
003491-20211011-130642-000000161,2.413753,102.738081,22.1592483521,0,0,154.2856678406,2021-10-11,13:08:17,1633928897,3.285
003491-20211011-130642-000000162,2.413726,102.738094,21.8057746887,0,0,154.1824500218,2021-10-11,13:08:17,1633928897,3.25
003491-20211011-130642-000000163,2.413701,102.738106,21.4430065155,0,0,154.1593913032,2021-10-11,13:08:18,1633928898,3.151
003491-20211011-130642-000000164,2.413675,102.738118,21.062084198,0,0,154.2526643665,2021-10-11,13:08:18,1633928898,3.098
003491-20211011-130642-000000165,2.413650,102.738129,20.6662063599,0,0,155.1305075994,2021-10-11,13:08:18,1633928898,3.073
003491-20211011-130642-000000166,2.413623,102.738142,20.1034698486,0,0,156.1410887286,2021-10-11,13:08:19,1633928899,3.32
003491-20211011-130642-000000167,2.413598,102.738152,19.9088764191,0,0,157.0278795093,2021-10-11,13:08:19,1633928899,3.068
003491-20211011-130642-000000168,2.413572,102.738162,19.60039711,0,0,157.383008365,2021-10-11,13:08:20,1633928900,3.076
003491-20211011-130642-000000169,2.413545,102.738172,19.2853660583,0,0,155.5896875569,2021-10-11,13:08:20,1633928900,3.18
003491-20211011-130642-000000170,2.413521,102.738184,19.0667762756,0,0,152.3447056634,2021-10-11,13:08:21,1633928901,3.012
003491-20211011-130642-000000171,2.413497,102.738197,19.0747585297,0,0,151.3257917034,2021-10-11,13:08:22,1633928902,3.019
003491-20211011-130642-000000172,2.413472,102.738210,18.8138141632,0,0,152.1749754625,2021-10-11,13:08:23,1633928903,3.132
003491-20211011-130642-000000173,2.413447,102.738222,18.6226539612,0,0,153.7004845532,2021-10-11,13:08:23,1633928903,3.068
003491-20211011-130642-000000174,2.413422,102.738234,18.391456604,0,0,155.6921540548,2021-10-11,13:08:24,1633928904,3.049
003491-20211011-130642-000000175,2.413397,102.738245,18.0878105164,0,0,156.6217428009,2021-10-11,13:08:24,1633928904,3.039
003491-20211011-130642-000000176,2.413370,102.738256,17.8301372528,0,0,157.3375602863,2021-10-11,13:08:25,1633928905,3.247
003491-20211011-130642-000000177,2.413344,102.738267,17.8811435699,0,0,157.7135212189,2021-10-11,13:08:26,1633928906,3.191
003491-20211011-130642-000000178,2.413319,102.738277,17.5775737762,0,0,157.3863005162,2021-10-11,13:08:26,1633928906,3.009
003491-20211011-130642-000000179,2.413293,102.738288,17.4231529236,0,0,156.8590645538,2021-10-11,13:08:27,1633928907,3.134
003491-20211011-130642-000000180,2.413268,102.738299,17.2303333282,0,0,156.1256115199,2021-10-11,13:08:27,1633928907,3.034
003491-20211011-130642-000000181,2.413242,102.738311,17.0045471191,0,0,155.2498993061,2021-10-11,13:08:28,1633928908,3.13
003491-20211011-130642-000000182,2.413216,102.738324,17.0703258514,0,0,154.346196977,2021-10-11,13:08:28,1633928908,3.249
003491-20211011-130642-000000183,2.413189,102.738337,16.8483200073,0,0,153.7121778371,2021-10-11,13:08:28,1633928908,3.364
003491-20211011-130642-000000184,2.413164,102.738349,16.5954208374,0,0,153.3749850581,2021-10-11,13:08:29,1633928909,3.018
003491-20211011-130642-000000185,2.413138,102.738362,16.312877655,0,0,153.8056967872,2021-10-11,13:08:29,1633928909,3.285
003491-20211011-130642-000000186,2.413113,102.738374,16.0792579651,0,0,154.1103642053,2021-10-11,13:08:30,1633928910,3.071
003491-20211011-130642-000000187,2.413087,102.738386,15.71002388,0,0,154.5650225776,2021-10-11,13:08:30,1633928910,3.168
003491-20211011-130642-000000188,2.413061,102.738398,15.3443307877,0,0,154.9703669841,2021-10-11,13:08:31,1633928911,3.156
003491-20211011-130642-000000189,2.413036,102.738410,14.9463710785,0,0,155.1373651093,2021-10-11,13:08:31,1633928911,3.096
003491-20211011-130642-000000190,2.413011,102.738421,14.6465873718,0,0,157.1868316717,2021-10-11,13:08:32,1633928912,3.055
003491-20211011-130642-000000191,2.412985,102.738430,14.5573530197,0,0,162.5865333427,2021-10-11,13:08:33,1633928913,3.011
003491-20211011-130642-000000192,2.412958,102.738431,14.6160755157,0,0,175.8830128641,2021-10-11,13:08:34,1633928914,3.03
003491-20211011-130642-000000193,2.412932,102.738421,14.6037321091,0,0,202.8847997099,2021-10-11,13:08:36,1633928916,3.11
003491-20211011-130642-000000194,2.412916,102.738400,14.8375415802,0,0,231.8002006555,2021-10-11,13:08:37,1633928917,3.008
003491-20211011-130642-000000195,2.412905,102.738375,14.7207317352,0,0,242.3591540179,2021-10-11,13:08:38,1633928918,3.031
003491-20211011-130642-000000196,2.412892,102.738349,14.6568412781,0,0,244.0737500657,2021-10-11,13:08:38,1633928918,3.222
003491-20211011-130642-000000197,2.412881,102.738324,14.7508068085,0,0,248.1055014497,2021-10-11,13:08:39,1633928919,3.022
003491-20211011-130642-000000198,2.412872,102.738296,14.8525123596,0,0,252.8863879819,2021-10-11,13:08:39,1633928919,3.246
003491-20211011-130642-000000199,2.412866,102.738269,14.9297847748,0,0,256.0377553027,2021-10-11,13:08:40,1633928920,3.087
003491-20211011-130642-000000200,2.412858,102.738241,15.151506424,0,0,256.0515522848,2021-10-11,13:08:40,1633928920,3.146
003491-20211011-130642-000000201,2.412852,102.738215,15.3192081451,0,0,256.3164543416,2021-10-11,13:08:41,1633928921,3.064
003491-20211011-130642-000000202,2.412845,102.738188,15.7200784683,0,0,255.4832532251,2021-10-11,13:08:41,1633928921,3.038
003491-20211011-130642-000000203,2.412838,102.738162,15.811249733,0,0,253.8228615586,2021-10-11,13:08:42,1633928922,3.005
003491-20211011-130642-000000204,2.412829,102.738136,15.913977623,0,0,252.6912084962,2021-10-11,13:08:44,1633928924,3.028
003491-20211011-130642-000000205,2.412821,102.738110,15.9658126831,0,0,256.9523995948,2021-10-11,13:08:45,1633928925,3.051
003491-20211011-130642-000000206,2.412816,102.738082,15.9015436172,0,0,262.3528935677,2021-10-11,13:08:47,1633928927,3.127
003491-20211011-130642-000000207,2.412814,102.738054,16.1801452637,0,0,261.733504693,2021-10-11,13:08:48,1633928928,3.098
003491-20211011-130642-000000208,2.412809,102.738027,15.7923278809,0,0,256.5951807012,2021-10-11,13:08:49,1633928929,3.111
003491-20211011-130642-000000209,2.412800,102.738000,15.7055397034,0,0,250.6376711411,2021-10-11,13:08:50,1633928930,3.156
003491-20211011-130642-000000210,2.412788,102.737974,15.9729681015,0,0,246.4709825398,2021-10-11,13:08:50,1633928930,3.14
003491-20211011-130642-000000211,2.412776,102.737949,16.1024360657,0,0,246.9255999309,2021-10-11,13:08:51,1633928931,3.137
003491-20211011-130642-000000212,2.412765,102.737922,16.2677822113,0,0,248.4614635885,2021-10-11,13:08:51,1633928931,3.225
003491-20211011-130642-000000213,2.412756,102.737895,16.4038715363,0,0,250.0304126823,2021-10-11,13:08:52,1633928932,3.201
003491-20211011-130642-000000214,2.412746,102.737869,16.5028400421,0,0,250.0049770579,2021-10-11,13:08:53,1633928933,3.068
003491-20211011-130642-000000215,2.412736,102.737841,16.6729030609,0,0,249.6822096385,2021-10-11,13:08:53,1633928933,3.249
003491-20211011-130642-000000216,2.412725,102.737814,16.97016716,0,0,248.4641410226,2021-10-11,13:08:54,1633928934,3.3
003491-20211011-130642-000000217,2.412714,102.737786,17.2018089294,0,0,248.0507506533,2021-10-11,13:08:54,1633928934,3.277
003491-20211011-130642-000000218,2.412704,102.737759,17.2692928314,0,0,249.3794956544,2021-10-11,13:08:55,1633928935,3.264
003491-20211011-130642-000000219,2.412693,102.737732,17.4155349731,0,0,249.8401509328,2021-10-11,13:08:55,1633928935,3.23
003491-20211011-130642-000000220,2.412683,102.737705,17.7042198181,0,0,250.0675415907,2021-10-11,13:08:56,1633928936,3.182
003491-20211011-130642-000000221,2.412674,102.737679,18.0349063873,0,0,250.2747148886,2021-10-11,13:08:56,1633928936,3.088
003491-20211011-130642-000000222,2.412664,102.737653,18.2553043365,0,0,250.9250035391,2021-10-11,13:08:57,1633928937,3.051
003491-20211011-130642-000000223,2.412655,102.737625,18.5050239563,0,0,253.1267013576,2021-10-11,13:08:57,1633928937,3.283
003491-20211011-130642-000000224,2.412647,102.737597,18.4873008728,0,0,254.0006377223,2021-10-11,13:08:58,1633928938,3.207
003491-20211011-130642-000000225,2.412640,102.737570,18.4918842316,0,0,256.2691894325,2021-10-11,13:08:58,1633928938,3.097
003491-20211011-130642-000000226,2.412635,102.737542,18.5151538849,0,0,260.497049208,2021-10-11,13:08:59,1633928939,3.22
003491-20211011-130642-000000227,2.412633,102.737513,18.6227226257,0,0,266.4772623169,2021-10-11,13:08:59,1633928939,3.208
003491-20211011-130642-000000228,2.412635,102.737484,18.8028354645,0,0,272.6379563445,2021-10-11,13:09:00,1633928940,3.183
003491-20211011-130642-000000229,2.412638,102.737456,19.1913337708,0,0,276.0719295724,2021-10-11,13:09:01,1633928941,3.167
003491-20211011-130642-000000230,2.412643,102.737429,19.3688201904,0,0,278.127871154,2021-10-11,13:09:02,1633928942,3.087
003491-20211011-130642-000000231,2.412647,102.737401,19.4471340179,0,0,279.3209685983,2021-10-11,13:09:02,1633928942,3.142
003491-20211011-130642-000000232,2.412651,102.737373,19.53383255,0,0,278.6475119461,2021-10-11,13:09:03,1633928943,3.079
003491-20211011-130642-000000233,2.412655,102.737346,19.578037262,0,0,277.5300110356,2021-10-11,13:09:03,1633928943,3.078
003491-20211011-130642-000000234,2.412658,102.737318,19.549156189,0,0,276.4528082412,2021-10-11,13:09:04,1633928944,3.062
003491-20211011-130642-000000235,2.412660,102.737291,19.558889389,0,0,275.3744852958,2021-10-11,13:09:06,1633928946,3.011
003491-20211011-130642-000000236,2.412665,102.737265,21.3073558807,0,0,279.2170950814,2021-10-11,13:09:10,1633928950,3.013
003491-20211011-130642-000000237,2.412675,102.737239,21.6295661926,0,0,289.6586511524,2021-10-11,13:09:12,1633928952,3.114
003491-20211011-130642-000000238,2.412688,102.737213,21.8177642822,0,0,295.0225079906,2021-10-11,13:09:13,1633928953,3.144
003491-20211011-130642-000000239,2.412699,102.737188,21.9431171417,0,0,293.3766236459,2021-10-11,13:09:14,1633928954,3.112
003491-20211011-130642-000000240,2.412710,102.737162,22.0421924591,0,0,291.3792304458,2021-10-11,13:09:15,1633928955,3.059
003491-20211011-130642-000000241,2.412720,102.737136,22.1664829254,0,0,290.6974682836,2021-10-11,13:09:16,1633928956,3.152
003491-20211011-130642-000000242,2.412730,102.737110,22.207906723,0,0,291.0067392492,2021-10-11,13:09:17,1633928957,3.134
003491-20211011-131003-000000001,2.412876,102.738356,24.5539779663,0,0,71.0458450671,2021-10-11,13:10:01,1633929001,0.0
003491-20211011-131003-000000002,2.412886,102.738384,24.6667881012,0,0,69.8722273224,2021-10-11,13:10:02,1633929002,3.248
003491-20211011-131003-000000003,2.412897,102.738411,24.7076778412,0,0,68.5716910025,2021-10-11,13:10:02,1633929002,3.302
003491-20211011-131003-000000004,2.412908,102.738439,24.7041130066,0,0,66.8491651052,2021-10-11,13:10:03,1633929003,3.281
003491-20211011-131003-000000005,2.412921,102.738465,24.7347698212,0,0,65.2782967282,2021-10-11,13:10:03,1633929003,3.281
003491-20211011-131003-000000006,2.412935,102.738491,24.7430934906,0,0,64.0120547881,2021-10-11,13:10:04,1633929004,3.276
003491-20211011-131003-000000007,2.412949,102.738517,24.5635147095,0,0,63.1280780454,2021-10-11,13:10:04,1633929004,3.3
003491-20211011-131003-000000008,2.412963,102.738543,24.4074211121,0,0,62.2603298321,2021-10-11,13:10:05,1633929005,3.305
003491-20211011-131003-000000009,2.412978,102.738569,24.4166488647,0,0,61.0015191378,2021-10-11,13:10:05,1633929005,3.258
003491-20211011-131003-000000010,2.412992,102.738595,24.3676128387,0,0,60.1034175639,2021-10-11,13:10:06,1633929006,3.303
003491-20211011-131003-000000011,2.413007,102.738620,24.25066185,0,0,59.2312911993,2021-10-11,13:10:06,1633929006,3.294
003491-20211011-131003-000000012,2.413022,102.738644,24.1325149536,0,0,59.0750916032,2021-10-11,13:10:07,1633929007,3.059
003491-20211011-131003-000000013,2.413036,102.738668,24.0037326813,0,0,59.6653907022,2021-10-11,13:10:07,1633929007,3.12
003491-20211011-131003-000000014,2.413048,102.738693,24.2196769714,0,0,59.8285366007,2021-10-11,13:10:08,1633929008,3.126
003491-20211011-131003-000000015,2.413062,102.738718,24.2672805786,0,0,59.7609382185,2021-10-11,13:10:08,1633929008,3.211
003491-20211011-131003-000000016,2.413076,102.738743,24.1929550171,0,0,60.4810723835,2021-10-11,13:10:09,1633929009,3.12
003491-20211011-131003-000000017,2.413089,102.738768,24.0798244476,0,0,63.9947129378,2021-10-11,13:10:09,1633929009,3.132
003491-20211011-131003-000000018,2.413104,102.738792,24.2030124664,0,0,66.4160901307,2021-10-11,13:10:10,1633929010,3.171
003491-20211011-131003-000000019,2.413115,102.738817,24.1253318787,0,0,69.5513723559,2021-10-11,13:10:10,1633929010,3.008
003491-20211011-131003-000000020,2.413124,102.738844,23.9187450409,0,0,73.0411277388,2021-10-11,13:10:11,1633929011,3.217
003491-20211011-131003-000000021,2.413132,102.738871,23.6017112732,0,0,72.8701271227,2021-10-11,13:10:12,1633929012,3.108
003491-20211011-131003-000000022,2.413142,102.738898,23.5726032257,0,0,71.1857478319,2021-10-11,13:10:12,1633929012,3.133
003491-20211011-131003-000000023,2.413151,102.738926,23.4846286774,0,0,70.9479821167,2021-10-11,13:10:13,1633929013,3.323
003491-20211011-131003-000000024,2.413161,102.738952,23.3447875977,0,0,72.1723003556,2021-10-11,13:10:13,1633929013,3.122
003491-20211011-131003-000000025,2.413169,102.738980,23.3992004395,0,0,74.9084604767,2021-10-11,13:10:14,1633929014,3.208
003491-20211011-131003-000000026,2.413175,102.739007,23.292514801,0,0,77.2664535141,2021-10-11,13:10:14,1633929014,3.067
003491-20211011-131003-000000027,2.413180,102.739035,23.2020721436,0,0,78.9902225058,2021-10-11,13:10:15,1633929015,3.14
003491-20211011-131003-000000028,2.413185,102.739063,23.1240787506,0,0,78.1271802929,2021-10-11,13:10:15,1633929015,3.234
003491-20211011-131003-000000029,2.413193,102.739091,23.0593986511,0,0,76.4991364023,2021-10-11,13:10:16,1633929016,3.141
003491-20211011-131003-000000030,2.413200,102.739119,22.9096679688,0,0,75.3285854126,2021-10-11,13:10:16,1633929016,3.211
003491-20211011-131003-000000031,2.413208,102.739147,22.7941684723,0,0,75.4272406649,2021-10-11,13:10:17,1633929017,3.311
003491-20211011-131003-000000032,2.413215,102.739175,22.7300071716,0,0,76.2774148015,2021-10-11,13:10:17,1633929017,3.135
003491-20211011-131003-000000033,2.413222,102.739204,22.6544342041,0,0,76.0453864452,2021-10-11,13:10:17,1633929017,3.331
003491-20211011-131003-000000034,2.413229,102.739231,22.7106246948,0,0,75.4676617244,2021-10-11,13:10:18,1633929018,3.137
003491-20211011-131003-000000035,2.413236,102.739258,22.7226104736,0,0,74.5351906386,2021-10-11,13:10:18,1633929018,3.098
003491-20211011-131003-000000036,2.413245,102.739285,22.7291698456,0,0,72.8262090063,2021-10-11,13:10:19,1633929019,3.142
003491-20211011-131003-000000037,2.413253,102.739312,22.7221393585,0,0,71.3603274671,2021-10-11,13:10:19,1633929019,3.161
003491-20211011-131003-000000038,2.413262,102.739338,22.7481803894,0,0,71.3388465221,2021-10-11,13:10:19,1633929019,3.086
003491-20211011-131003-000000039,2.413271,102.739364,22.7969589233,0,0,71.9995170602,2021-10-11,13:10:20,1633929020,3.047
003491-20211011-131003-000000040,2.413279,102.739390,22.8351192474,0,0,73.0713513258,2021-10-11,13:10:20,1633929020,3.007
003491-20211011-131003-000000041,2.413287,102.739419,22.9685516357,0,0,74.319759642,2021-10-11,13:10:21,1633929021,3.304
003491-20211011-131003-000000042,2.413295,102.739448,23.0207157135,0,0,74.6714119314,2021-10-11,13:10:21,1633929021,3.313
003491-20211011-131003-000000043,2.413303,102.739475,23.0990447998,0,0,74.0115200349,2021-10-11,13:10:22,1633929022,3.21
003491-20211011-131003-000000044,2.413311,102.739503,23.211971283,0,0,73.1156314422,2021-10-11,13:10:22,1633929022,3.135
003491-20211011-131003-000000045,2.413319,102.739529,23.3165359497,0,0,72.9483054679,2021-10-11,13:10:22,1633929022,3.097
003491-20211011-131003-000000046,2.413326,102.739556,23.4599933624,0,0,73.792755906,2021-10-11,13:10:23,1633929023,3.109
003491-20211011-131003-000000047,2.413334,102.739584,23.6543083191,0,0,73.4911552428,2021-10-11,13:10:23,1633929023,3.191
003491-20211011-131003-000000048,2.413343,102.739612,23.7963180542,0,0,72.987517584,2021-10-11,13:10:24,1633929024,3.287
003491-20211011-131003-000000049,2.413351,102.739638,23.8575286865,0,0,73.0002490566,2021-10-11,13:10:24,1633929024,3.018
003491-20211011-131003-000000050,2.413359,102.739665,23.9120903015,0,0,73.1807982771,2021-10-11,13:10:25,1633929025,3.092
003491-20211011-131003-000000051,2.413367,102.739692,24.1069869995,0,0,73.4310837291,2021-10-11,13:10:25,1633929025,3.158
003491-20211011-131003-000000052,2.413375,102.739720,24.3896026611,0,0,73.6602024248,2021-10-11,13:10:25,1633929025,3.239
003491-20211011-131003-000000053,2.413383,102.739749,24.6042861938,0,0,74.0038838834,2021-10-11,13:10:26,1633929026,3.308
003491-20211011-131003-000000054,2.413392,102.739777,24.8470287323,0,0,74.3688072304,2021-10-11,13:10:26,1633929026,3.274
003491-20211011-131003-000000055,2.413399,102.739805,25.1485767365,0,0,75.1950278935,2021-10-11,13:10:27,1633929027,3.268
003491-20211011-131003-000000056,2.413406,102.739833,25.4647102356,0,0,76.0293628214,2021-10-11,13:10:27,1633929027,3.139
003491-20211011-131003-000000057,2.413413,102.739860,25.7767047882,0,0,76.9296500559,2021-10-11,13:10:27,1633929027,3.091
003491-20211011-131003-000000058,2.413418,102.739887,26.0994701385,0,0,77.8512201599,2021-10-11,13:10:28,1633929028,3.093
003491-20211011-131003-000000059,2.413424,102.739914,26.4124546051,0,0,78.7819700381,2021-10-11,13:10:28,1633929028,3.069
003491-20211011-131003-000000060,2.413429,102.739941,26.7045059204,0,0,79.8410660009,2021-10-11,13:10:29,1633929029,3.051
003491-20211011-131003-000000061,2.413435,102.739971,26.9165725708,0,0,81.0353450679,2021-10-11,13:10:29,1633929029,3.341
003491-20211011-131003-000000062,2.413439,102.740000,27.0181064606,0,0,81.1238779799,2021-10-11,13:10:29,1633929029,3.303
003491-20211011-131003-000000063,2.413443,102.740027,27.1082229614,0,0,80.7968348621,2021-10-11,13:10:30,1633929030,3.012
003491-20211011-131003-000000064,2.413448,102.740054,27.1562080383,0,0,80.4226566088,2021-10-11,13:10:30,1633929030,3.075
003491-20211011-131003-000000065,2.413453,102.740082,27.2112483978,0,0,79.7448218054,2021-10-11,13:10:31,1633929031,3.12
003491-20211011-131003-000000066,2.413459,102.740109,27.2867851257,0,0,79.1700818773,2021-10-11,13:10:31,1633929031,3.151
003491-20211011-131003-000000067,2.413465,102.740138,27.3734817505,0,0,78.4548312976,2021-10-11,13:10:31,1633929031,3.214
003491-20211011-131003-000000068,2.413471,102.740167,27.4857559204,0,0,77.4239166952,2021-10-11,13:10:32,1633929032,3.306
003491-20211011-131003-000000069,2.413478,102.740196,27.577249527,0,0,76.2018865697,2021-10-11,13:10:32,1633929032,3.372
003491-20211011-131003-000000070,2.413485,102.740223,27.6590995789,0,0,75.1350315119,2021-10-11,13:10:33,1633929033,3.011
003491-20211011-131003-000000071,2.413493,102.740249,27.7500476837,0,0,73.9699378432,2021-10-11,13:10:33,1633929033,3.052
003491-20211011-131003-000000072,2.413501,102.740276,27.8794612885,0,0,72.6546483148,2021-10-11,13:10:33,1633929033,3.11
003491-20211011-131003-000000073,2.413510,102.740302,28.0031986237,0,0,71.3482448624,2021-10-11,13:10:34,1633929034,3.125
003491-20211011-131003-000000074,2.413519,102.740329,28.1577568054,0,0,70.3030278439,2021-10-11,13:10:34,1633929034,3.197
003491-20211011-131003-000000075,2.413530,102.740357,28.2935886383,0,0,69.5239081653,2021-10-11,13:10:34,1633929034,3.254
003491-20211011-131003-000000076,2.413540,102.740384,28.4634342194,0,0,69.1066109278,2021-10-11,13:10:35,1633929035,3.254
003491-20211011-131003-000000077,2.413551,102.740412,28.6416301727,0,0,69.0182351101,2021-10-11,13:10:35,1633929035,3.309
003491-20211011-131003-000000078,2.413562,102.740440,28.7699050903,0,0,68.6166814586,2021-10-11,13:10:35,1633929035,3.322
003491-20211011-131003-000000079,2.413573,102.740468,28.9380187988,0,0,68.0300228504,2021-10-11,13:10:36,1633929036,3.335
003491-20211011-131003-000000080,2.413584,102.740495,29.044834137,0,0,67.4995835293,2021-10-11,13:10:36,1633929036,3.292
003491-20211011-131003-000000081,2.413596,102.740522,29.2117958069,0,0,67.0528891576,2021-10-11,13:10:36,1633929036,3.265
003491-20211011-131003-000000082,2.413608,102.740549,29.4110927582,0,0,66.7206277752,2021-10-11,13:10:37,1633929037,3.258
003491-20211011-131003-000000083,2.413619,102.740575,29.6408939362,0,0,66.4011456768,2021-10-11,13:10:37,1633929037,3.195
003491-20211011-131003-000000084,2.413631,102.740601,29.8233585358,0,0,66.0797442952,2021-10-11,13:10:38,1633929038,3.142
003491-20211011-131003-000000085,2.413642,102.740627,29.9173641205,0,0,65.721275477,2021-10-11,13:10:38,1633929038,3.103
003491-20211011-131003-000000086,2.413654,102.740651,30.0103569031,0,0,65.4638866283,2021-10-11,13:10:38,1633929038,3.026
003491-20211011-131003-000000087,2.413665,102.740676,30.0422153473,0,0,65.2868891061,2021-10-11,13:10:39,1633929039,3.006
003491-20211011-131003-000000088,2.413679,102.740703,30.1124858856,0,0,65.3228022408,2021-10-11,13:10:39,1633929039,3.39
003491-20211011-131003-000000089,2.413692,102.740731,30.0548744202,0,0,65.4463603629,2021-10-11,13:10:39,1633929039,3.387
003491-20211011-131003-000000090,2.413704,102.740758,29.9611110687,0,0,65.7922684632,2021-10-11,13:10:40,1633929040,3.337
003491-20211011-131003-000000091,2.413717,102.740785,29.7613506317,0,0,66.4494351142,2021-10-11,13:10:40,1633929040,3.334
003491-20211011-131003-000000092,2.413729,102.740813,29.5048999786,0,0,67.0040874559,2021-10-11,13:10:41,1633929041,3.393
003491-20211011-131003-000000093,2.413740,102.740838,29.1929798126,0,0,67.7009579966,2021-10-11,13:10:41,1633929041,3.01
003491-20211011-131003-000000094,2.413751,102.740865,28.8862895966,0,0,68.3516291377,2021-10-11,13:10:41,1633929041,3.261
003491-20211011-131003-000000095,2.413761,102.740891,28.5642662048,0,0,68.9707721255,2021-10-11,13:10:42,1633929042,3.104
003491-20211011-131003-000000096,2.413771,102.740919,28.3364162445,0,0,69.3227317735,2021-10-11,13:10:42,1633929042,3.307
003491-20211011-131003-000000097,2.413782,102.740947,27.8446922302,0,0,68.83553438,2021-10-11,13:10:43,1633929043,3.298
003491-20211011-131003-000000098,2.413791,102.740973,27.4210624695,0,0,69.2270818043,2021-10-11,13:10:43,1633929043,3.052
003491-20211011-131003-000000099,2.413801,102.740998,26.9168663025,0,0,69.3867852875,2021-10-11,13:10:44,1633929044,3.044
003491-20211011-131003-000000100,2.413811,102.741025,26.5589237213,0,0,68.6556203671,2021-10-11,13:10:44,1633929044,3.161
003491-20211011-131003-000000101,2.413821,102.741051,26.1816539764,0,0,69.7078861408,2021-10-11,13:10:45,1633929045,3.054
003491-20211011-131003-000000102,2.413831,102.741077,25.805065155,0,0,71.1911710021,2021-10-11,13:10:46,1633929046,3.129
003491-20211011-131003-000000103,2.413839,102.741103,25.5753917694,0,0,72.191199489,2021-10-11,13:10:46,1633929046,3.055
003491-20211011-131003-000000104,2.413847,102.741129,25.1002845764,0,0,72.1802506958,2021-10-11,13:10:46,1633929046,3.01
003491-20211011-131003-000000105,2.413855,102.741157,24.6579494476,0,0,71.7176010022,2021-10-11,13:10:47,1633929047,3.212
003491-20211011-131003-000000106,2.413864,102.741184,24.3210773468,0,0,71.5132007611,2021-10-11,13:10:47,1633929047,3.175
003491-20211011-131003-000000107,2.413873,102.741211,23.9033260345,0,0,70.9571550607,2021-10-11,13:10:48,1633929048,3.126
003491-20211011-131003-000000108,2.413883,102.741238,23.3947410583,0,0,70.2245079892,2021-10-11,13:10:48,1633929048,3.263
003491-20211011-131003-000000109,2.413894,102.741266,22.9401054382,0,0,69.4510300468,2021-10-11,13:10:49,1633929049,3.263
003491-20211011-131003-000000110,2.413903,102.741292,22.5466880798,0,0,70.0320742395,2021-10-11,13:10:49,1633929049,3.077
003491-20211011-131003-000000111,2.413913,102.741319,22.1887397766,0,0,71.8456738793,2021-10-11,13:10:50,1633929050,3.204
003491-20211011-131003-000000112,2.413921,102.741345,21.7998943329,0,0,72.135560768,2021-10-11,13:10:51,1633929051,3.055
003491-20211011-131003-000000113,2.413931,102.741373,21.6174221039,0,0,71.0578115585,2021-10-11,13:10:51,1633929051,3.253
003491-20211011-131003-000000114,2.413941,102.741400,21.1397323608,0,0,70.3617947915,2021-10-11,13:10:52,1633929052,3.268
003491-20211011-131003-000000115,2.413949,102.741426,20.7913341522,0,0,72.6045283866,2021-10-11,13:10:52,1633929052,3.048
003491-20211011-131003-000000116,2.413957,102.741453,20.5633049011,0,0,75.4051518332,2021-10-11,13:10:53,1633929053,3.046
003491-20211011-131003-000000117,2.413962,102.741482,20.2036094666,0,0,78.7779402264,2021-10-11,13:10:53,1633929053,3.243
003491-20211011-131003-000000118,2.413966,102.741509,20.0011062622,0,0,82.4796500396,2021-10-11,13:10:54,1633929054,3.126
003491-20211011-131003-000000119,2.413968,102.741536,19.6941623688,0,0,88.5018961327,2021-10-11,13:10:54,1633929054,3.008
003491-20211011-131003-000000120,2.413966,102.741564,19.1339473724,0,0,93.7474745851,2021-10-11,13:10:55,1633929055,3.096
003491-20211011-131003-000000121,2.413965,102.741591,18.8006668091,0,0,88.4942873019,2021-10-11,13:10:56,1633929056,3.022
003491-20211011-131003-000000122,2.413967,102.741619,18.5217132568,0,0,82.976341396,2021-10-11,13:10:57,1633929057,3.032
003491-20211011-131003-000000123,2.413977,102.741645,19.4786911011,0,0,83.1695469571,2021-10-11,13:10:58,1633929058,3.184
003491-20211011-131003-000000124,2.413978,102.741673,19.369146347,0,0,90.3275715469,2021-10-11,13:10:59,1633929059,3.089
003491-20211011-131003-000000125,2.413972,102.741700,19.2607307434,0,0,101.0015999365,2021-10-11,13:11:00,1633929060,3.039
003491-20211011-131003-000000126,2.413961,102.741725,19.1246395111,0,0,109.9650894107,2021-10-11,13:11:02,1633929062,3.023
003491-20211011-131003-000000127,2.413948,102.741748,19.0938854218,0,0,117.3835491136,2021-10-11,13:11:03,1633929063,3.005
003491-20211011-131003-000000128,2.413933,102.741772,18.75390625,0,0,125.7668276782,2021-10-11,13:11:04,1633929064,3.12
003491-20211011-131003-000000129,2.413915,102.741794,18.5205841064,0,0,129.4994577577,2021-10-11,13:11:05,1633929065,3.138
003491-20211011-131003-000000130,2.413898,102.741816,18.3597373962,0,0,128.3724765447,2021-10-11,13:11:06,1633929066,3.058
003491-20211011-131003-000000131,2.413882,102.741838,18.244468689,0,0,127.1367313993,2021-10-11,13:11:06,1633929066,3.051
003491-20211011-131003-000000132,2.413864,102.741860,18.0879974365,0,0,128.8233919733,2021-10-11,13:11:07,1633929067,3.125
003491-20211011-131003-000000133,2.413846,102.741882,18.0156974792,0,0,130.3618374423,2021-10-11,13:11:08,1633929068,3.161
003491-20211011-131003-000000134,2.413827,102.741903,17.8224658966,0,0,132.5693955632,2021-10-11,13:11:08,1633929068,3.19
003491-20211011-131003-000000135,2.413808,102.741924,17.6383628845,0,0,134.3631944845,2021-10-11,13:11:09,1633929069,3.113
003491-20211011-131003-000000136,2.413788,102.741943,17.529083252,0,0,134.4990742679,2021-10-11,13:11:10,1633929070,3.093
003491-20211011-131003-000000137,2.413767,102.741963,17.3901576996,0,0,134.2031494919,2021-10-11,13:11:10,1633929070,3.166
003491-20211011-131003-000000138,2.413748,102.741983,17.2751159668,0,0,132.8649651693,2021-10-11,13:11:11,1633929071,3.095
003491-20211011-131003-000000139,2.413728,102.742004,17.1932067871,0,0,131.6659664417,2021-10-11,13:11:11,1633929071,3.251
003491-20211011-131003-000000140,2.413709,102.742026,17.1500473022,0,0,130.4522418262,2021-10-11,13:11:12,1633929072,3.194
003491-20211011-131003-000000141,2.413691,102.742049,16.9646282196,0,0,129.1476756947,2021-10-11,13:11:12,1633929072,3.269
003491-20211011-131003-000000142,2.413674,102.742070,16.7858638763,0,0,127.3337140549,2021-10-11,13:11:13,1633929073,3.025
003491-20211011-131003-000000143,2.413658,102.742094,16.5680522919,0,0,125.0361203804,2021-10-11,13:11:13,1633929073,3.146
003491-20211011-131003-000000144,2.413642,102.742116,16.3119564056,0,0,122.870895772,2021-10-11,13:11:13,1633929073,3.055
003491-20211011-131003-000000145,2.413628,102.742139,16.0650405884,0,0,120.6689793874,2021-10-11,13:11:14,1633929074,3.031
003491-20211011-131003-000000146,2.413613,102.742165,15.7654867172,0,0,118.3742543923,2021-10-11,13:11:14,1633929074,3.298
003491-20211011-131003-000000147,2.413600,102.742189,15.5319051743,0,0,116.364976663,2021-10-11,13:11:15,1633929075,3.088
003491-20211011-131003-000000148,2.413595,102.742220,9.1187763214,0,0,111.4613038201,2021-10-11,13:11:17,1633929077,3.491
003491-20211011-131003-000000149,2.413578,102.742243,11.5954170227,0,0,108.6831926771,2021-10-11,13:11:17,1633929077,3.157
003491-20211011-131003-000000150,2.413571,102.742271,12.5264673233,0,0,108.5282908169,2021-10-11,13:11:18,1633929078,3.183
003491-20211011-131003-000000151,2.413561,102.742297,12.4459438324,0,0,108.4399149992,2021-10-11,13:11:19,1633929079,3.149
003491-20211011-131003-000000152,2.413559,102.742325,12.4372062683,0,0,104.5285798503,2021-10-11,13:11:20,1633929080,3.085
003491-20211011-131003-000000153,2.413548,102.742350,12.8132543564,0,0,107.518659084,2021-10-11,13:11:21,1633929081,3.057
003491-20211011-131003-000000154,2.413538,102.742376,12.892783165,0,0,109.3783556704,2021-10-11,13:11:22,1633929082,3.119
003491-20211011-131003-000000155,2.413527,102.742403,13.0439538956,0,0,112.320589429,2021-10-11,13:11:22,1633929082,3.155
003491-20211011-131003-000000156,2.413515,102.742427,13.0930175781,0,0,112.91168083,2021-10-11,13:11:23,1633929083,3.046
003491-20211011-131003-000000157,2.413503,102.742454,13.094379425,0,0,112.4448988719,2021-10-11,13:11:24,1633929084,3.219
003491-20211011-131003-000000158,2.413490,102.742479,13.0623607635,0,0,114.4060442581,2021-10-11,13:11:24,1633929084,3.155
003491-20211011-131003-000000159,2.413476,102.742502,13.0022640228,0,0,116.7797330702,2021-10-11,13:11:25,1633929085,3.024
003491-20211011-131003-000000160,2.413466,102.742528,13.3345565796,0,0,105.2731251113,2021-10-11,13:11:27,1633929087,3.033
003491-20211011-131003-000000161,2.413463,102.742555,13.9932632446,0,0,96.7248906481,2021-10-11,13:11:28,1633929088,3.038
003491-20211011-131003-000000162,2.413452,102.742580,14.0599746704,0,0,114.2935168915,2021-10-11,13:11:30,1633929090,3.002
003491-20211011-131003-000000163,2.413437,102.742603,14.1382684708,0,0,119.9005284642,2021-10-11,13:11:31,1633929091,3.06
003491-20211011-131003-000000164,2.413415,102.742620,15.7771396637,0,0,115.6063065708,2021-10-11,13:11:32,1633929092,3.103
003491-20211011-131003-000000165,2.413400,102.742643,16.0077877045,0,0,115.8634222119,2021-10-11,13:11:33,1633929093,3.041
003491-20211011-131003-000000166,2.413387,102.742667,17.6114749908,0,0,117.1605707579,2021-10-11,13:11:33,1633929093,3.008
003491-20211011-131003-000000167,2.413372,102.742691,17.2677268982,0,0,119.0070577585,2021-10-11,13:11:34,1633929094,3.139
003491-20211011-131003-000000168,2.413357,102.742715,17.461309433,0,0,120.2865434354,2021-10-11,13:11:35,1633929095,3.198
003491-20211011-131003-000000169,2.413341,102.742738,17.5346679688,0,0,121.5925029254,2021-10-11,13:11:35,1633929095,3.062
003491-20211011-131003-000000170,2.413325,102.742761,17.4965457916,0,0,121.6853661774,2021-10-11,13:11:36,1633929096,3.109
003491-20211011-131003-000000171,2.413318,102.742788,15.2305269241,0,0,120.4984568846,2021-10-11,13:11:36,1633929096,3.093
003491-20211011-131003-000000172,2.413306,102.742812,14.3110656738,0,0,117.1391103036,2021-10-11,13:11:37,1633929097,3.017
003491-20211011-131003-000000173,2.413296,102.742838,13.7527971268,0,0,113.3776158446,2021-10-11,13:11:38,1633929098,3.126
003491-20211011-131003-000000174,2.413286,102.742865,13.4137744904,0,0,111.6067390381,2021-10-11,13:11:39,1633929099,3.13
003491-20211011-131003-000000175,2.413276,102.742892,13.1427326202,0,0,113.3675276552,2021-10-11,13:11:39,1633929099,3.232
003491-20211011-131003-000000176,2.413266,102.742917,13.0159196854,0,0,115.2541146964,2021-10-11,13:11:40,1633929100,3.026
003491-20211011-131003-000000177,2.413253,102.742944,12.7688970566,0,0,117.3634683574,2021-10-11,13:11:40,1633929100,3.248
003491-20211011-131003-000000178,2.413240,102.742968,12.5946989059,0,0,117.4511953071,2021-10-11,13:11:41,1633929101,3.094
003491-20211011-131003-000000179,2.413228,102.742993,12.5088634491,0,0,115.7241409943,2021-10-11,13:11:41,1633929101,3.09
003491-20211011-131003-000000180,2.413217,102.743019,12.4760217667,0,0,113.5687586885,2021-10-11,13:11:42,1633929102,3.05
003491-20211011-131003-000000181,2.413207,102.743044,12.3322515488,0,0,111.3808578521,2021-10-11,13:11:42,1633929102,3.08
003491-20211011-131003-000000182,2.413197,102.743070,12.1939496994,0,0,109.1121558777,2021-10-11,13:11:43,1633929103,3.088
003491-20211011-131003-000000183,2.413188,102.743099,11.8062019348,0,0,106.9028492284,2021-10-11,13:11:44,1633929104,3.304
003491-20211011-131003-000000184,2.413181,102.743125,11.6683397293,0,0,106.7315071029,2021-10-11,13:11:44,1633929104,3.014
003491-20211011-131003-000000185,2.413174,102.743153,11.5229520798,0,0,105.9025407037,2021-10-11,13:11:45,1633929105,3.186
003491-20211011-131003-000000186,2.413167,102.743180,11.4002895355,0,0,106.2881936748,2021-10-11,13:11:45,1633929105,3.083
003491-20211011-131003-000000187,2.413160,102.743206,11.2348213196,0,0,107.8862735255,2021-10-11,13:11:46,1633929106,3.011
003491-20211011-131003-000000188,2.413151,102.743231,11.0892248154,0,0,110.684260519,2021-10-11,13:11:47,1633929107,3.004
003491-20211011-131003-000000189,2.413142,102.743257,11.2639951706,0,0,107.9977353826,2021-10-11,13:11:49,1633929109,3.025
003491-20211011-131003-000000190,2.413131,102.743282,11.2578287125,0,0,115.3633294212,2021-10-11,13:11:51,1633929111,3.05
003491-20211011-131003-000000191,2.413120,102.743309,10.8797330856,0,0,113.5898776334,2021-10-11,13:11:52,1633929112,3.19
003491-20211011-131003-000000192,2.413112,102.743336,10.6553382874,0,0,110.2933141513,2021-10-11,13:11:52,1633929112,3.214
003491-20211011-131003-000000193,2.413104,102.743362,10.6829891205,0,0,107.2399805357,2021-10-11,13:11:53,1633929113,3.007
003491-20211011-131003-000000194,2.413096,102.743389,10.7320537567,0,0,105.2697168469,2021-10-11,13:11:54,1633929114,3.13
003491-20211011-131003-000000195,2.413087,102.743416,11.146946907,0,0,104.5193317741,2021-10-11,13:11:54,1633929114,3.134
003491-20211011-131003-000000196,2.413081,102.743443,11.4277667999,0,0,103.7117711878,2021-10-11,13:11:55,1633929115,3.028
003491-20211011-131003-000000197,2.413075,102.743469,11.5145606995,0,0,102.0816372594,2021-10-11,13:11:55,1633929115,3.009
003491-20211011-131003-000000198,2.413069,102.743497,11.4070720673,0,0,102.3515595052,2021-10-11,13:11:56,1633929116,3.157
003491-20211011-131003-000000199,2.413063,102.743525,11.4704036713,0,0,103.1687984696,2021-10-11,13:11:56,1633929116,3.17
003491-20211011-131003-000000200,2.413057,102.743551,11.5081310272,0,0,103.2022254154,2021-10-11,13:11:56,1633929116,3.037
003491-20211011-131003-000000201,2.413051,102.743578,11.4199647903,0,0,103.7091962065,2021-10-11,13:11:57,1633929117,3.017
003491-20211011-131003-000000202,2.413043,102.743606,11.648891449,0,0,104.3171376841,2021-10-11,13:11:57,1633929117,3.199
003491-20211011-131003-000000203,2.413034,102.743632,11.5461568832,0,0,104.8696316861,2021-10-11,13:11:58,1633929118,3.138
003491-20211011-131003-000000204,2.413026,102.743661,11.5538883209,0,0,105.252784808,2021-10-11,13:11:58,1633929118,3.322
003491-20211011-131003-000000205,2.413018,102.743688,11.7111301422,0,0,105.1305107615,2021-10-11,13:11:58,1633929118,3.155
003491-20211011-131003-000000206,2.413010,102.743717,11.7862825394,0,0,104.5435311344,2021-10-11,13:11:59,1633929119,3.268
003491-20211011-131003-000000207,2.413002,102.743746,11.925069809,0,0,103.5514529876,2021-10-11,13:11:59,1633929119,3.349
003491-20211011-131003-000000208,2.412996,102.743775,11.9262933731,0,0,102.7055613797,2021-10-11,13:12:00,1633929120,3.372
003491-20211011-131003-000000209,2.412989,102.743805,11.9593801498,0,0,101.7515956885,2021-10-11,13:12:00,1633929120,3.343
003491-20211011-131003-000000210,2.412982,102.743833,11.9239768982,0,0,100.5253513362,2021-10-11,13:12:00,1633929120,3.236
003491-20211011-131003-000000211,2.412977,102.743861,11.8530883789,0,0,98.6868829777,2021-10-11,13:12:01,1633929121,3.197
003491-20211011-131003-000000212,2.412972,102.743890,11.8467531204,0,0,96.1785574767,2021-10-11,13:12:01,1633929121,3.243
003491-20211011-131003-000000213,2.412967,102.743919,11.8428258896,0,0,93.551851137,2021-10-11,13:12:02,1633929122,3.281
003491-20211011-131003-000000214,2.412965,102.743948,11.9169769287,0,0,90.7305527079,2021-10-11,13:12:02,1633929122,3.174
003491-20211011-131003-000000215,2.412965,102.743975,12.2058258057,0,0,87.8243072161,2021-10-11,13:12:02,1633929122,3.04
003491-20211011-131003-000000216,2.412966,102.744005,12.4080467224,0,0,84.610464155,2021-10-11,13:12:03,1633929123,3.365
003491-20211011-131003-000000217,2.412969,102.744035,12.5327634811,0,0,81.3598883365,2021-10-11,13:12:03,1633929123,3.297
003491-20211011-131003-000000218,2.412971,102.744065,13.0838899612,0,0,78.6026502516,2021-10-11,13:12:04,1633929124,3.36
003491-20211011-131003-000000219,2.412974,102.744096,13.6494998932,0,0,76.987460777,2021-10-11,13:12:04,1633929124,3.406
003491-20211011-131003-000000220,2.412978,102.744123,13.7805833817,0,0,76.3221252198,2021-10-11,13:12:04,1633929124,3.084
003491-20211011-131003-000000221,2.412984,102.744151,13.8822069168,0,0,76.5127284788,2021-10-11,13:12:05,1633929125,3.1
003491-20211011-131003-000000222,2.412989,102.744180,14.1084814072,0,0,76.6511286019,2021-10-11,13:12:05,1633929125,3.332
003491-20211011-131003-000000223,2.412994,102.744209,14.253944397,0,0,76.6242381472,2021-10-11,13:12:05,1633929125,3.253
003491-20211011-131003-000000224,2.413000,102.744237,14.3773984909,0,0,76.8321012942,2021-10-11,13:12:06,1633929126,3.232
003491-20211011-131003-000000225,2.413005,102.744266,14.4429149628,0,0,77.1979672073,2021-10-11,13:12:06,1633929126,3.19
003491-20211011-131003-000000226,2.413011,102.744294,14.5492324829,0,0,77.7694764559,2021-10-11,13:12:06,1633929126,3.24
003491-20211011-131003-000000227,2.413016,102.744321,14.5965309143,0,0,78.3824722735,2021-10-11,13:12:07,1633929127,3.068
003491-20211011-131003-000000228,2.413021,102.744349,14.7408905029,0,0,78.9648483531,2021-10-11,13:12:07,1633929127,3.164
003491-20211011-131003-000000229,2.413025,102.744378,14.8904123306,0,0,79.4842774093,2021-10-11,13:12:07,1633929127,3.2
003491-20211011-131003-000000230,2.413028,102.744406,15.019449234,0,0,79.9931060119,2021-10-11,13:12:08,1633929128,3.16
003491-20211011-131003-000000231,2.413033,102.744436,15.0820293427,0,0,80.6161968491,2021-10-11,13:12:08,1633929128,3.33
003491-20211011-131003-000000232,2.413037,102.744464,15.1736898422,0,0,81.1135097528,2021-10-11,13:12:09,1633929129,3.234
003491-20211011-131003-000000233,2.413041,102.744492,15.2947273254,0,0,81.7299343253,2021-10-11,13:12:09,1633929129,3.08
003491-20211011-131003-000000234,2.413045,102.744519,15.3683891296,0,0,82.2454496831,2021-10-11,13:12:09,1633929129,3.038
003491-20211011-131003-000000235,2.413048,102.744546,15.5050287247,0,0,82.5233837408,2021-10-11,13:12:10,1633929130,3.062
003491-20211011-131003-000000236,2.413052,102.744576,15.5368833542,0,0,81.4226714353,2021-10-11,13:12:10,1633929130,3.344
003491-20211011-131003-000000237,2.413057,102.744603,15.6354999542,0,0,80.4580301585,2021-10-11,13:12:11,1633929131,3.023
003491-20211011-131003-000000238,2.413062,102.744630,15.6931743622,0,0,79.8416533972,2021-10-11,13:12:11,1633929131,3.015
003491-20211011-131003-000000239,2.413066,102.744659,15.8258113861,0,0,79.2890842632,2021-10-11,13:12:11,1633929131,3.233
003491-20211011-131003-000000240,2.413069,102.744688,15.9331989288,0,0,78.4483972594,2021-10-11,13:12:12,1633929132,3.26
003491-20211011-131003-000000241,2.413075,102.744715,16.0677547455,0,0,76.9041051484,2021-10-11,13:12:12,1633929132,3.142
003491-20211011-131003-000000242,2.413081,102.744743,16.1594238281,0,0,74.9657657639,2021-10-11,13:12:13,1633929133,3.171
003491-20211011-131003-000000243,2.413088,102.744770,16.2063732147,0,0,73.8695613832,2021-10-11,13:12:14,1633929134,3.041
003491-20211011-131003-000000244,2.413095,102.744797,16.5213928223,0,0,74.3477975685,2021-10-11,13:12:16,1633929136,3.158
003491-20211011-131003-000000245,2.413102,102.744825,16.666727066,0,0,74.9409585168,2021-10-11,13:12:17,1633929137,3.202
003491-20211011-131003-000000246,2.413110,102.744851,16.7268257141,0,0,73.4202715396,2021-10-11,13:12:17,1633929137,3.032
003491-20211011-131003-000000247,2.413119,102.744878,16.7507534027,0,0,71.5919801629,2021-10-11,13:12:18,1633929138,3.135
