#0:imgID,1:camSN,2:lat,3:lon,4:height,5:roll,6:pitch,7:heading,8:speed,9:speed_n,10:speed_e,11:speed_d,12:date,13:time,14:unix_time_sec,15:unix_time_microsec,16:systemStatus,17:filterStatus,18:haveFix,19:extVelocity,20:distancetoprevious,21:releaseMode,22:device_id,23:lat_dev,24:lon_dev,25:hei_dev,26:hdop,27:vdop,28:fs_10,29:gnss_fix_status,30:gps_sat,31:glonass_sat,32:beidu_sat,33:gal_sat,34:sbas_sat,35:custLog0,36:custLog1,37:custLog2,38:custLog3,39:custLog4,40:custLog5,41:custLog6,42:custLog7,43:custLog8,44:custLog9,45:unix_time_sec_fixed,46:unix_time_microsec_fixed,47:pnvgbss_field3,48:pnvgbss_field4,49:pnvgbss_field5,50:pnvgbss_field6,51:pnvgbss_field7
003491-20211003-120322-000000001,220003491       ,2.4338370519,102.8299500923,25.8824520111,0.00000000,0.00000000,7.8397158888,13.597,3.724,0.628,-0.835,2021-10-03,04:03:22.400001,1633233802,400001,0000,5A4F,1,1,0.000,GPS-3.0,5,0.113,0.122,0.323,0.817,1.322,0,4,9,5,0,0,4,,,,,,,,,,,0,000000,,,,,
003491-20211003-120322-000000002,220003491       ,2.4338647158,102.8299537538,26.4928073883,0.00000000,0.00000000,8.8733386612,8.929,2.469,0.236,-0.552,2021-10-03,04:03:23.350204,1633233803,350204,0000,5A4F,1,1,3.103,GPS-3.0,5,0.114,0.123,0.323,0.817,1.322,0,4,9,5,0,0,4,,,,,,,,,,,0,000000,,,,,
003491-20211003-120322-000000003,220003491       ,2.4338911905,102.8299594321,27.0015602112,0.00000000,0.00000000,10.3101150568,9.387,2.557,0.511,-0.429,2021-10-03,04:03:24.550162,1633233804,550162,0000,5A4F,1,1,3.011,GPS-3.0,5,0.115,0.124,0.324,0.817,1.322,0,4,9,5,0,0,4,,,,,,,,,,,0,000000,,,,,
003491-20211003-120322-000000004,220003491       ,2.4339183823,102.8299648548,27.4150409698,0.00000000,0.00000000,11.7071696336,11.408,3.089,0.706,-0.400,2021-10-03,04:03:25.699998,1633233805,699998,0000,5A4F,1,1,3.083,GPS-3.0,5,0.116,0.125,0.324,0.817,1.321,0,4,9,5,0,0,4,,,,,,,,,,,0,000000,,,,,
003491-20211003-120322-000000005,220003491       ,2.4339459706,102.8299708064,27.6968193054,0.00000000,0.00000000,12.3315138106,14.760,3.981,0.983,-0.359,2021-10-03,04:03:26.549995,1633233806,549995,0000,5A4F,1,1,3.138,GPS-3.0,5,0.118,0.127,0.326,0.817,1.321,0,4,9,5,0,0,4,,,,,,,,,,,0,000000,,,,,
003491-20211003-120322-000000006,220003491       ,2.4339727694,102.8299767634,27.9587516785,0.00000000,0.00000000,12.3605190627,18.669,4.986,1.427,-0.383,2021-10-03,04:03:27.199998,1633233807,199998,0000,5A4F,1,1,3.052,GPS-3.0,5,0.116,0.126,0.325,0.817,1.321,0,4,9,5,0,0,4,,,,,,,,,,,0,000000,,,,,
003491-20211003-120322-000000007,220003491       ,2.4339998458,102.8299825879,28.0889625549,0.00000000,0.00000000,11.6942443544,21.619,5.878,1.231,-0.276,2021-10-03,04:03:27.749997,1633233807,749997,0000,5A4F,1,1,3.080,GPS-3.0,5,0.116,0.126,0.325,0.817,1.321,0,4,9,5,0,0,4,,,,,,,,,,,0,000000,,,,,
003491-20211003-120322-000000008,220003491       ,2.4340280651,102.8299883544,28.2038249969,0.00000000,0.00000000,11.0812280462,24.075,6.575,1.221,-0.224,2021-10-03,04:03:28.250091,1633233808,250091,0000,5A4F,1,1,3.203,GPS-3.0,5,0.116,0.127,0.326,0.817,1.321,0,4,9,5,0,0,3,,,,,,,,,,,0,000000,,,,,
003491-20211003-120322-000000009,220003491       ,2.4340565823,102.8299934935,28.3274192810,0.00000000,0.00000000,10.2338679476,26.829,7.343,1.273,-0.310,2021-10-03,04:03:28.699999,1633233808,699999,0000,5A4F,1,1,3.222,GPS-3.0,5,0.117,0.127,0.326,0.817,1.320,0,4,9,5,0,0,3,,,,,,,,,,,0,000000,,,,,
003491-20211003-120322-000000010,220003491       ,2.4340839006,102.8299981310,28.4107017517,0.00000000,0.00000000,9.3718656309,27.576,7.574,1.145,-0.210,2021-10-03,04:03:29.100273,1633233809,100273,0000,5A4F,1,1,3.081,GPS-3.0,5,0.117,0.127,0.327,0.817,1.320,0,4,9,5,0,0,3,,,,,,,,,,,0,000000,,,,,
003491-20211003-120322-000000011,220003491       ,2.4341119133,102.8300026452,28.5091991425,0.00000000,0.00000000,8.4713675144,28.620,7.867,1.147,-0.232,2021-10-03,04:03:29.499999,1633233809,499999,0000,5A4F,1,1,3.155,GPS-3.0,5,0.117,0.128,0.327,0.817,1.320,0,4,9,5,0,0,3,,,,,,,,,,,0,000000,,,,,
003491-20211003-120322-000000012,220003491       ,2.4341406994,102.8300066594,28.5877933502,0.00000000,0.00000000,7.5751322896,28.734,7.901,1.128,-0.142,2021-10-03,04:03:29.899999,1633233809,899999,0000,5A4F,1,1,3.232,GPS-3.0,5,0.117,0.128,0.328,0.817,1.320,0,4,9,5,0,0,3,,,,,,,,,,,0,000000,,,,,
003491-20211003-120322-000000013,220003491       ,2.4341696482,102.8300098882,28.6592350006,0.00000000,0.00000000,6.8011092127,28.972,7.993,0.937,-0.151,2021-10-03,04:03:30.300220,1633233810,300220,0000,5A4F,1,1,3.239,GPS-3.0,5,0.117,0.128,0.328,0.891,1.362,0,4,9,5,0,0,4,,,,,,,,,,,0,000000,,,,,
003491-20211003-120322-000000014,220003491       ,2.4341986948,102.8300130515,28.7308654785,0.00000000,0.00000000,6.3967675634,29.566,8.151,1.006,-0.184,2021-10-03,04:03:30.699998,1633233810,699998,0000,5A4F,1,1,3.249,GPS-3.0,5,0.117,0.128,0.328,0.891,1.361,0,4,9,5,0,0,4,,,,,,,,,,,0,000000,,,,,
003491-20211003-120322-000000015,220003491       ,2.4342284245,102.8300163885,28.8227958679,0.00000000,0.00000000,6.1439408542,29.716,8.199,0.955,-0.219,2021-10-03,04:03:31.099999,1633233811,099999,0000,5A4F,1,1,3.327,GPS-3.0,5,0.116,0.128,0.328,0.891,1.361,0,4,9,5,0,0,4,,,,,,,,,,,0,000000,,,,,
003491-20211003-120322-000000016,220003491       ,2.4342586675,102.8300199936,28.8978481293,0.00000000,0.00000000,6.0867930883,30.836,8.509,0.980,-0.239,2021-10-03,04:03:31.500166,1633233811,500166,0000,5A4F,1,1,3.387,GPS-3.0,5,0.116,0.128,0.328,0.891,1.361,0,4,9,5,0,0,4,,,,,,,,,,,0,000000,,,,,
003491-20211003-120322-000000017,220003491       ,2.4342892100,102.8300232086,28.9870090485,0.00000000,0.00000000,6.3100463591,30.663,8.457,1.010,-0.195,2021-10-03,04:03:31.899999,1633233811,899999,0000,5A4F,1,1,3.415,GPS-3.0,5,0.115,0.128,0.329,0.817,1.320,0,4,9,5,0,0,4,,,,,,,,,,,0,000000,,,,,
003491-20211003-120322-000000018,220003491       ,2.4343196143,102.8300266276,29.0489082336,0.00000000,0.00000000,6.6297751981,29.811,8.217,1.022,-0.082,2021-10-03,04:03:32.299998,1633233812,299998,0000,5A4F,1,1,3.402,GPS-3.0,5,0.115,0.128,0.329,0.891,1.361,0,4,9,5,0,0,4,,,,,,,,,,,0,000000,,,,,
003491-20211003-120322-000000019,220003491       ,2.4343493274,102.8300302802,29.0811252594,0.00000000,0.00000000,6.9412369469,29.362,8.055,1.281,-0.018,2021-10-03,04:03:32.700117,1633233812,700117,0000,5A4F,1,1,3.329,GPS-3.0,5,0.114,0.128,0.329,0.817,1.320,0,4,9,5,0,0,4,,,,,,,,,,,0,000000,,,,,
003491-20211003-120322-000000020,220003491       ,2.4343784517,102.8300342059,29.1075363159,0.00000000,0.00000000,7.3490479054,29.221,8.041,1.111,-0.017,2021-10-03,04:03:33.099999,1633233813,099999,0000,5A4F,1,1,3.268,GPS-3.0,5,0.114,0.128,0.329,0.890,1.748,0,4,9,5,0,0,4,,,,,,,,,,,0,000000,,,,,
003491-20211003-120322-000000021,220003491       ,2.4344072069,102.8300383783,29.1029567719,0.00000000,0.00000000,7.8308161523,28.666,7.870,1.215,0.057,2021-10-03,04:03:33.499999,1633233813,499999,0000,5A4F,1,1,3.231,GPS-3.0,5,0.113,0.128,0.329,0.817,1.320,0,4,9,5,0,0,4,,,,,,,,,,,0,000000,,,,,
003491-20211003-120322-000000022,220003491       ,2.4344355196,102.8300425807,29.0850925446,0.00000000,0.00000000,8.2629758815,28.505,7.818,1.255,0.094,2021-10-03,04:03:33.900069,1633233813,900069,0000,5A4F,1,1,3.183,GPS-3.0,5,0.113,0.128,0.329,0.890,1.748,0,4,9,5,0,0,4,,,,,,,,,,,0,000000,,,,,
003491-20211003-120322-000000023,220003491       ,2.4344635765,102.8300467200,29.0403156281,0.00000000,0.00000000,8.6526663481,28.392,7.813,1.076,0.151,2021-10-03,04:03:34.299998,1633233814,299998,0000,5A4F,1,1,3.154,GPS-3.0,5,0.112,0.128,0.329,0.817,1.320,0,4,9,5,0,0,4,,,,,,,,,,,0,000000,,,,,
003491-20211003-120322-000000024,220003491       ,2.4344915483,102.8300510678,28.9620075226,0.00000000,0.00000000,8.8988468564,28.141,7.746,1.052,0.253,2021-10-03,04:03:34.700008,1633233814,700008,0000,5A4F,1,1,3.148,GPS-3.0,5,0.112,0.128,0.330,0.817,1.319,0,4,9,5,0,0,4,,,,,,,,,,,0,000000,,,,,
003491-20211003-120322-000000025,220003491       ,2.4345196435,102.8300553180,28.8561668396,0.00000000,0.00000000,8.6484879799,28.049,7.683,1.293,0.316,2021-10-03,04:03:35.100017,1633233815,100017,0000,5A4F,1,1,3.160,GPS-3.0,5,0.112,0.128,0.330,0.817,1.319,0,4,9,5,0,0,4,,,,,,,,,,,0,000000,,,,,
003491-20211003-120322-000000026,220003491       ,2.4345477521,102.8300594465,28.7380867004,0.00000000,0.00000000,8.2944835441,28.171,7.756,1.040,0.318,2021-10-03,04:03:35.500013,1633233815,500013,0000,5A4F,1,1,3.159,GPS-3.0,5,0.111,0.127,0.330,0.817,1.319,0,4,9,5,0,0,4,,,,,,,,,,,0,000000,,,,,
003491-20211003-120322-000000027,220003491       ,2.4345754918,102.8300630725,28.6056098938,0.00000000,0.00000000,7.9388663299,27.270,7.510,0.991,0.327,2021-10-03,04:03:35.899999,1633233815,899999,0000,5A4F,1,1,3.111,GPS-3.0,5,0.111,0.127,0.331,0.925,1.341,0,4,9,5,0,0,4,,,,,,,,,,,0,000000,,,,,
003491-20211003-120322-000000028,220003491       ,2.4346052795,102.8300666583,28.4677391052,0.00000000,0.00000000,7.4904165995,26.212,7.226,0.891,0.300,2021-10-03,04:03:36.349995,1633233816,349995,0000,5A4F,1,1,3.336,GPS-3.0,5,0.111,0.128,0.331,0.891,1.361,0,4,9,5,0,0,4,,,,,,,,,,,0,000000,,,,,
003491-20211003-120322-000000029,220003491       ,2.4346338887,102.8300701319,28.3365726471,0.00000000,0.00000000,7.2452486668,24.891,6.836,1.040,0.321,2021-10-03,04:03:36.800002,1633233816,800002,0000,5A4F,1,1,3.205,GPS-3.0,5,0.112,0.128,0.332,1.005,1.379,0,4,9,5,0,0,4,,,,,,,,,,,0,000000,,,,,
003491-20211003-120322-000000030,220003491       ,2.4346609154,102.8300735193,28.1936721802,0.00000000,0.00000000,7.3604568826,22.957,6.307,0.942,0.361,2021-10-03,04:03:37.250258,1633233817,250258,0000,5A4F,1,1,3.029,GPS-3.0,5,0.113,0.129,0.332,0.891,1.360,0,4,9,5,0,0,3,,,,,,,,,,,0,000000,,,,,
003491-20211003-120322-000000031,220003491       ,2.4346882966,102.8300773102,27.9686584473,0.00000000,0.00000000,8.1298648860,20.892,5.705,1.066,0.407,2021-10-03,04:03:37.749995,1633233817,749995,0000,5A4F,1,1,3.074,GPS-3.0,5,0.114,0.129,0.333,0.817,1.319,0,4,9,5,0,0,3,,,,,,,,,,,0,000000,,,,,
003491-20211003-120322-000000032,220003491       ,2.4347154293,102.8300818978,27.6267738342,0.00000000,0.00000000,9.1957534721,19.188,5.209,1.129,0.513,2021-10-03,04:03:38.299999,1633233818,299999,0000,5A4F,1,1,3.060,GPS-3.0,5,0.115,0.130,0.335,0.817,1.319,0,4,9,5,0,0,3,,,,,,,,,,,0,000000,,,,,
003491-20211003-120322-000000033,220003491       ,2.4347435719,102.8300868913,27.2194480896,0.00000000,0.00000000,10.1979624969,15.954,4.364,0.771,0.579,2021-10-03,04:03:38.949995,1633233818,949995,0000,5A4F,1,1,3.178,GPS-3.0,5,0.116,0.131,0.336,0.817,1.319,0,4,9,5,0,0,3,,,,,,,,,,,0,000000,,,,,
003491-20211003-120322-000000034,220003491       ,2.4347713092,102.8300920126,26.8626556396,0.00000000,0.00000000,10.9956705354,15.646,4.259,0.865,0.527,2021-10-03,04:03:39.699998,1633233819,699998,0000,5A4F,1,1,3.136,GPS-3.0,5,0.117,0.133,0.338,0.925,1.340,0,4,9,5,0,0,3,,,,,,,,,,,0,000000,,,,,
003491-20211003-120322-000000035,220003491       ,2.4347985149,102.8300982509,26.5576229095,0.00000000,0.00000000,12.6967385397,16.983,4.540,1.282,0.444,2021-10-03,04:03:40.400233,1633233820,400233,0000,5A4F,1,1,3.104,GPS-3.0,5,0.120,0.134,0.340,0.865,1.529,0,4,9,5,0,0,3,,,,,,,,,,,0,000000,,,,,
003491-20211003-120322-000000036,220003491       ,2.4348247640,102.8301073938,26.1853847504,0.00000000,0.00000000,14.6911904896,17.615,4.712,1.319,0.479,2021-10-03,04:03:41.050244,1633233821,050244,0000,5A4F,1,1,3.090,GPS-3.0,5,0.121,0.136,0.342,0.817,1.443,0,4,9,5,0,0,3,,,,,,,,,,,0,000000,,,,,
003491-20211003-120322-000000037,220003491       ,2.4348523347,102.8301168571,25.7506294250,0.00000000,0.00000000,15.5675532789,18.188,4.807,1.554,0.541,2021-10-03,04:03:41.700250,1633233821,700250,0000,5A4F,1,1,3.241,GPS-3.0,5,0.124,0.138,0.345,0.889,1.746,0,4,9,5,0,0,2,,,,,,,,,,,0,000000,,,,,
003491-20211003-120322-000000038,220003491       ,2.4348794195,102.8301254885,25.3886909485,0.00000000,0.00000000,14.5132247881,18.891,4.992,1.617,0.580,2021-10-03,04:03:42.299998,1633233822,299998,0000,5A4F,1,1,3.161,GPS-3.0,5,0.128,0.142,0.348,0.817,1.318,0,4,9,5,0,0,2,,,,,,,,,,,0,000000,,,,,
003491-20211003-120322-000000039,220003491       ,2.4349071855,102.8301331156,25.0322017670,0.00000000,0.00000000,13.0203511950,19.021,5.177,1.056,0.596,2021-10-03,04:03:42.900191,1633233822,900191,0000,5A4F,1,1,3.202,GPS-3.0,5,0.135,0.148,0.353,1.176,1.996,0,4,9,5,0,0,2,,,,,,,,,,,0,000000,,,,,
003491-20211003-120322-000000040,220003491       ,2.4349345151,102.8301376523,24.8174991608,0.00000000,0.00000000,11.6729153812,20.035,5.469,1.031,0.598,2021-10-03,04:03:43.450127,1633233823,450127,0000,5A4F,1,1,3.080,GPS-3.0,5,0.134,0.147,0.354,0.974,1.398,0,4,9,5,0,0,1,,,,,,,,,,,0,000000,,,,,
003491-20211003-120322-000000041,220003491       ,2.4349612635,102.8301414632,24.6451911926,0.00000000,0.00000000,11.5238354035,21.095,5.684,1.424,0.640,2021-10-03,04:03:43.949995,1633233823,949995,0000,5A4F,1,1,3.004,GPS-3.0,5,0.135,0.148,0.355,0.975,1.547,0,4,9,5,0,0,1,,,,,,,,,,,0,000000,,,,,
003491-20211003-120322-000000042,220003491       ,2.4349880954,102.8301467186,24.3290939331,0.00000000,0.00000000,11.8778756978,21.763,5.958,1.024,0.563,2021-10-03,04:03:44.449995,1633233824,449995,0000,5A4F,1,1,3.040,GPS-3.0,5,0.136,0.149,0.357,1.071,1.792,0,4,9,5,0,0,1,,,,,,,,,,,0,000000,,,,,
003491-20211003-120322-000000043,220003491       ,2.4350158275,102.8301521465,24.2634296417,0.00000000,0.00000000,11.6534450732,22.243,6.083,1.080,0.415,2021-10-03,04:03:44.950040,1633233824,950040,0000,5A4F,1,1,3.142,GPS-3.0,5,0.137,0.150,0.358,1.051,1.553,0,4,9,5,0,0,1,,,,,,,,,,,0,000000,,,,,
003491-20211003-120322-000000044,220003491       ,2.4350439305,102.8301571735,24.0328063965,0.00000000,0.00000000,11.1595933679,22.426,6.127,1.124,0.387,2021-10-03,04:03:45.449995,1633233825,449995,0000,5A4F,1,1,3.174,GPS-3.0,5,0.138,0.151,0.360,1.532,2.017,0,4,9,5,0,0,1,,,,,,,,,,,0,000000,,,,,
003491-20211003-120322-000000045,220003491       ,2.4350721166,102.8301625282,23.9870109558,0.00000000,0.00000000,10.6201048999,22.650,6.217,0.965,0.246,2021-10-03,04:03:45.950104,1633233825,950104,0000,5A4F,1,1,3.190,GPS-3.0,5,0.140,0.152,0.361,1.051,1.553,0,4,9,5,0,0,1,,,,,,,,,,,0,000000,,,,,
003491-20211003-120322-000000046,220003491       ,2.4351006388,102.8301679202,23.9632816315,0.00000000,0.00000000,9.8000177466,23.160,6.324,1.179,0.209,2021-10-03,04:03:46.449995,1633233826,449995,0000,5A4F,1,1,3.228,GPS-3.0,5,0.141,0.154,0.363,1.051,1.553,0,4,9,5,0,0,1,,,,,,,,,,,0,000000,,,,,
003491-20211003-120322-000000047,220003491       ,2.4351293176,102.8301724591,23.7625427246,0.00000000,0.00000000,8.1238790790,23.057,6.337,0.932,0.334,2021-10-03,04:03:46.949995,1633233826,949995,0000,5A4F,1,1,3.229,GPS-3.0,5,0.145,0.157,0.367,1.161,2.023,0,4,9,5,0,0,1,,,,,,,,,,,0,000000,,,,,
003491-20211003-120322-000000048,220003491       ,2.4351586443,102.8301769406,23.5438213348,0.00000000,0.00000000,6.0210486756,23.059,6.354,0.808,0.451,2021-10-03,04:03:47.450027,1633233827,450027,0000,5A4F,1,1,3.299,GPS-3.0,5,0.148,0.160,0.370,1.164,1.919,0,4,9,5,0,0,2,,,,,,,,,,,0,000000,,,,,
003491-20211003-120322-000000049,220003491       ,2.4351881660,102.8301796436,23.4150047302,0.00000000,0.00000000,3.9052246910,22.361,6.208,0.214,0.402,2021-10-03,04:03:47.949995,1633233827,949995,0000,5A4F,1,1,3.296,GPS-3.0,5,0.149,0.161,0.371,1.559,2.049,0,4,9,5,0,0,2,,,,,,,,,,,0,000000,,,,,
003491-20211003-120322-000000050,220003491       ,2.4352153769,102.8301801921,23.3279514313,0.00000000,0.00000000,1.9537948220,21.525,5.978,0.135,0.368,2021-10-03,04:03:48.450089,1633233828,450089,0000,5A4F,1,1,3.026,GPS-3.0,5,0.150,0.162,0.373,1.532,2.016,0,4,9,5,0,0,1,,,,,,,,,,,0,000000,,,,,
003491-20211003-120322-000000051,220003491       ,2.4352438353,102.8301796792,23.1234455109,0.00000000,0.00000000,0.7861951676,20.136,5.593,-0.005,0.431,2021-10-03,04:03:49.000036,1633233829,000036,0000,5A4F,1,1,3.165,GPS-3.0,5,0.151,0.163,0.374,1.127,1.892,0,4,9,5,0,0,1,,,,,,,,,,,0,000000,,,,,
003491-20211003-120322-000000052,220003491       ,2.4352715406,102.8301793875,22.9102573395,0.00000000,0.00000000,0.5094564464,20.325,5.645,-0.064,0.469,2021-10-03,04:03:49.549995,1633233829,549995,0000,5A4F,1,1,3.081,GPS-3.0,5,0.152,0.164,0.376,1.127,1.892,0,4,9,5,0,0,1,,,,,,,,,,,0,000000,,,,,
003491-20211003-120322-000000053,220003491       ,2.4353002295,102.8301801139,22.5924282074,0.00000000,0.00000000,1.5605060196,21.595,5.997,0.127,0.568,2021-10-03,04:03:50.099999,1633233830,099999,0000,5A4F,1,1,3.191,GPS-3.0,5,0.154,0.166,0.378,1.005,1.377,0,4,9,5,0,0,1,,,,,,,,,,,0,000000,,,,,
003491-20211003-120322-000000054,220003491       ,2.4353284766,102.8301817702,22.5912551880,0.00000000,0.00000000,2.6157140040,23.175,6.424,0.420,0.467,2021-10-03,04:03:50.600021,1633233830,600021,0000,5A4F,1,1,3.146,GPS-3.0,5,0.155,0.167,0.379,1.051,1.553,0,4,9,5,0,0,1,,,,,,,,,,,0,000000,,,,,
003491-20211003-120322-000000055,220003491       ,2.4353570130,102.8301840515,22.4119415283,0.00000000,0.00000000,2.2288619078,23.956,6.648,0.298,0.434,2021-10-03,04:03:51.099999,1633233831,099999,0000,5A4F,1,1,3.183,GPS-3.0,5,0.156,0.168,0.381,1.051,1.553,0,4,9,5,0,0,1,,,,,,,,,,,0,000000,,,,,
003491-20211003-120322-000000056,220003491       ,2.4353842340,102.8301847079,22.3660106659,0.00000000,0.00000000,0.9681508202,24.709,6.863,0.102,0.310,2021-10-03,04:03:51.549995,1633233831,549995,0000,5A4F,1,1,3.028,GPS-3.0,5,0.157,0.168,0.381,1.051,1.553,0,4,9,5,0,0,1,,,,,,,,,,,0,000000,,,,,
003491-20211003-120322-000000057,220003491       ,2.4354121370,102.8301864618,22.0512123108,0.00000000,0.00000000,3.6317831902,24.223,6.709,0.513,0.345,2021-10-03,04:03:52.000010,1633233832,000010,0000,5A4F,1,1,3.109,GPS-3.0,5,0.157,0.169,0.383,1.051,1.553,0,4,9,5,0,0,1,,,,,,,,,,,0,000000,,,,,
003491-20211003-120322-000000058,220003491       ,2.4354395223,102.8301891222,21.8432712555,0.00000000,0.00000000,7.1421226287,22.247,6.115,0.895,0.279,2021-10-03,04:03:52.450276,1633233832,450276,0000,5A4F,1,1,3.059,GPS-3.0,5,0.157,0.169,0.383,0.891,1.358,0,4,9,5,0,0,1,,,,,,,,,,,0,000000,,,,,
003491-20211003-120322-000000059,220003491       ,2.4354684373,102.8301933682,21.5361881256,0.00000000,0.00000000,8.9408909396,19.392,5.341,0.698,0.255,2021-10-03,04:03:53.000206,1633233833,000206,0000,5A4F,1,1,3.250,GPS-3.0,5,0.157,0.170,0.385,0.891,1.358,0,4,9,5,0,0,1,,,,,,,,,,,0,000000,,,,,
003491-20211003-120322-000000060,220003491       ,2.4354959643,102.8301962733,21.4672374725,0.00000000,0.00000000,7.0990984134,16.757,4.632,0.462,0.152,2021-10-03,04:03:53.600001,1633233833,600001,0000,5A4F,1,1,3.078,GPS-3.0,5,0.157,0.170,0.386,0.891,1.358,0,4,9,5,0,0,1,,,,,,,,,,,0,000000,,,,,
003491-20211003-120322-000000061,220003491       ,2.4355237778,102.8301988688,21.3871421814,0.00000000,0.00000000,6.2446464440,12.534,3.470,0.289,0.086,2021-10-03,04:03:54.349995,1633233834,349995,0000,5A4F,1,1,3.106,GPS-3.0,5,0.156,0.171,0.387,0.891,1.358,0,4,9,5,0,0,2,,,,,,,,,,,0,000000,,,,,
003491-20211003-120322-000000062,220003491       ,2.4355508279,102.8302016198,21.3732719421,0.00000000,0.00000000,6.3644296059,3.806,1.037,0.205,-0.035,2021-10-03,04:03:56.150190,1633233836,150190,0000,5A4F,1,1,3.023,GPS-3.0,5,0.148,0.170,0.389,0.817,1.316,0,4,9,5,0,0,2,,,,,,,,,,,0,000000,,,,,
003491-20211003-120322-000000063,220003491       ,2.4355782614,102.8302049809,21.4381008148,0.00000000,0.00000000,8.6033088399,5.752,1.563,0.332,0.023,2021-10-03,04:03:58.450014,1633233838,450014,0000,5A4F,1,1,3.073,GPS-3.0,5,0.146,0.171,0.389,0.891,1.357,0,4,9,5,0,0,2,,,,,,,,,,,0,000000,,,,,
003491-20211003-120322-000000064,220003491       ,2.4356064041,102.8302089462,21.2447299957,0.00000000,0.00000000,8.8429195599,12.749,3.498,0.553,0.169,2021-10-03,04:03:59.750043,1633233839,750043,0000,5A4F,1,1,3.160,GPS-3.0,5,0.146,0.172,0.391,0.981,1.440,0,4,10,5,0,0,2,,,,,,,,,,,0,000000,,,,,
003491-20211003-120322-000000065,220003491       ,2.4356353708,102.8302119817,21.0350532532,0.00000000,0.00000000,8.1919197160,17.457,4.806,0.644,0.261,2021-10-03,04:04:00.500146,1633233840,500146,0000,5A4F,1,1,3.239,GPS-3.0,5,0.146,0.173,0.393,0.823,1.290,0,4,10,5,0,0,2,,,,,,,,,,,0,000000,,,,,
003491-20211003-120322-000000066,220003491       ,2.4356639146,102.8302151609,20.8138751984,0.00000000,0.00000000,7.9316843860,19.630,5.395,0.791,0.334,2021-10-03,04:04:01.100000,1633233841,100000,0000,5A4F,1,1,3.194,GPS-3.0,5,0.145,0.172,0.393,0.823,1.289,0,4,10,5,0,0,2,,,,,,,,,,,0,000000,,,,,
003491-20211003-120322-000000067,220003491       ,2.4356909232,102.8302185919,20.6025314331,0.00000000,0.00000000,8.0681729099,18.848,5.187,0.711,0.370,2021-10-03,04:04:01.649995,1633233841,649995,0000,5A4F,1,1,3.027,GPS-3.0,5,0.143,0.172,0.394,0.823,1.289,0,4,10,5,0,0,3,,,,,,,,,,,0,000000,,,,,
003491-20211003-120322-000000068,220003491       ,2.4357183602,102.8302217472,20.4244956970,0.00000000,0.00000000,8.1925609000,17.723,4.893,0.545,0.321,2021-10-03,04:04:02.250028,1633233842,250028,0000,5A4F,1,1,3.071,GPS-3.0,5,0.141,0.172,0.395,0.754,1.235,0,4,10,5,0,0,3,,,,,,,,,,,0,000000,,,,,
003491-20211003-120322-000000069,220003491       ,2.4357464492,102.8302249876,20.2211093903,0.00000000,0.00000000,7.9588941521,17.551,4.838,0.604,0.299,2021-10-03,04:04:02.900045,1633233842,900045,0000,5A4F,1,1,3.144,GPS-3.0,5,0.141,0.173,0.396,0.823,1.289,0,4,10,5,0,0,3,,,,,,,,,,,0,000000,,,,,
003491-20211003-120322-000000070,220003491       ,2.4357736297,102.8302284239,20.0581874847,0.00000000,0.00000000,7.8102120329,18.489,5.098,0.626,0.300,2021-10-03,04:04:03.500000,1633233843,500000,0000,5A4F,1,1,3.046,GPS-3.0,5,0.140,0.173,0.397,0.823,1.289,0,4,10,5,0,0,4,,,,,,,,,,,0,000000,,,,,
003491-20211003-120322-000000071,220003491       ,2.4358022411,102.8302325191,19.9062137604,0.00000000,0.00000000,7.6839252502,19.463,5.374,0.590,0.274,2021-10-03,04:04:04.099999,1633233844,099999,0000,5A4F,1,1,3.214,GPS-3.0,5,0.139,0.174,0.398,0.982,1.439,0,4,10,5,0,0,4,,,,,,,,,,,0,000000,,,,,
003491-20211003-120322-000000072,220003491       ,2.4358295572,102.8302362000,19.7204303741,0.00000000,0.00000000,8.1052198560,20.247,5.578,0.718,0.277,2021-10-03,04:04:04.649996,1633233844,649996,0000,5A4F,1,1,3.065,GPS-3.0,5,0.138,0.174,0.398,0.823,1.289,0,4,10,5,0,0,4,,,,,,,,,,,0,000000,,,,,
003491-20211003-120322-000000073,220003491       ,2.4358579988,102.8302399248,19.5740814209,0.00000000,0.00000000,8.2181194679,21.303,5.883,0.639,0.239,2021-10-03,04:04:05.200002,1633233845,200002,0000,5A4F,1,1,3.190,GPS-3.0,5,0.136,0.174,0.398,0.754,1.234,0,4,10,5,0,0,4,,,,,,,,,,,0,000000,,,,,
003491-20211003-120322-000000074,220003491       ,2.4358861932,102.8302434825,19.4521751404,0.00000000,0.00000000,8.1446548069,23.565,6.488,0.870,0.192,2021-10-03,04:04:05.700273,1633233845,700273,0000,5A4F,1,1,3.160,GPS-3.0,5,0.135,0.174,0.399,0.823,1.289,0,4,10,5,0,0,4,,,,,,,,,,,0,000000,,,,,
003491-20211003-120322-000000075,220003491       ,2.4359136754,102.8302467420,19.3328742981,0.00000000,0.00000000,7.9612522749,25.079,6.923,0.776,0.154,2021-10-03,04:04:06.150121,1633233846,150121,0000,5A4F,1,1,3.077,GPS-3.0,5,0.133,0.174,0.399,0.982,1.439,0,4,10,5,0,0,4,,,,,,,,,,,0,000000,,,,,
003491-20211003-120322-000000076,220003491       ,2.4359429980,102.8302506547,19.3195114136,0.00000000,0.00000000,7.8388510161,25.930,7.159,0.790,0.064,2021-10-03,04:04:06.600002,1633233846,600002,0000,5A4F,1,1,3.289,GPS-3.0,5,0.132,0.174,0.400,0.823,1.289,0,4,10,5,0,0,3,,,,,,,,,,,0,000000,,,,,
003491-20211003-120322-000000077,220003491       ,2.4359728055,102.8302544562,19.3098297119,0.00000000,0.00000000,7.5204745545,26.373,7.217,1.259,0.041,2021-10-03,04:04:07.049996,1633233847,049996,0000,5A4F,1,1,3.341,GPS-3.0,5,0.131,0.173,0.400,0.823,1.289,0,4,10,5,0,0,3,,,,,,,,,,,0,000000,,,,,
003491-20211003-120322-000000078,220003491       ,2.4360024636,102.8302581785,19.3051223755,0.00000000,0.00000000,7.2237984577,26.061,7.183,0.902,-0.023,2021-10-03,04:04:07.500000,1633233847,500000,0000,5A4F,1,1,3.324,GPS-3.0,5,0.130,0.173,0.401,0.842,1.518,0,4,10,5,0,0,3,,,,,,,,,,,0,000000,,,,,
003491-20211003-120322-000000079,220003491       ,2.4360317696,102.8302620916,19.3746681213,0.00000000,0.00000000,7.1234877383,25.998,7.126,1.175,-0.069,2021-10-03,04:04:07.949997,1633233847,949997,0000,5A4F,1,1,3.288,GPS-3.0,5,0.129,0.174,0.401,0.823,1.289,0,4,10,5,0,0,3,,,,,,,,,,,0,000000,,,,,
003491-20211003-120322-000000080,220003491       ,2.4360605078,102.8302654240,19.3643226624,0.00000000,0.00000000,6.8757977582,25.181,6.963,0.663,-0.095,2021-10-03,04:04:08.400002,1633233848,400002,0000,5A4F,1,1,3.217,GPS-3.0,5,0.129,0.174,0.402,0.823,1.289,0,4,11,5,0,0,3,,,,,,,,,,,0,000000,,,,,
003491-20211003-120322-000000081,220003491       ,2.4360889532,102.8302686961,19.3858394623,0.00000000,0.00000000,6.6756207084,24.859,6.871,0.688,-0.093,2021-10-03,04:04:08.850278,1633233848,850278,0000,5A4F,1,1,3.184,GPS-3.0,5,0.128,0.173,0.403,0.823,1.289,0,4,11,5,0,0,3,,,,,,,,,,,0,000000,,,,,
003491-20211003-120322-000000082,220003491       ,2.4361166601,102.8302717854,19.4244747162,0.00000000,0.00000000,6.3686019977,23.970,6.631,0.603,-0.099,2021-10-03,04:04:09.300124,1633233849,300124,0000,5A4F,1,1,3.100,GPS-3.0,5,0.127,0.173,0.403,0.823,1.289,0,4,11,5,0,0,3,,,,,,,,,,,0,000000,,,,,
003491-20211003-120322-000000083,220003491       ,2.4361459893,102.8302745064,19.4787483215,0.00000000,0.00000000,5.9339121103,21.783,6.027,0.541,-0.128,2021-10-03,04:04:09.800002,1633233849,800002,0000,5A4F,1,1,3.275,GPS-3.0,5,0.126,0.172,0.403,0.823,1.289,0,4,11,5,0,0,3,,,,,,,,,,,0,000000,,,,,
003491-20211003-120322-000000084,220003491       ,2.4361730637,102.8302774423,19.4483356476,0.00000000,0.00000000,6.6407150267,17.542,4.832,0.630,-0.053,2021-10-03,04:04:10.349996,1633233850,349996,0000,5A4F,1,1,3.028,GPS-3.0,5,0.126,0.173,0.404,0.823,1.289,0,4,11,5,0,0,4,,,,,,,,,,,0,000000,,,,,
003491-20211003-120322-000000085,220003491       ,2.4361999182,102.8302812097,19.4433403015,0.00000000,0.00000000,7.4949381848,10.409,2.869,0.361,0.040,2021-10-03,04:04:11.150087,1633233851,150087,0000,5A4F,1,1,3.015,GPS-3.0,5,0.126,0.173,0.405,0.823,1.288,0,4,11,5,0,0,4,,,,,,,,,,,0,000000,,,,,
003491-20211003-120322-000000086,220003491       ,2.4362273962,102.8302855496,19.5141983032,0.00000000,0.00000000,6.6375710052,9.167,2.518,0.383,0.016,2021-10-03,04:04:12.300000,1633233852,300000,0000,5A4F,1,1,3.093,GPS-3.0,5,0.125,0.173,0.406,0.823,1.288,0,4,11,5,0,0,4,,,,,,,,,,,0,000000,,,,,
003491-20211003-120322-000000087,220003491       ,2.4362549236,102.8302896196,19.6361579895,0.00000000,0.00000000,5.4377603388,13.047,3.610,0.323,-0.147,2021-10-03,04:04:13.300023,1633233853,300023,0000,5A4F,1,1,3.094,GPS-3.0,5,0.125,0.174,0.408,0.823,1.288,0,4,11,5,0,0,4,,,,,,,,,,,0,000000,,,,,
003491-20211003-120322-000000088,220003491       ,2.4362818724,102.8302909278,19.7943458557,0.00000000,0.00000000,3.4962022276,15.437,4.281,0.248,-0.214,2021-10-03,04:04:14.049996,1633233854,049996,0000,5A4F,1,1,3.000,GPS-3.0,5,0.124,0.174,0.409,0.905,1.521,0,4,11,5,0,0,4,,,,,,,,,,,0,000000,,,,,
003491-20211003-120322-000000089,220003491       ,2.4363093515,102.8302927135,20.0526714325,0.00000000,0.00000000,3.7035262166,17.732,4.914,0.332,-0.306,2021-10-03,04:04:14.700000,1633233854,700000,0000,5A4F,1,1,3.062,GPS-3.0,5,0.123,0.174,0.409,0.891,1.354,0,4,11,5,0,0,4,,,,,,,,,,,0,000000,,,,,
003491-20211003-120322-000000090,220003491       ,2.4363378863,102.8302946618,20.2590732574,0.00000000,0.00000000,4.6067517131,19.853,5.500,0.405,-0.335,2021-10-03,04:04:15.300000,1633233855,300000,0000,5A4F,1,1,3.180,GPS-3.0,5,0.123,0.174,0.409,0.982,1.438,0,4,11,5,0,0,4,,,,,,,,,,,0,000000,,,,,
003491-20211003-120322-000000091,220003491       ,2.4363670144,102.8302977233,20.4346790314,0.00000000,0.00000000,5.8961552515,21.255,5.864,0.690,-0.340,2021-10-03,04:04:15.849996,1633233855,849996,0000,5A4F,1,1,3.257,GPS-3.0,5,0.122,0.174,0.408,0.823,1.288,0,4,11,5,0,0,4,,,,,,,,,,,0,000000,,,,,
003491-20211003-120322-000000092,220003491       ,2.4363962167,102.8303014396,20.5615043640,0.00000000,0.00000000,7.8452893231,20.955,5.761,0.831,-0.259,2021-10-03,04:04:16.400002,1633233856,400002,0000,5A4F,1,1,3.273,GPS-3.0,5,0.122,0.174,0.408,0.982,1.438,0,4,11,5,0,0,4,,,,,,,,,,,0,000000,,,,,
003491-20211003-120322-000000093,220003491       ,2.4364243129,102.8303065730,20.6462707520,0.00000000,0.00000000,10.2882371072,19.571,5.293,1.242,-0.060,2021-10-03,04:04:16.949996,1633233856,949996,0000,5A4F,1,1,3.176,GPS-3.0,5,0.123,0.174,0.408,0.982,1.437,0,4,11,5,0,0,4,,,,,,,,,,,0,000000,,,,,
003491-20211003-120322-000000094,220003491       ,2.4364508606,102.8303124396,20.6224155426,0.00000000,0.00000000,12.9519135533,16.169,4.398,0.909,0.014,2021-10-03,04:04:17.550165,1633233857,550165,0000,5A4F,1,1,3.023,GPS-3.0,5,0.123,0.175,0.409,0.982,1.437,0,4,11,5,0,0,4,,,,,,,,,,,0,000000,,,,,
003491-20211003-120322-000000095,220003491       ,2.4364772258,102.8303185952,20.5533962250,0.00000000,0.00000000,13.0096670716,15.115,4.111,0.852,0.090,2021-10-03,04:04:18.249996,1633233858,249996,0000,5A4F,1,1,3.010,GPS-3.0,5,0.122,0.175,0.410,0.982,1.437,0,4,11,5,0,0,4,,,,,,,,,,,0,000000,,,,,
003491-20211003-120322-000000096,220003491       ,2.4365040324,102.8303230708,20.5360870361,0.00000000,0.00000000,9.5470335162,15.395,4.214,0.727,0.093,2021-10-03,04:04:18.950317,1633233858,950317,0000,5A4F,1,1,3.022,GPS-3.0,5,0.122,0.176,0.411,1.124,1.449,0,4,11,5,0,0,4,,,,,,,,,,,0,000000,,,,,
003491-20211003-120322-000000097,220003491       ,2.4365309917,102.8303263666,20.6357078552,0.00000000,0.00000000,7.0849381506,15.757,4.370,0.251,0.000,2021-10-03,04:04:19.649996,1633233859,649996,0000,5A4F,1,1,3.020,GPS-3.0,5,0.123,0.177,0.412,1.022,1.532,0,4,11,5,0,0,4,,,,,,,,,,,0,000000,,,,,
003491-20211003-120322-000000098,220003491       ,2.4365594665,102.8303287491,20.6698265076,0.00000000,0.00000000,6.0297153318,16.930,4.670,0.552,0.004,2021-10-03,04:04:20.349996,1633233860,349996,0000,5A4F,1,1,3.177,GPS-3.0,5,0.123,0.177,0.413,1.070,2.187,0,4,11,5,0,0,4,,,,,,,,,,,0,000000,,,,,
003491-20211003-120322-000000099,220003491       ,2.4365872820,102.8303311936,20.7477207184,0.00000000,0.00000000,5.8341499404,17.190,4.748,0.510,-0.075,2021-10-03,04:04:21.000011,1633233861,000011,0000,5A4F,1,1,3.105,GPS-3.0,5,0.123,0.177,0.414,1.070,2.186,0,4,11,5,0,0,4,,,,,,,,,,,0,000000,,,,,
003491-20211003-120322-000000100,220003491       ,2.4366159866,102.8303336101,20.7139396667,0.00000000,0.00000000,5.4680027089,14.627,4.043,0.403,-0.026,2021-10-03,04:04:21.700000,1633233861,700000,0000,5A4F,1,1,3.203,GPS-3.0,5,0.123,0.177,0.415,1.022,1.532,0,4,11,5,0,0,4,,,,,,,,,,,0,000000,,,,,
003491-20211003-120322-000000101,220003491       ,2.4366440728,102.8303335628,20.6742820740,0.00000000,0.00000000,0.5574965286,12.703,3.527,-0.094,0.004,2021-10-03,04:04:22.550135,1633233862,550135,0000,5A4F,1,1,3.123,GPS-3.0,5,0.123,0.177,0.415,1.070,2.186,0,4,10,5,0,0,2,,,,,,,,,,,0,000000,,,,,
003491-20211003-120322-000000102,220003491       ,2.4366718337,102.8303337746,20.8165245056,0.00000000,0.00000000,0.5899735978,12.831,3.561,0.142,-0.066,2021-10-03,04:04:23.449996,1633233863,449996,0000,5A4F,1,1,3.087,GPS-3.0,5,0.123,0.176,0.416,1.022,1.532,0,4,10,5,0,0,2,,,,,,,,,,,0,000000,,,,,
003491-20211003-120322-000000103,220003491       ,2.4366997537,102.8303338043,20.7868595123,0.00000000,0.00000000,359.9235392200,15.236,4.232,-0.031,0.018,2021-10-03,04:04:24.249996,1633233864,249996,0000,5A4F,1,1,3.105,GPS-3.0,5,0.124,0.177,0.418,1.022,1.532,0,4,10,5,0,0,2,,,,,,,,,,,0,000000,,,,,
003491-20211003-120322-000000104,220003491       ,2.4367281088,102.8303321731,20.9584407806,0.00000000,0.00000000,356.5404918825,16.865,4.661,-0.471,-0.020,2021-10-03,04:04:24.950042,1633233864,950042,0000,5A4F,1,1,3.158,GPS-3.0,5,0.124,0.177,0.419,0.842,1.515,0,4,10,5,0,0,2,,,,,,,,,,,0,000000,,,,,
003491-20211003-120322-000000105,220003491       ,2.4367563645,102.8303282642,20.9263286591,0.00000000,0.00000000,352.2035676464,17.429,4.780,-0.769,0.032,2021-10-03,04:04:25.600065,1633233865,600065,0000,5A4F,1,1,3.172,GPS-3.0,5,0.125,0.177,0.419,0.966,1.751,0,4,10,5,0,0,2,,,,,,,,,,,0,000000,,,,,
003491-20211003-120322-000000106,220003491       ,2.4367844266,102.8303223185,20.9770603180,0.00000000,0.00000000,348.8129524594,17.537,4.721,-1.200,-0.007,2021-10-03,04:04:26.250073,1633233866,250073,0000,5A4F,1,1,3.190,GPS-3.0,5,0.125,0.177,0.420,0.891,1.353,0,4,10,5,0,0,2,,,,,,,,,,,0,000000,,,,,
003491-20211003-120322-000000107,220003491       ,2.4368127906,102.8303167479,20.8861198425,0.00000000,0.00000000,350.5709065480,17.679,4.835,-0.862,0.134,2021-10-03,04:04:26.900092,1633233866,900092,0000,5A4F,1,1,3.214,GPS-3.0,5,0.125,0.177,0.421,0.823,1.287,0,4,10,5,0,0,2,,,,,,,,,,,0,000000,,,,,
003491-20211003-120322-000000108,220003491       ,2.4368402524,102.8303135621,20.8054695129,0.00000000,0.00000000,353.6241377107,19.345,5.363,-0.334,0.180,2021-10-03,04:04:27.499999,1633233867,499999,0000,5A4F,1,1,3.074,GPS-3.0,5,0.125,0.176,0.422,0.823,1.287,0,4,10,5,0,0,2,,,,,,,,,,,0,000000,,,,,
003491-20211003-120322-000000109,220003491       ,2.4368677735,102.8303110864,20.6576805115,0.00000000,0.00000000,355.0225506414,20.551,5.694,-0.413,0.311,2021-10-03,04:04:28.049996,1633233868,049996,0000,5A4F,1,1,3.073,GPS-3.0,5,0.124,0.176,0.422,0.823,1.287,0,4,10,5,0,0,2,,,,,,,,,,,0,000000,,,,,
003491-20211003-120322-000000110,220003491       ,2.4368970287,102.8303075658,20.5060596466,0.00000000,0.00000000,353.8880835410,21.558,5.964,-0.536,0.356,2021-10-03,04:04:28.600003,1633233868,600003,0000,5A4F,1,1,3.276,GPS-3.0,5,0.123,0.175,0.422,0.842,1.515,0,4,10,5,0,0,2,,,,,,,,,,,0,000000,,,,,
003491-20211003-120322-000000111,220003491       ,2.4369247786,102.8303038062,20.3027305603,0.00000000,0.00000000,352.6546333392,22.181,6.108,-0.806,0.456,2021-10-03,04:04:29.100000,1633233869,100000,0000,5A4F,1,1,3.114,GPS-3.0,5,0.122,0.175,0.422,0.842,1.515,0,4,10,5,0,0,2,,,,,,,,,,,0,000000,,,,,
003491-20211003-120322-000000112,220003491       ,2.4369532495,102.8302996381,20.0490150452,0.00000000,0.00000000,351.5705183934,23.112,6.385,-0.670,0.494,2021-10-03,04:04:29.600239,1633233869,600239,0000,5A4F,1,1,3.200,GPS-3.0,5,0.122,0.175,0.423,0.845,1.292,0,4,10,5,0,0,3,,,,,,,,,,,0,000000,,,,,
003491-20211003-120322-000000113,220003491       ,2.4369818060,102.8302952831,19.8025455475,0.00000000,0.00000000,350.8420650580,22.590,6.204,-0.944,0.500,2021-10-03,04:04:30.099999,1633233870,099999,0000,5A4F,1,1,3.212,GPS-3.0,5,0.122,0.175,0.423,0.845,1.292,0,4,10,5,0,0,3,,,,,,,,,,,0,000000,,,,,
003491-20211003-120322-000000114,220003491       ,2.4370095512,102.8302910868,19.5741424561,0.00000000,0.00000000,350.5666718307,21.542,5.903,-0.980,0.457,2021-10-03,04:04:30.600034,1633233870,600034,0000,5A4F,1,1,3.120,GPS-3.0,5,0.122,0.175,0.424,0.845,1.292,0,4,10,5,0,0,3,,,,,,,,,,,0,000000,,,,,
003491-20211003-120322-000000115,220003491       ,2.4370383906,102.8302864680,19.4516143799,0.00000000,0.00000000,350.2596958086,20.599,5.665,-0.809,0.345,2021-10-03,04:04:31.149996,1633233871,149996,0000,5A4F,1,1,3.248,GPS-3.0,5,0.123,0.175,0.425,0.845,1.292,0,4,10,5,0,0,3,,,,,,,,,,,0,000000,,,,,
003491-20211003-120322-000000116,220003491       ,2.4370655617,102.8302818718,19.4042758942,0.00000000,0.00000000,349.8763309509,19.265,5.272,-0.917,0.219,2021-10-03,04:04:31.700000,1633233871,700000,0000,5A4F,1,1,3.064,GPS-3.0,5,0.122,0.175,0.425,0.845,1.292,0,4,9,5,0,0,3,,,,,,,,,,,0,000000,,,,,
003491-20211003-120322-000000117,220003491       ,2.4370927836,102.8302766168,19.1086940765,0.00000000,0.00000000,348.7803041551,17.336,4.725,-0.930,0.269,2021-10-03,04:04:32.300000,1633233872,300000,0000,5A4F,1,1,3.083,GPS-3.0,5,0.122,0.176,0.426,0.983,1.436,0,4,9,5,0,0,3,,,,,,,,,,,0,000000,,,,,
003491-20211003-120322-000000118,220003491       ,2.4371200320,102.8302705558,18.9605026245,0.00000000,0.00000000,346.6987357037,14.955,4.036,-0.982,0.195,2021-10-03,04:04:33.000010,1633233873,000010,0000,5A4F,1,1,3.104,GPS-3.0,5,0.122,0.176,0.427,0.983,1.435,0,4,9,5,0,0,3,,,,,,,,,,,0,000000,,,,,
003491-20211003-120322-000000119,220003491       ,2.4371469391,102.8302634653,18.7928543091,0.00000000,0.00000000,345.4796015784,11.201,3.001,-0.820,0.180,2021-10-03,04:04:33.850109,1633233873,850109,0000,5A4F,1,1,3.094,GPS-3.0,5,0.124,0.179,0.429,0.983,1.435,0,4,9,5,0,0,4,,,,,,,,,,,0,000000,,,,,
003491-20211003-120322-000000120,220003491       ,2.4371731018,102.8302561562,18.6767463684,0.00000000,0.00000000,343.2387257947,6.960,1.859,-0.531,0.098,2021-10-03,04:04:35.100000,1633233875,100000,0000,5A4F,1,1,3.020,GPS-3.0,5,0.123,0.180,0.430,0.983,1.435,0,4,9,5,0,0,3,,,,,,,,,,,0,000000,,,,,
003491-20211003-120322-000000121,220003491       ,2.4371964617,102.8302423959,18.5532493591,0.00000000,0.00000000,329.8916345715,7.870,1.684,-1.394,0.092,2021-10-03,04:04:36.699999,1633233876,699999,0000,5A4F,1,1,3.014,GPS-3.0,5,0.123,0.182,0.432,1.388,2.122,0,4,9,5,0,0,3,,,,,,,,,,,0,000000,,,,,
003491-20211003-120322-000000122,220003491       ,2.4372182105,102.8302244534,18.4455966949,0.00000000,0.00000000,321.7665234971,10.904,2.273,-2.002,0.182,2021-10-03,04:04:37.949996,1633233877,949996,0000,5A4F,1,1,3.134,GPS-3.0,5,0.123,0.183,0.432,0.890,1.385,0,4,9,5,0,0,3,,,,,,,,,,,0,000000,,,,,
003491-20211003-120322-000000123,220003491       ,2.4372370533,102.8302047281,18.2668685913,0.00000000,0.00000000,312.5145678135,15.002,2.629,-3.233,0.267,2021-10-03,04:04:38.800002,1633233878,800002,0000,5A4F,1,1,3.032,GPS-3.0,5,0.125,0.184,0.433,0.816,1.308,0,4,9,5,0,0,2,,,,,,,,,,,0,000000,,,,,
003491-20211003-120322-000000124,220003491       ,2.4372516374,102.8301813795,18.1469764709,0.00000000,0.00000000,302.8416265902,18.621,2.449,-4.556,0.297,2021-10-03,04:04:39.449996,1633233879,449996,0000,5A4F,1,1,3.059,GPS-3.0,5,0.126,0.184,0.433,0.753,1.230,0,4,10,5,0,0,2,,,,,,,,,,,0,000000,,,,,
003491-20211003-120322-000000125,220003491       ,2.4372638449,102.8301562837,17.9795742035,0.00000000,0.00000000,296.7749159656,21.835,2.580,-5.489,0.356,2021-10-03,04:04:40.000011,1633233880,000011,0000,5A4F,1,1,3.101,GPS-3.0,5,0.127,0.185,0.434,0.823,1.285,0,4,10,5,0,0,2,,,,,,,,,,,0,000000,,,,,
003491-20211003-120322-000000126,220003491       ,2.4372744868,102.8301302665,17.9667587280,0.00000000,0.00000000,292.2568551126,23.812,2.144,-6.257,0.282,2021-10-03,04:04:40.499999,1633233880,499999,0000,5A4F,1,1,3.123,GPS-3.0,5,0.129,0.186,0.435,0.891,1.350,0,4,10,5,0,0,2,,,,,,,,,,,0,000000,,,,,
003491-20211003-120322-000000127,220003491       ,2.4372838850,102.8301035396,17.7415752411,0.00000000,0.00000000,289.7035118348,26.277,2.459,-6.872,0.362,2021-10-03,04:04:40.949996,1633233880,949996,0000,5A4F,1,1,3.148,GPS-3.0,5,0.129,0.186,0.436,0.823,1.285,0,4,10,5,0,0,2,,,,,,,,,,,0,000000,,,,,
003491-20211003-120322-000000128,220003491       ,2.4372919832,102.8300774842,17.5534572601,0.00000000,0.00000000,287.0928496095,27.684,1.846,-7.465,0.400,2021-10-03,04:04:41.350068,1633233881,350068,0000,5A4F,1,1,3.031,GPS-3.0,5,0.130,0.186,0.436,1.004,1.453,0,4,10,5,0,0,2,,,,,,,,,,,0,000000,,,,,
003491-20211003-120322-000000129,220003491       ,2.4372983829,102.8300490964,17.2533454895,0.00000000,0.00000000,284.3949795289,29.521,1.786,-8.004,0.587,2021-10-03,04:04:41.749996,1633233881,749996,0000,5A4F,1,1,3.233,GPS-3.0,5,0.130,0.186,0.436,0.823,1.285,0,4,10,5,0,0,2,,,,,,,,,,,0,000000,,,,,
003491-20211003-120322-000000130,220003491       ,2.4373045694,102.8300193515,16.9424285889,0.00000000,0.00000000,282.0642730973,31.557,1.642,-8.611,0.665,2021-10-03,04:04:42.149996,1633233882,149996,0000,5A4F,1,1,3.375,GPS-3.0,5,0.132,0.187,0.437,0.996,1.765,0,4,10,5,0,0,2,,,,,,,,,,,0,000000,,,,,
003491-20211003-120322-000000131,220003491       ,2.4373100625,102.8299918239,16.6699810028,0.00000000,0.00000000,280.6187591821,32.947,1.688,-8.995,0.810,2021-10-03,04:04:42.500000,1633233882,500000,0000,5A4F,1,1,3.119,GPS-3.0,5,0.132,0.186,0.437,1.389,2.123,0,4,10,5,0,0,3,,,,,,,,,,,0,000000,,,,,
003491-20211003-120322-000000132,220003491       ,2.4373147238,102.8299629171,16.3668766022,0.00000000,0.00000000,279.2517924424,34.125,1.724,-9.321,0.840,2021-10-03,04:04:42.850258,1633233882,850258,0000,5A4F,1,1,3.253,GPS-3.0,5,0.133,0.187,0.438,1.389,2.123,0,4,10,5,0,0,3,,,,,,,,,,,0,000000,,,,,
003491-20211003-120322-000000133,220003491       ,2.4373194893,102.8299331443,16.1135768890,0.00000000,0.00000000,278.6507904369,35.222,1.425,-9.680,0.754,2021-10-03,04:04:43.200045,1633233883,200045,0000,5A4F,1,1,3.350,GPS-3.0,5,0.135,0.188,0.439,1.406,2.546,0,4,10,5,0,0,3,,,,,,,,,,,0,000000,,,,,
003491-20211003-120322-000000134,220003491       ,2.4373241073,102.8299023595,15.8467884064,0.00000000,0.00000000,278.7043937615,35.787,1.420,-9.839,0.738,2021-10-03,04:04:43.549996,1633233883,549996,0000,5A4F,1,1,3.458,GPS-3.0,5,0.135,0.188,0.440,1.389,2.123,0,4,10,5,0,0,3,,,,,,,,,,,0,000000,,,,,
003491-20211003-120322-000000135,220003491       ,2.4373286645,102.8298712548,15.5541677475,0.00000000,0.00000000,278.2688735793,36.289,1.577,-9.956,0.748,2021-10-03,04:04:43.900000,1633233883,900000,0000,5A4F,1,1,3.493,GPS-3.0,5,0.137,0.189,0.441,1.406,2.546,0,4,10,5,0,0,3,,,,,,,,,,,0,000000,,,,,
003491-20211003-120322-000000136,220003491       ,2.4373344006,102.8298403678,15.3193855286,0.00000000,0.00000000,278.4763200847,35.938,1.547,-9.862,0.651,2021-10-03,04:04:44.249996,1633233884,249996,0000,5A4F,1,1,3.490,GPS-3.0,5,0.138,0.190,0.442,1.389,2.123,0,4,10,5,0,0,4,,,,,,,,,,,0,000000,,,,,
003491-20211003-120322-000000137,220003491       ,2.4373380987,102.8298123434,14.9806661606,0.00000000,0.00000000,278.4563486116,36.142,1.450,-9.934,0.630,2021-10-03,04:04:44.549996,1633233884,549996,0000,5A4F,1,1,3.140,GPS-3.0,5,0.138,0.190,0.443,0.996,1.764,0,4,10,5,0,0,4,,,,,,,,,,,0,000000,,,,,
003491-20211003-120322-000000138,220003491       ,2.4373428483,102.8297819983,14.9240665436,0.00000000,0.00000000,278.5530914110,35.074,1.441,-9.636,0.522,2021-10-03,04:04:44.900000,1633233884,900000,0000,5A4F,1,1,3.412,GPS-3.0,5,0.139,0.190,0.443,1.406,2.545,0,4,10,5,0,0,4,,,,,,,,,,,0,000000,,,,,
003491-20211003-120322-000000139,220003491       ,2.4373476346,102.8297526536,14.6916770935,0.00000000,0.00000000,278.6008754144,32.730,1.367,-8.988,0.574,2021-10-03,04:04:45.250167,1633233885,250167,0000,5A4F,1,1,3.303,GPS-3.0,5,0.140,0.191,0.444,1.406,2.545,0,4,10,5,0,0,4,,,,,,,,,,,0,000000,,,,,
003491-20211003-120322-000000140,220003491       ,2.4373520296,102.8297248723,14.5609560013,0.00000000,0.00000000,277.7402442583,30.830,1.232,-8.475,0.436,2021-10-03,04:04:45.600002,1633233885,600002,0000,5A4F,1,1,3.125,GPS-3.0,5,0.141,0.192,0.445,1.406,2.545,0,4,10,5,0,0,4,,,,,,,,,,,0,000000,,,,,
003491-20211003-120322-000000141,220003491       ,2.4373555170,102.8296957799,14.4119367599,0.00000000,0.00000000,276.0999333480,28.034,0.540,-7.769,0.297,2021-10-03,04:04:46.000268,1633233886,000268,0000,5A4F,1,1,3.255,GPS-3.0,5,0.142,0.193,0.447,1.406,2.545,0,4,10,5,0,0,4,,,,,,,,,,,0,000000,,,,,
003491-20211003-120322-000000142,220003491       ,2.4373581604,102.8296658394,14.1405477524,0.00000000,0.00000000,275.6701232039,25.748,0.806,-7.107,0.408,2021-10-03,04:04:46.450121,1633233886,450121,0000,5A4F,1,1,3.339,GPS-3.0,5,0.145,0.195,0.449,1.406,2.545,0,4,10,5,0,0,4,,,,,,,,,,,0,000000,,,,,
003491-20211003-120322-000000143,220003491       ,2.4373605637,102.8296366812,14.0157032013,0.00000000,0.00000000,276.7843183028,25.976,0.774,-7.174,0.340,2021-10-03,04:04:46.900000,1633233886,900000,0000,5A4F,1,1,3.250,GPS-3.0,5,0.147,0.196,0.450,1.406,2.545,0,4,10,5,0,0,4,,,,,,,,,,,0,000000,,,,,
003491-20211003-120322-000000144,220003491       ,2.4373640320,102.8296081569,13.8398952484,0.00000000,0.00000000,278.0082608813,25.964,0.808,-7.167,0.381,2021-10-03,04:04:47.349996,1633233887,349996,0000,5A4F,1,1,3.192,GPS-3.0,5,0.150,0.198,0.453,0.905,1.688,0,4,10,5,0,0,4,,,,,,,,,,,0,000000,,,,,
003491-20211003-120322-000000145,220003491       ,2.4373685242,102.8295787132,13.6160516739,0.00000000,0.00000000,278.3661627938,25.856,0.622,-7.155,0.365,2021-10-03,04:04:47.800003,1633233887,800003,0000,5A4F,1,1,3.309,GPS-3.0,5,0.153,0.200,0.455,1.406,2.545,0,4,10,5,0,0,4,,,,,,,,,,,0,000000,,,,,
003491-20211003-120322-000000146,220003491       ,2.4373728847,102.8295493882,13.3018751144,0.00000000,0.00000000,277.9737820864,25.168,0.986,-6.921,0.408,2021-10-03,04:04:48.249996,1633233888,249996,0000,5A4F,1,1,3.294,GPS-3.0,5,0.152,0.200,0.455,0.996,1.764,0,4,10,5,0,0,3,,,,,,,,,,,0,000000,,,,,
003491-20211003-120322-000000147,220003491       ,2.4373769045,102.8295203468,13.0094556808,0.00000000,0.00000000,277.8735422301,22.748,0.875,-6.258,0.470,2021-10-03,04:04:48.749996,1633233888,749996,0000,5A4F,1,1,3.257,GPS-3.0,5,0.153,0.200,0.456,0.996,1.763,0,4,10,5,0,0,3,,,,,,,,,,,0,000000,,,,,
003491-20211003-120322-000000148,220003491       ,2.4373801944,102.8294917605,12.6830310822,0.00000000,0.00000000,277.7808429027,19.798,0.721,-5.452,0.603,2021-10-03,04:04:49.299999,1633233889,299999,0000,5A4F,1,1,3.197,GPS-3.0,5,0.155,0.202,0.458,1.390,2.123,0,4,10,5,0,0,3,,,,,,,,,,,0,000000,,,,,
003491-20211003-120322-000000149,220003491       ,2.4373824311,102.8294641259,12.2973489761,0.00000000,0.00000000,277.8300749062,17.531,0.820,-4.800,0.749,2021-10-03,04:04:49.900002,1633233889,900002,0000,5A4F,1,1,3.080,GPS-3.0,5,0.157,0.203,0.460,0.867,1.673,0,4,10,5,0,0,3,,,,,,,,,,,0,000000,,,,,
003491-20211003-120322-000000150,220003491       ,2.4373861752,102.8294360511,11.6944046021,0.00000000,0.00000000,279.2093633072,14.441,0.415,-3.990,0.832,2021-10-03,04:04:50.649996,1633233890,649996,0000,5A4F,1,1,3.147,GPS-3.0,5,0.159,0.205,0.461,1.024,1.909,0,4,9,5,0,0,3,,,,,,,,,,,0,000000,,,,,
003491-20211003-120322-000000151,220003491       ,2.4373907422,102.8294093760,11.1473226547,0.00000000,0.00000000,280.7058304336,13.125,0.450,-3.618,0.798,2021-10-03,04:04:51.450097,1633233891,450097,0000,5A4F,1,1,3.007,GPS-3.0,5,0.163,0.207,0.464,1.731,4.563,0,4,9,5,0,0,3,,,,,,,,,,,0,000000,,,,,
003491-20211003-120322-000000152,220003491       ,2.4373952122,102.8293815557,10.5863313675,0.00000000,0.00000000,279.6995250028,15.616,0.530,-4.305,0.823,2021-10-03,04:04:52.300265,1633233892,300265,0000,5A4F,1,1,3.130,GPS-3.0,5,0.167,0.210,0.468,0.905,1.687,0,4,9,5,0,0,2,,,,,,,,,,,0,000000,,,,,
003491-20211003-120322-000000153,220003491       ,2.4373986389,102.8293532067,10.1306190491,0.00000000,0.00000000,277.9540838208,17.392,0.704,-4.780,0.868,2021-10-03,04:04:53.049996,1633233893,049996,0000,5A4F,1,1,3.172,GPS-3.0,5,0.168,0.211,0.469,0.863,1.597,0,4,9,5,0,0,2,,,,,,,,,,,0,000000,,,,,
003491-20211003-120322-000000154,220003491       ,2.4374013548,102.8293242433,9.8925619125,0.00000000,0.00000000,276.4931336781,19.813,0.511,-5.480,0.712,2021-10-03,04:04:53.700000,1633233893,700000,0000,5A4F,1,1,3.232,GPS-3.0,5,0.169,0.211,0.470,1.262,2.565,0,4,8,5,0,0,2,,,,,,,,,,,0,000000,,,,,
003491-20211003-120322-000000155,220003491       ,2.4374040294,102.8292946295,9.7987480164,0.00000000,0.00000000,276.1518701064,22.535,0.659,-6.225,0.555,2021-10-03,04:04:54.250011,1633233894,250011,0000,5A4F,1,1,3.303,GPS-3.0,5,0.169,0.212,0.471,0.863,1.597,0,4,8,5,0,0,3,,,,,,,,,,,0,000000,,,,,
003491-20211003-120322-000000156,220003491       ,2.4374081103,102.8292676911,9.4536314011,0.00000000,0.00000000,278.4783418207,24.681,1.082,-6.770,0.565,2021-10-03,04:04:54.700183,1633233894,700183,0000,5A4F,1,1,3.027,GPS-3.0,5,0.170,0.212,0.472,0.863,1.597,0,4,8,5,0,0,3,,,,,,,,,,,0,000000,,,,,
003491-20211003-120322-000000157,220003491       ,2.4374136651,102.8292387474,9.1429748535,0.00000000,0.00000000,281.5269557756,26.787,1.654,-7.255,0.645,2021-10-03,04:04:55.150039,1633233895,150039,0000,5A4F,1,1,3.274,GPS-3.0,5,0.170,0.212,0.472,0.958,1.996,0,4,8,5,0,0,3,,,,,,,,,,,0,000000,,,,,
003491-20211003-120322-000000158,220003491       ,2.4374197931,102.8292118499,8.8902378082,0.00000000,0.00000000,282.2080622397,28.261,1.770,-7.648,0.660,2021-10-03,04:04:55.549996,1633233895,549996,0000,5A4F,1,1,3.065,GPS-3.0,5,0.172,0.213,0.473,0.958,1.996,0,4,8,5,0,0,3,,,,,,,,,,,0,000000,,,,,
003491-20211003-120322-000000159,220003491       ,2.4374268090,102.8291831008,8.6990470886,0.00000000,0.00000000,282.5583143403,29.660,1.516,-8.098,0.604,2021-10-03,04:04:55.949996,1633233895,949996,0000,5A4F,1,1,3.288,GPS-3.0,5,0.173,0.213,0.474,0.862,1.596,0,4,8,5,0,0,3,,,,,,,,,,,0,000000,,,,,
003491-20211003-120322-000000160,220003491       ,2.4374323214,102.8291566633,8.5358610153,0.00000000,0.00000000,281.6934484668,30.523,1.632,-8.320,0.525,2021-10-03,04:04:56.300000,1633233896,300000,0000,5A4F,1,1,3.000,GPS-3.0,5,0.173,0.214,0.475,0.997,1.762,0,4,8,5,0,0,4,,,,,,,,,,,0,000000,,,,,
003491-20211003-120322-000000161,220003491       ,2.4374375357,102.8291292389,8.3987712860,0.00000000,0.00000000,280.6558061281,31.541,1.805,-8.573,0.548,2021-10-03,04:04:56.650228,1633233896,650228,0000,5A4F,1,1,3.101,GPS-3.0,5,0.174,0.214,0.476,0.997,1.762,0,4,8,5,0,0,4,,,,,,,,,,,0,000000,,,,,
003491-20211003-120322-000000162,220003491       ,2.4374425706,102.8291018231,8.1990814209,0.00000000,0.00000000,280.5376438555,31.700,1.770,-8.626,0.531,2021-10-03,04:04:57.000023,1633233897,000023,0000,5A4F,1,1,3.097,GPS-3.0,5,0.174,0.215,0.477,0.997,1.762,0,4,8,5,0,0,4,,,,,,,,,,,0,000000,,,,,
003491-20211003-120322-000000163,220003491       ,2.4374476599,102.8290741804,8.0639076233,0.00000000,0.00000000,280.7558547391,32.172,1.802,-8.753,0.518,2021-10-03,04:04:57.349996,1633233897,349996,0000,5A4F,1,1,3.123,GPS-3.0,5,0.175,0.215,0.477,1.042,1.772,0,4,7,5,0,0,4,,,,,,,,,,,0,000000,,,,,
003491-20211003-120322-000000164,220003491       ,2.4374530203,102.8290465090,7.8577752113,0.00000000,0.00000000,281.2580922092,32.386,1.687,-8.836,0.506,2021-10-03,04:04:57.700000,1633233897,700000,0000,5A4F,1,1,3.131,GPS-3.0,5,0.177,0.217,0.479,1.042,1.772,0,4,7,5,0,0,4,,,,,,,,,,,0,000000,,,,,
003491-20211003-120322-000000165,220003491       ,2.4374582634,102.8290184932,7.7437334061,0.00000000,0.00000000,281.5621175895,32.301,1.651,-8.819,0.467,2021-10-03,04:04:58.049996,1633233898,049996,0000,5A4F,1,1,3.167,GPS-3.0,5,0.178,0.217,0.480,0.997,1.762,0,4,7,5,0,0,4,,,,,,,,,,,0,000000,,,,,
003491-20211003-120322-000000166,220003491       ,2.4374643972,102.8289901276,7.5153908730,0.00000000,0.00000000,281.6612099740,32.239,1.848,-8.763,0.606,2021-10-03,04:04:58.400130,1633233898,400130,0000,5A4F,1,1,3.224,GPS-3.0,5,0.178,0.217,0.480,0.958,1.995,0,4,8,5,0,0,4,,,,,,,,,,,0,000000,,,,,
003491-20211003-120322-000000167,220003491       ,2.4374700198,102.8289623786,7.2227067947,0.00000000,0.00000000,281.7936610023,31.651,1.564,-8.652,0.688,2021-10-03,04:04:58.749996,1633233898,749996,0000,5A4F,1,1,3.146,GPS-3.0,5,0.178,0.218,0.481,0.863,1.596,0,4,8,5,0,0,4,,,,,,,,,,,0,000000,,,,,
003491-20211003-120322-000000168,220003491       ,2.4374757405,102.8289348282,6.8564443588,0.00000000,0.00000000,281.9199102190,31.943,1.706,-8.707,0.732,2021-10-03,04:04:59.099999,1633233899,099999,0000,5A4F,1,1,3.126,GPS-3.0,5,0.179,0.218,0.482,0.863,1.596,0,4,8,5,0,0,4,,,,,,,,,,,0,000000,,,,,
003491-20211003-120322-000000169,220003491       ,2.4374814277,102.8289073486,6.5520410538,0.00000000,0.00000000,282.2525677523,31.674,1.509,-8.668,0.813,2021-10-03,04:04:59.449996,1633233899,449996,0000,5A4F,1,1,3.118,GPS-3.0,5,0.179,0.219,0.482,0.958,1.994,0,4,8,5,0,0,3,,,,,,,,,,,0,000000,,,,,
003491-20211003-120322-000000170,220003491       ,2.4374863711,102.8288799042,6.1917290688,0.00000000,0.00000000,282.5085632424,31.261,1.711,-8.513,0.823,2021-10-03,04:04:59.800241,1633233899,800241,0000,5A4F,1,1,3.098,GPS-3.0,5,0.180,0.219,0.483,0.863,1.596,0,4,8,5,0,0,3,,,,,,,,,,,0,000000,,,,,
003491-20211003-120322-000000171,220003491       ,2.4374922883,102.8288500623,6.0643215179,0.00000000,0.00000000,282.8237081707,29.905,1.721,-8.127,0.598,2021-10-03,04:05:00.200003,1633233900,200003,0000,5A4F,1,1,3.380,GPS-3.0,5,0.180,0.219,0.484,0.867,1.672,0,4,8,5,0,0,3,,,,,,,,,,,0,000000,,,,,
003491-20211003-120322-000000172,220003491       ,2.4374987589,102.8288217820,5.9489898682,0.00000000,0.00000000,283.1892052536,28.676,1.954,-7.722,0.456,2021-10-03,04:05:00.600004,1633233900,600004,0000,5A4F,1,1,3.223,GPS-3.0,5,0.181,0.220,0.485,1.024,1.908,0,4,8,5,0,0,3,,,,,,,,,,,0,000000,,,,,
003491-20211003-120322-000000173,220003491       ,2.4375049494,102.8287948048,5.7517857552,0.00000000,0.00000000,283.3243337161,27.035,1.644,-7.328,0.391,2021-10-03,04:05:01.000202,1633233901,000202,0000,5A4F,1,1,3.075,GPS-3.0,5,0.183,0.222,0.486,1.070,2.161,0,4,8,5,0,0,3,,,,,,,,,,,0,000000,,,,,
003491-20211003-120322-000000174,220003491       ,2.4375112201,102.8287658577,5.5292987823,0.00000000,0.00000000,282.7652144306,25.541,1.588,-6.915,0.363,2021-10-03,04:05:01.450049,1633233901,450049,0000,5A4F,1,1,3.291,GPS-3.0,5,0.186,0.223,0.488,1.024,1.908,0,4,8,5,0,0,3,,,,,,,,,,,0,000000,,,,,
003491-20211003-120322-000000175,220003491       ,2.4375170314,102.8287390529,5.3439321518,0.00000000,0.00000000,281.8701864418,23.622,1.295,-6.433,0.399,2021-10-03,04:05:01.899999,1633233901,899999,0000,5A4F,1,1,3.047,GPS-3.0,5,0.190,0.227,0.491,1.070,2.161,0,4,8,5,0,0,3,,,,,,,,,,,0,000000,,,,,
003491-20211003-120322-000000176,220003491       ,2.4375240998,102.8287119937,4.9536581039,0.00000000,0.00000000,281.0798789133,21.389,1.200,-5.819,0.516,2021-10-03,04:05:02.400041,1633233902,400041,0000,5A4F,1,1,3.107,GPS-3.0,5,0.190,0.227,0.492,1.070,2.161,0,4,8,5,0,0,3,,,,,,,,,,,0,000000,,,,,
003491-20211003-120322-000000177,220003491       ,2.4375293577,102.8286846854,4.8989930153,0.00000000,0.00000000,280.2041940202,17.745,0.980,-4.831,0.408,2021-10-03,04:05:03.000010,1633233903,000010,0000,5A4F,1,1,3.090,GPS-3.0,5,0.192,0.228,0.494,1.070,2.160,0,4,8,5,0,0,3,,,,,,,,,,,0,000000,,,,,
003491-20211003-120322-000000178,220003491       ,2.4375340624,102.8286572820,4.5910353661,0.00000000,0.00000000,280.0063917419,14.050,0.585,-3.859,0.441,2021-10-03,04:05:03.700000,1633233903,700000,0000,5A4F,1,1,3.089,GPS-3.0,5,0.194,0.230,0.496,1.070,2.160,0,4,7,5,0,0,3,,,,,,,,,,,0,000000,,,,,
003491-20211003-120322-000000179,220003491       ,2.4375379331,102.8286304103,4.4510774612,0.00000000,0.00000000,279.1161995269,9.919,0.326,-2.736,0.375,2021-10-03,04:05:04.649996,1633233904,649996,0000,5A1F,1,1,3.016,GPS-3.0,5,0.197,0.233,0.499,1.421,3.083,0,1,7,5,0,0,3,,,,,,,,,,,0,000000,,,,,
003491-20211003-120322-000000180,220003491       ,2.4375411421,102.8286032813,4.2594766617,0.00000000,0.00000000,274.3023641622,9.254,0.072,-2.569,0.279,2021-10-03,04:05:05.800023,1633233905,800023,0000,5A4F,1,1,3.035,GPS-3.0,5,0.198,0.233,0.501,1.421,3.083,0,4,7,5,0,0,3,,,,,,,,,,,0,000000,,,,,
003491-20211003-120322-000000181,220003491       ,2.4375355338,102.8285768414,4.0836157799,0.00000000,0.00000000,255.9570224667,11.283,-1.080,-2.942,0.324,2021-10-03,04:05:06.900000,1633233906,900000,0000,5A4F,1,1,3.003,GPS-3.0,5,0.198,0.234,0.502,1.422,3.081,0,4,7,5,0,0,3,,,,,,,,,,,0,000000,,,,,
003491-20211003-120322-000000182,220003491       ,2.4375207056,102.8285532745,3.6624038219,0.00000000,0.00000000,232.7344885717,15.581,-2.881,-3.230,0.562,2021-10-03,04:05:07.750060,1633233907,750060,0000,5A2F,1,1,3.094,GPS-3.0,5,0.200,0.236,0.505,1.070,2.158,0,2,6,5,0,0,4,,,,,,,,,,,0,000000,,,,,
003491-20211003-120322-000000183,220003491       ,2.4375007019,102.8285341925,3.4300155640,0.00000000,0.00000000,218.9521230531,18.515,-4.079,-3.133,0.577,2021-10-03,04:05:08.400085,1633233908,400085,0000,5A2F,1,1,3.073,GPS-3.0,5,0.202,0.237,0.507,1.070,2.158,0,2,6,5,0,0,4,,,,,,,,,,,0,000000,,,,,
003491-20211003-120322-000000184,220003491       ,2.4374768055,102.8285177174,3.1986465454,0.00000000,0.00000000,212.9892996057,21.451,-4.938,-3.335,0.545,2021-10-03,04:05:09.000010,1633233909,000010,0000,5A2F,1,1,3.227,GPS-3.0,5,0.205,0.240,0.509,1.055,1.727,0,2,6,5,0,0,4,,,,,,,,,,,0,000000,,,,,
003491-20211003-120322-000000185,220003491       ,2.4374528416,102.8285030420,2.9236736298,0.00000000,0.00000000,209.9119168941,23.724,-5.630,-3.425,0.562,2021-10-03,04:05:09.499999,1633233909,499999,0000,5A2F,1,1,3.124,GPS-3.0,5,0.209,0.243,0.512,0.920,1.620,0,2,7,5,0,0,4,,,,,,,,,,,0,000000,,,,,
003491-20211003-120322-000000186,220003491       ,2.4374284780,102.8284898753,2.7224895954,0.00000000,0.00000000,207.4718727942,25.786,-6.216,-3.559,0.533,2021-10-03,04:05:09.949996,1633233909,949996,0000,5A2F,1,1,3.079,GPS-3.0,5,0.212,0.245,0.514,1.055,1.727,0,2,7,5,0,0,4,,,,,,,,,,,0,000000,,,,,
003491-20211003-120322-000000187,220003491       ,2.4374017243,102.8284764788,2.4716248512,0.00000000,0.00000000,206.1104248473,27.249,-6.787,-3.350,0.537,2021-10-03,04:05:10.400002,1633233910,400002,0000,5A2F,1,1,3.326,GPS-3.0,5,0.217,0.249,0.517,0.958,1.989,0,2,7,5,0,0,3,,,,,,,,,,,0,000000,,,,,
003491-20211003-120322-000000188,220003491       ,2.4373755328,102.8284648745,2.2572140694,0.00000000,0.00000000,205.1944828192,27.534,-6.956,-3.181,0.511,2021-10-03,04:05:10.849996,1633233910,849996,0000,5A2F,1,1,3.185,GPS-3.0,5,0.215,0.248,0.517,0.921,1.783,0,2,7,5,0,0,3,,,,,,,,,,,0,000000,,,,,
003491-20211003-120322-000000189,220003491       ,2.4373494799,102.8284535716,2.0476012230,0.00000000,0.00000000,205.3264010929,28.180,-7.127,-3.238,0.538,2021-10-03,04:05:11.249996,1633233911,249996,0000,5A2F,1,1,3.157,GPS-3.0,5,0.215,0.248,0.518,1.335,1.977,0,2,7,5,0,0,2,,,,,,,,,,,0,000000,,,,,
003491-20211003-120322-000000190,220003491       ,2.4373230712,102.8284419087,1.7956777811,0.00000000,0.00000000,205.5614005815,28.100,-7.126,-3.185,0.596,2021-10-03,04:05:11.650165,1633233911,650165,0000,5A2F,1,1,3.210,GPS-3.0,5,0.216,0.249,0.519,1.335,1.977,0,2,7,5,0,0,2,,,,,,,,,,,0,000000,,,,,
003491-20211003-120322-000000191,220003491       ,2.4372974741,102.8284286096,1.6938625574,0.00000000,0.00000000,206.0135727649,28.454,-7.087,-3.499,0.443,2021-10-03,04:05:12.049996,1633233912,049996,0000,5A2F,1,1,3.207,GPS-3.0,5,0.216,0.249,0.519,1.055,1.726,0,2,7,5,0,0,2,,,,,,,,,,,0,000000,,,,,
003491-20211003-120322-000000192,220003491       ,2.4372717168,102.8284160253,1.5067828894,0.00000000,0.00000000,206.5171626124,28.147,-7.074,-3.329,0.436,2021-10-03,04:05:12.449996,1633233912,449996,0000,5A2F,1,1,3.187,GPS-3.0,5,0.218,0.250,0.521,0.920,1.619,0,2,7,5,0,0,2,,,,,,,,,,,0,000000,,,,,
003491-20211003-120322-000000193,220003491       ,2.4372452009,102.8284026670,1.3836688995,0.00000000,0.00000000,207.0200421202,28.498,-7.086,-3.530,0.345,2021-10-03,04:05:12.850117,1633233912,850117,0000,5A2F,1,1,3.301,GPS-3.0,5,0.218,0.251,0.522,0.920,1.619,0,2,7,5,0,0,2,,,,,,,,,,,0,000000,,,,,
003491-20211003-120322-000000194,220003491       ,2.4372197864,102.8283900723,1.2456915379,0.00000000,0.00000000,207.4419702260,27.914,-7.037,-3.256,0.246,2021-10-03,04:05:13.249996,1633233913,249996,0000,5A2F,1,1,3.153,GPS-3.0,5,0.221,0.253,0.524,0.920,1.619,0,2,7,5,0,0,2,,,,,,,,,,,0,000000,,,,,
003491-20211003-120322-000000195,220003491       ,2.4371944053,102.8283771837,1.1147060394,0.00000000,0.00000000,207.8650731243,27.739,-6.882,-3.466,0.337,2021-10-03,04:05:13.649996,1633233913,649996,0000,5A2F,1,1,3.165,GPS-3.0,5,0.223,0.255,0.526,0.920,1.619,0,2,7,5,0,0,2,,,,,,,,,,,0,000000,,,,,
003491-20211003-120322-000000196,220003491       ,2.4371692883,102.8283629335,1.1282280684,0.00000000,0.00000000,207.7665681361,28.355,-7.144,-3.316,0.088,2021-10-03,04:05:14.050073,1633233914,050073,0000,5A2F,1,1,3.210,GPS-3.0,5,0.223,0.255,0.527,0.957,1.986,0,2,7,5,0,0,2,,,,,,,,,,,0,000000,,,,,
003491-20211003-120322-000000197,220003491       ,2.4371427733,102.8283501127,1.0052452087,0.00000000,0.00000000,207.6773112241,28.420,-7.056,-3.541,0.351,2021-10-03,04:05:14.449996,1633233914,449996,0000,5A2F,1,1,3.274,GPS-3.0,5,0.224,0.256,0.528,0.957,1.986,0,2,7,5,0,0,3,,,,,,,,,,,0,000000,,,,,
003491-20211003-120322-000000198,220003491       ,2.4371180282,102.8283371556,0.8768811822,0.00000000,0.00000000,207.3835584482,27.420,-6.908,-3.208,0.386,2021-10-03,04:05:14.849996,1633233914,849996,0000,5A2F,1,1,3.105,GPS-3.0,5,0.224,0.256,0.528,1.024,1.520,0,2,7,5,0,0,3,,,,,,,,,,,0,000000,,,,,
003491-20211003-120322-000000199,220003491       ,2.4370928894,102.8283239632,0.7712034583,0.00000000,0.00000000,207.4957647959,27.062,-6.747,-3.314,0.396,2021-10-03,04:05:15.250028,1633233915,250028,0000,5A2F,1,1,3.156,GPS-3.0,5,0.225,0.257,0.529,0.997,1.758,0,2,8,5,0,0,2,,,,,,,,,,,0,000000,,,,,
