#0:imgID,1:camSN,2:lat,3:lon,4:height,5:roll,6:pitch,7:heading,8:speed,9:speed_n,10:speed_e,11:speed_d,12:date,13:time,14:unix_time_sec,15:unix_time_microsec,16:systemStatus,17:filterStatus,18:haveFix,19:extVelocity,20:distancetoprevious,21:releaseMode,22:device_id,23:lat_dev,24:lon_dev,25:hei_dev,26:hdop,27:vdop,28:fs_10,29:gnss_fix_status,30:gps_sat,31:glonass_sat,32:beidu_sat,33:gal_sat,34:sbas_sat,35:custLog0,36:custLog1,37:custLog2,38:custLog3,39:custLog4,40:custLog5,41:custLog6,42:custLog7,43:custLog8,44:custLog9,45:unix_time_sec_fixed,46:unix_time_microsec_fixed,47:pnvgbss_field3,48:pnvgbss_field4,49:pnvgbss_field5,50:pnvgbss_field6,51:pnvgbss_field7
003491-20211003-121033-000000001,220003491       ,2.4343313158,102.8271678843,23.9491367340,0.00000000,0.00000000,206.7575442900,7.486,-1.837,-0.976,-0.091,2021-10-03,04:10:34.300000,1633234234,300000,0000,5A2F,1,1,0.000,GPS-3.0,5,0.178,0.198,0.437,1.003,1.494,0,2,10,5,0,0,3,,,,,,,,,,,0,000000,,,,,
003491-20211003-121033-000000002,220003491       ,2.4343096928,102.8271508842,24.1829376221,0.00000000,0.00000000,222.2733161974,9.939,-2.139,-1.746,-0.163,2021-10-03,04:10:35.649995,1633234235,649995,0000,5A2F,1,1,3.057,GPS-3.0,5,0.180,0.199,0.439,0.795,1.161,0,2,10,5,0,0,4,,,,,,,,,,,0,000000,,,,,
003491-20211003-121033-000000003,220003491       ,2.4342942910,102.8271278161,24.4956398010,0.00000000,0.00000000,234.9688346945,12.996,-1.992,-3.011,-0.483,2021-10-03,04:10:36.600001,1633234236,600001,0000,5A2F,1,1,3.082,GPS-3.0,5,0.180,0.200,0.441,1.441,2.127,0,2,10,5,0,0,4,,,,,,,,,,,0,000000,,,,,
003491-20211003-121033-000000004,220003491       ,2.4342791852,102.8271049505,25.0485229492,0.00000000,0.00000000,238.0603422374,15.194,-2.047,-3.691,-0.735,2021-10-03,04:10:37.400014,1633234237,400014,0000,5A2F,1,1,3.045,GPS-3.0,5,0.181,0.201,0.441,0.708,1.078,0,2,10,5,0,0,4,,,,,,,,,,,0,000000,,,,,
003491-20211003-121033-000000005,220003491       ,2.4342651436,102.8270815412,25.3865356445,0.00000000,0.00000000,237.1238959814,13.577,-1.929,-3.241,-0.390,2021-10-03,04:10:38.149995,1633234238,149995,0000,5A2F,1,1,3.033,GPS-3.0,5,0.182,0.202,0.442,0.708,1.078,0,2,10,5,0,0,4,,,,,,,,,,,0,000000,,,,,
003491-20211003-121033-000000006,220003491       ,2.4342490061,102.8270585208,25.4972801208,0.00000000,0.00000000,232.0016912360,11.673,-2.116,-2.457,-0.196,2021-10-03,04:10:39.000010,1633234239,000010,0000,5A2F,1,1,3.124,GPS-3.0,5,0.182,0.202,0.443,0.708,1.078,0,2,10,5,0,0,4,,,,,,,,,,,0,000000,,,,,
003491-20211003-121033-000000007,220003491       ,2.4342292232,102.8270384019,25.6822433472,0.00000000,0.00000000,223.9544852993,13.664,-2.660,-2.707,-0.208,2021-10-03,04:10:39.900251,1633234239,900251,0000,5A2F,1,1,3.136,GPS-3.0,5,0.183,0.203,0.444,0.708,1.078,0,2,10,5,0,0,4,,,,,,,,,,,0,000000,,,,,
003491-20211003-121033-000000008,220003491       ,2.4342067117,102.8270213325,25.8207683563,0.00000000,0.00000000,218.2836797597,14.794,-3.303,-2.445,-0.048,2021-10-03,04:10:40.699998,1633234240,699998,0000,5A2F,1,1,3.140,GPS-3.0,5,0.183,0.204,0.445,0.876,1.169,0,2,10,5,0,0,4,,,,,,,,,,,0,000000,,,,,
003491-20211003-121033-000000009,220003491       ,2.4341848078,102.8270053320,25.9765548706,0.00000000,0.00000000,215.5949621326,16.852,-3.664,-2.914,-0.382,2021-10-03,04:10:41.400001,1633234241,400001,0000,5A2F,1,1,3.015,GPS-3.0,5,0.184,0.204,0.445,0.897,1.161,0,2,10,5,0,0,3,,,,,,,,,,,0,000000,,,,,
003491-20211003-121033-000000010,220003491       ,2.4341612224,102.8269891145,26.1074390411,0.00000000,0.00000000,212.3133704251,16.909,-3.938,-2.560,-0.168,2021-10-03,04:10:42.100020,1633234242,100020,0000,5A2F,1,1,3.182,GPS-3.0,5,0.184,0.205,0.446,0.829,1.333,0,2,10,5,0,0,3,,,,,,,,,,,0,000000,,,,,
003491-20211003-121033-000000011,220003491       ,2.4341367742,102.8269766116,26.2463836670,0.00000000,0.00000000,206.0762329203,18.250,-4.810,-1.602,-0.042,2021-10-03,04:10:42.699999,1633234242,699999,0000,5A2F,1,1,3.053,GPS-3.0,5,0.184,0.205,0.446,0.829,1.333,0,2,10,5,0,0,3,,,,,,,,,,,0,000000,,,,,
003491-20211003-121033-000000012,220003491       ,2.4341101306,102.8269678085,26.2160053253,0.00000000,0.00000000,197.6021811416,17.984,-4.886,-1.040,0.064,2021-10-03,04:10:43.299999,1633234243,299999,0000,5A2F,1,1,3.120,GPS-3.0,5,0.185,0.205,0.446,0.865,1.528,0,2,10,5,0,0,3,,,,,,,,,,,0,000000,,,,,
003491-20211003-121033-000000013,220003491       ,2.4340832966,102.8269629319,26.2457485199,0.00000000,0.00000000,188.7250799000,18.338,-5.066,-0.532,-0.014,2021-10-03,04:10:43.900000,1633234243,900000,0000,5A2F,1,1,3.033,GPS-3.0,5,0.185,0.206,0.447,0.752,1.189,0,2,10,5,0,0,3,,,,,,,,,,,0,000000,,,,,
003491-20211003-121033-000000014,220003491       ,2.4340560427,102.8269614636,26.2569465637,0.00000000,0.00000000,181.8461914812,18.296,-5.075,0.266,0.054,2021-10-03,04:10:44.499999,1633234244,499999,0000,5A2F,1,1,3.035,GPS-3.0,5,0.185,0.206,0.448,0.752,1.189,0,2,10,5,0,0,3,,,,,,,,,,,0,000000,,,,,
003491-20211003-121033-000000015,220003491       ,2.4340276248,102.8269614923,26.2280788422,0.00000000,0.00000000,178.7759258267,19.954,-5.542,0.081,0.064,2021-10-03,04:10:45.100000,1633234245,100000,0000,5A2F,1,1,3.160,GPS-3.0,5,0.186,0.207,0.448,0.752,1.189,0,2,10,5,0,0,3,,,,,,,,,,,0,000000,,,,,
003491-20211003-121033-000000016,220003491       ,2.4339997286,102.8269622857,26.2023925781,0.00000000,0.00000000,176.7143151880,19.506,-5.418,-0.076,0.099,2021-10-03,04:10:45.650025,1633234245,650025,0000,5A2F,1,1,3.103,GPS-3.0,5,0.186,0.207,0.448,0.708,1.078,0,2,10,5,0,0,4,,,,,,,,,,,0,000000,,,,,
003491-20211003-121033-000000017,220003491       ,2.4339719062,102.8269629766,26.1238422394,0.00000000,0.00000000,178.1865351428,14.272,-3.961,0.175,0.181,2021-10-03,04:10:46.300041,1633234246,300041,0000,5A2F,1,1,3.095,GPS-3.0,5,0.187,0.208,0.449,0.769,1.127,0,2,10,5,0,0,4,,,,,,,,,,,0,000000,,,,,
003491-20211003-121033-000000018,220003491       ,2.4339445312,102.8269617491,26.0144767761,0.00000000,0.00000000,181.5007614941,8.226,-2.278,-0.185,0.142,2021-10-03,04:10:47.300101,1633234247,300101,0000,5A4F,1,1,3.047,GPS-3.0,5,0.182,0.206,0.449,0.893,1.318,0,4,10,5,0,0,3,,,,,,,,,,,0,000000,,,,,
003491-20211003-121033-000000019,220003491       ,2.4339175416,102.8269626878,25.7821502686,0.00000000,0.00000000,180.2437471397,6.001,-1.662,0.126,0.170,2021-10-03,04:10:48.749996,1633234248,749996,0000,5A4F,1,1,3.003,GPS-3.0,5,0.176,0.204,0.449,0.850,1.242,0,4,10,5,0,0,3,,,,,,,,,,,0,000000,,,,,
003491-20211003-121033-000000020,220003491       ,2.4338902956,102.8269624582,25.5100421906,0.00000000,0.00000000,182.3068604200,7.277,-2.018,-0.126,0.243,2021-10-03,04:10:50.200002,1633234250,200002,0000,5A4F,1,1,3.030,GPS-3.0,5,0.170,0.202,0.450,0.893,1.318,0,4,10,5,0,0,3,,,,,,,,,,,0,000000,,,,,
003491-20211003-121033-000000021,220003491       ,2.4338632085,102.8269600447,25.1813926697,0.00000000,0.00000000,182.0188040219,4.971,-1.381,0.016,0.254,2021-10-03,04:10:51.950294,1633234251,950294,0000,5A4F,1,1,3.024,GPS-3.0,5,0.166,0.201,0.450,1.207,2.279,0,4,10,5,0,0,4,,,,,,,,,,,0,000000,,,,,
003491-20211003-121033-000000022,220003491       ,2.4338362085,102.8269610087,24.8406448364,0.00000000,0.00000000,174.4597653656,7.113,-1.903,0.532,0.313,2021-10-03,04:10:53.649996,1633234253,649996,0000,5A4F,1,1,3.004,GPS-3.0,5,0.160,0.198,0.445,0.983,1.355,0,4,10,5,0,0,4,,,,,,,,,,,0,000000,,,,,
003491-20211003-121033-000000023,220003491       ,2.4338133494,102.8269753993,24.5618190765,0.00000000,0.00000000,143.4989276693,6.215,-1.033,1.383,0.224,2021-10-03,04:10:55.249995,1633234255,249995,0000,5A4F,1,1,3.003,GPS-3.0,5,0.153,0.195,0.443,0.944,1.818,0,4,10,5,0,0,4,,,,,,,,,,,0,000000,,,,,
003491-20211003-121033-000000024,220003491       ,2.4338052363,102.8270012123,24.2762832642,0.00000000,0.00000000,107.1599307186,6.122,0.006,1.701,0.160,2021-10-03,04:10:56.899998,1633234256,899998,0000,5A4F,1,1,3.006,GPS-3.0,5,0.151,0.195,0.445,0.975,1.922,0,4,10,5,0,0,4,,,,,,,,,,,0,000000,,,,,
003491-20211003-121033-000000025,220003491       ,2.4338153489,102.8270265064,23.9095859528,0.00000000,0.00000000,69.2651942599,8.260,1.528,1.711,0.138,2021-10-03,04:10:58.499998,1633234258,499998,0000,5A4F,1,1,3.027,GPS-3.0,5,0.151,0.196,0.447,1.076,1.970,0,4,10,5,0,0,3,,,,,,,,,,,0,000000,,,,,
