#0:imgID,1:camSN,2:lat,3:lon,4:height,5:roll,6:pitch,7:heading,8:speed,9:speed_n,10:speed_e,11:speed_d,12:date,13:time,14:unix_time_sec,15:unix_time_microsec,16:systemStatus,17:filterStatus,18:haveFix,19:extVelocity,20:distancetoprevious,21:releaseMode,22:device_id,23:lat_dev,24:lon_dev,25:hei_dev,26:hdop,27:vdop,28:fs_10,29:gnss_fix_status,30:gps_sat,31:glonass_sat,32:beidu_sat,33:gal_sat,34:sbas_sat,35:custLog0,36:custLog1,37:custLog2,38:custLog3,39:custLog4,40:custLog5,41:custLog6,42:custLog7,43:custLog8,44:custLog9,45:unix_time_sec_fixed,46:unix_time_microsec_fixed,47:pnvgbss_field3,48:pnvgbss_field4,49:pnvgbss_field5,50:pnvgbss_field6,51:pnvgbss_field7
003491-20211003-122538-000000001,220003491       ,2.4468949747,102.8318896511,10.6136608124,0.00000000,0.00000000,92.4760895126,21.875,-0.231,6.072,-0.440,2021-10-03,04:25:37.849995,1633235137,849995,0000,5A2F,1,1,0.000,GPS-3.0,5,0.239,0.274,0.540,1.055,1.496,0,2,11,4,0,0,4,,,,,,,,,,,0,000000,,,,,
003491-20211003-122538-000000002,220003491       ,2.4468938120,102.8319185046,11.0423154831,0.00000000,0.00000000,92.2843524422,20.385,-0.272,5.656,-0.599,2021-10-03,04:25:38.400001,1633235138,400001,0000,5A2F,1,1,3.208,GPS-3.0,5,0.239,0.274,0.540,0.943,1.513,0,2,11,4,0,0,4,,,,,,,,,,,0,000000,,,,,
003491-20211003-122538-000000003,220003491       ,2.4468924871,102.8319472509,11.5055112839,0.00000000,0.00000000,92.6717676021,18.008,-0.303,4.993,-0.712,2021-10-03,04:25:39.000277,1633235139,000277,0000,5A2F,1,1,3.197,GPS-3.0,5,0.239,0.274,0.541,0.894,1.412,0,2,11,4,0,0,4,,,,,,,,,,,0,000000,,,,,
003491-20211003-122538-000000004,220003491       ,2.4468913895,102.8319751610,12.1144914627,0.00000000,0.00000000,93.0337334772,14.584,-0.059,4.051,-0.771,2021-10-03,04:25:39.699999,1633235139,699999,0000,5A2F,1,1,3.103,GPS-3.0,5,0.240,0.274,0.541,1.031,1.508,0,2,11,4,0,0,4,,,,,,,,,,,0,000000,,,,,
003491-20211003-122538-000000005,220003491       ,2.4468897298,102.8320031852,12.7430477142,0.00000000,0.00000000,93.2831788159,11.094,-0.202,3.075,-0.629,2021-10-03,04:25:40.600001,1633235140,600001,0000,5A2F,1,1,3.119,GPS-3.0,5,0.240,0.275,0.542,1.032,1.508,0,2,11,4,0,0,4,,,,,,,,,,,0,000000,,,,,
003491-20211003-122538-000000006,220003491       ,2.4468884529,102.8320304449,13.2135181427,0.00000000,0.00000000,93.4237509392,11.587,-0.094,3.217,-0.531,2021-10-03,04:25:41.700000,1633235141,700000,0000,5A2F,1,1,3.032,GPS-3.0,5,0.240,0.275,0.543,1.032,1.508,0,2,11,4,0,0,4,,,,,,,,,,,0,000000,,,,,
003491-20211003-122538-000000007,220003491       ,2.4468880959,102.8320579730,13.6297674179,0.00000000,0.00000000,89.6311176478,16.528,0.151,4.589,-0.592,2021-10-03,04:25:42.500000,1633235142,500000,0000,5A2F,1,1,3.058,GPS-3.0,5,0.240,0.275,0.543,1.032,1.508,0,2,11,4,0,0,4,,,,,,,,,,,0,000000,,,,,
003491-20211003-122538-000000008,220003491       ,2.4468901217,102.8320859736,13.8477706909,0.00000000,0.00000000,83.2070856768,20.290,0.666,5.597,-0.276,2021-10-03,04:25:43.100000,1633235143,100000,0000,5A2F,1,1,3.119,GPS-3.0,5,0.240,0.275,0.544,0.894,1.412,0,2,11,4,0,0,4,,,,,,,,,,,0,000000,,,,,
003491-20211003-122538-000000009,220003491       ,2.4468955065,102.8321146194,13.8058271408,0.00000000,0.00000000,77.6783002606,21.957,1.318,5.955,-0.015,2021-10-03,04:25:43.649996,1633235143,649996,0000,5A2F,1,1,3.238,GPS-3.0,5,0.240,0.275,0.544,0.836,1.365,0,2,11,4,0,0,4,,,,,,,,,,,0,000000,,,,,
003491-20211003-122538-000000010,220003491       ,2.4469025413,102.8321414068,13.7692260742,0.00000000,0.00000000,76.7435274010,22.527,1.630,6.041,0.006,2021-10-03,04:25:44.149997,1633235144,149997,0000,5A2F,1,1,3.077,GPS-3.0,5,0.241,0.275,0.545,0.994,1.447,0,2,11,4,0,0,4,,,,,,,,,,,0,000000,,,,,
003491-20211003-122538-000000011,220003491       ,2.4469091152,102.8321704780,13.7358732224,0.00000000,0.00000000,79.1872598030,24.165,1.322,6.581,-0.051,2021-10-03,04:25:44.650170,1633235144,650170,0000,5A2F,1,1,3.311,GPS-3.0,5,0.241,0.276,0.546,1.055,1.555,0,2,11,4,0,0,4,,,,,,,,,,,0,000000,,,,,
003491-20211003-122538-000000012,220003491       ,2.4469136611,102.8321980525,13.7486944199,0.00000000,0.00000000,82.5510869881,25.560,0.791,7.056,-0.030,2021-10-03,04:25:45.100010,1633235145,100010,0000,5A2F,1,1,3.105,GPS-3.0,5,0.242,0.276,0.547,1.166,1.461,0,2,11,4,0,0,4,,,,,,,,,,,0,000000,,,,,
003491-20211003-122538-000000013,220003491       ,2.4469165505,102.8322271574,13.7716550827,0.00000000,0.00000000,85.7802365032,26.132,0.535,7.239,-0.068,2021-10-03,04:25:45.549996,1633235145,549996,0000,5A2F,1,1,3.249,GPS-3.0,5,0.244,0.278,0.548,1.652,1.953,0,2,11,4,0,0,3,,,,,,,,,,,0,000000,,,,,
003491-20211003-122538-000000014,220003491       ,2.4469195251,102.8322567325,13.8063135147,0.00000000,0.00000000,88.0432762507,25.184,0.344,6.987,-0.094,2021-10-03,04:25:46.000011,1633235146,000011,0000,5A2F,1,1,3.302,GPS-3.0,5,0.245,0.279,0.550,1.121,1.777,0,2,11,4,0,0,3,,,,,,,,,,,0,000000,,,,,
003491-20211003-122538-000000015,220003491       ,2.4469204586,102.8322856899,13.9317426682,0.00000000,0.00000000,89.3699995158,24.923,0.258,6.918,-0.193,2021-10-03,04:25:46.449996,1633235146,449996,0000,5A2F,1,1,3.219,GPS-3.0,5,0.246,0.280,0.551,1.121,1.777,0,2,11,4,0,0,3,,,,,,,,,,,0,000000,,,,,
003491-20211003-122538-000000016,220003491       ,2.4469206821,102.8323148930,14.1320562363,0.00000000,0.00000000,89.7717990541,25.375,0.222,7.045,-0.290,2021-10-03,04:25:46.900000,1633235146,900000,0000,5A2F,1,1,3.244,GPS-3.0,5,0.246,0.280,0.551,1.121,1.776,0,2,11,4,0,0,3,,,,,,,,,,,0,000000,,,,,
003491-20211003-122538-000000017,220003491       ,2.4469208479,102.8323445582,14.3765993118,0.00000000,0.00000000,90.0186830719,26.393,-0.021,7.331,-0.321,2021-10-03,04:25:47.350225,1633235147,350225,0000,5A2F,1,1,3.296,GPS-3.0,5,0.247,0.280,0.551,1.121,1.776,0,2,11,4,0,0,2,,,,,,,,,,,0,000000,,,,,
003491-20211003-122538-000000018,220003491       ,2.4469208573,102.8323737299,14.4878950119,0.00000000,0.00000000,89.9347127262,26.276,-0.105,7.298,-0.279,2021-10-03,04:25:47.800112,1633235147,800112,0000,5A2F,1,1,3.241,GPS-3.0,5,0.248,0.281,0.552,1.470,1.953,0,2,11,4,0,0,2,,,,,,,,,,,0,000000,,,,,
003491-20211003-122538-000000019,220003491       ,2.4469211677,102.8324036255,14.5188121796,0.00000000,0.00000000,89.9985203534,26.424,0.014,7.340,-0.192,2021-10-03,04:25:48.249996,1633235148,249996,0000,5A2F,1,1,3.321,GPS-3.0,5,0.248,0.281,0.553,1.121,1.776,0,2,11,4,0,0,1,,,,,,,,,,,0,000000,,,,,
003491-20211003-122538-000000020,220003491       ,2.4469211472,102.8324334312,14.6346559525,0.00000000,0.00000000,89.8962177800,26.718,0.052,7.422,-0.159,2021-10-03,04:25:48.700000,1633235148,700000,0000,5A2F,1,1,3.311,GPS-3.0,5,0.248,0.281,0.553,1.121,1.775,0,2,11,4,0,0,1,,,,,,,,,,,0,000000,,,,,
003491-20211003-122538-000000021,220003491       ,2.4469210717,102.8324633211,14.7623834610,0.00000000,0.00000000,90.0112176751,26.828,-0.047,7.452,-0.208,2021-10-03,04:25:49.149995,1633235149,149995,0000,5A2F,1,1,3.321,GPS-3.0,5,0.249,0.281,0.553,0.943,1.510,0,2,11,4,0,0,1,,,,,,,,,,,0,000000,,,,,
003491-20211003-122538-000000022,220003491       ,2.4469207622,102.8324906449,15.0528202057,0.00000000,0.00000000,90.1562294214,27.213,-0.115,7.558,-0.357,2021-10-03,04:25:49.549995,1633235149,549995,0000,5A2F,1,1,3.036,GPS-3.0,5,0.249,0.282,0.554,1.121,1.775,0,2,10,4,0,0,2,,,,,,,,,,,0,000000,,,,,
003491-20211003-122538-000000023,220003491       ,2.4469208367,102.8325181078,15.3838520050,0.00000000,0.00000000,90.3675281535,27.518,-0.104,7.643,-0.474,2021-10-03,04:25:49.950255,1633235149,950255,0000,5A2F,1,1,3.051,GPS-3.0,5,0.249,0.282,0.554,0.882,1.383,0,2,10,4,0,0,2,,,,,,,,,,,0,000000,,,,,
003491-20211003-122538-000000024,220003491       ,2.4469210594,102.8325455966,15.5953207016,0.00000000,0.00000000,90.5911690375,27.373,0.037,7.603,-0.465,2021-10-03,04:25:50.349995,1633235150,349995,0000,5A2F,1,1,3.054,GPS-3.0,5,0.250,0.282,0.555,0.882,1.383,0,2,11,4,0,0,2,,,,,,,,,,,0,000000,,,,,
003491-20211003-122538-000000025,220003491       ,2.4469199765,102.8325730854,15.8817996979,0.00000000,0.00000000,91.0196541249,27.521,-0.108,7.644,-0.525,2021-10-03,04:25:50.749995,1633235150,749995,0000,5A2F,1,1,3.056,GPS-3.0,5,0.250,0.282,0.555,0.882,1.383,0,2,11,4,0,0,2,,,,,,,,,,,0,000000,,,,,
003491-20211003-122538-000000026,220003491       ,2.4469184166,102.8326001207,16.1281757355,0.00000000,0.00000000,91.3861415852,27.450,-0.114,7.624,-0.482,2021-10-03,04:25:51.150179,1633235151,150179,0000,5A2F,1,1,3.008,GPS-3.0,5,0.250,0.283,0.555,0.882,1.383,0,2,11,4,0,0,2,,,,,,,,,,,0,000000,,,,,
003491-20211003-122538-000000027,220003491       ,2.4469172639,102.8326276138,16.2678527832,0.00000000,0.00000000,91.6941216451,27.840,-0.349,7.726,-0.366,2021-10-03,04:25:51.549995,1633235151,549995,0000,5A2F,1,1,3.057,GPS-3.0,5,0.251,0.283,0.556,0.882,1.383,0,2,10,4,0,0,2,,,,,,,,,,,0,000000,,,,,
003491-20211003-122538-000000028,220003491       ,2.4469159308,102.8326555026,16.3725242615,0.00000000,0.00000000,91.9538327581,28.347,-0.418,7.863,-0.232,2021-10-03,04:25:51.949995,1633235151,949995,0000,5A2F,1,1,3.102,GPS-3.0,5,0.251,0.283,0.556,0.882,1.383,0,2,10,4,0,0,2,,,,,,,,,,,0,000000,,,,,
003491-20211003-122538-000000029,220003491       ,2.4469147398,102.8326839007,16.4871520996,0.00000000,0.00000000,92.1261994120,28.542,-0.332,7.921,-0.143,2021-10-03,04:25:52.350106,1633235152,350106,0000,5A2F,1,1,3.158,GPS-3.0,5,0.251,0.283,0.556,0.819,1.328,0,2,10,4,0,0,3,,,,,,,,,,,0,000000,,,,,
003491-20211003-122538-000000030,220003491       ,2.4469134846,102.8327128282,16.5380134583,0.00000000,0.00000000,92.3252379546,29.150,-0.335,8.090,-0.080,2021-10-03,04:25:52.749995,1633235152,749995,0000,5A2F,1,1,3.217,GPS-3.0,5,0.251,0.283,0.556,0.819,1.328,0,2,10,4,0,0,3,,,,,,,,,,,0,000000,,,,,
003491-20211003-122538-000000031,220003491       ,2.4469120951,102.8327421432,16.5439720154,0.00000000,0.00000000,92.5007464955,29.441,-0.096,8.178,0.001,2021-10-03,04:25:53.149996,1633235153,149996,0000,5A2F,1,1,3.260,GPS-3.0,5,0.250,0.283,0.556,0.819,1.328,0,2,10,4,0,0,3,,,,,,,,,,,0,000000,,,,,
003491-20211003-122538-000000032,220003491       ,2.4469107552,102.8327719601,16.5599555969,0.00000000,0.00000000,92.9590863397,30.285,-0.544,8.395,-0.087,2021-10-03,04:25:53.550048,1633235153,550048,0000,5A2F,1,1,3.316,GPS-3.0,5,0.250,0.283,0.556,0.819,1.328,0,2,10,4,0,0,3,,,,,,,,,,,0,000000,,,,,
003491-20211003-122538-000000033,220003491       ,2.4469087456,102.8328022412,16.6817932129,0.00000000,0.00000000,94.2775792269,30.581,-0.888,8.448,-0.214,2021-10-03,04:25:53.950010,1633235153,950010,0000,5A2F,1,1,3.371,GPS-3.0,5,0.249,0.282,0.556,0.819,1.328,0,2,10,4,0,0,3,,,,,,,,,,,0,000000,,,,,
003491-20211003-122538-000000034,220003491       ,2.4469062950,102.8328291770,16.8599643707,0.00000000,0.00000000,95.1713299704,30.784,-0.853,8.509,-0.336,2021-10-03,04:25:54.300119,1633235154,300119,0000,5A2F,1,1,3.005,GPS-3.0,5,0.249,0.282,0.555,0.819,1.328,0,2,10,4,0,0,3,,,,,,,,,,,0,000000,,,,,
003491-20211003-122538-000000035,220003491       ,2.4469033157,102.8328560621,16.9930953979,0.00000000,0.00000000,95.9421509692,30.629,-0.952,8.455,-0.308,2021-10-03,04:25:54.649996,1633235154,649996,0000,5A2F,1,1,3.005,GPS-3.0,5,0.248,0.282,0.555,0.819,1.328,0,2,10,4,0,0,3,,,,,,,,,,,0,000000,,,,,
003491-20211003-122538-000000036,220003491       ,2.4468996950,102.8328864552,17.1501712799,0.00000000,0.00000000,96.6192959235,30.090,-0.954,8.304,-0.265,2021-10-03,04:25:55.050208,1633235155,050208,0000,5A2F,1,1,3.400,GPS-3.0,5,0.248,0.282,0.554,0.819,1.328,0,2,10,4,0,0,3,,,,,,,,,,,0,000000,,,,,
003491-20211003-122538-000000037,220003491       ,2.4468960533,102.8329161051,17.2927703857,0.00000000,0.00000000,96.7484274799,29.728,-0.837,8.215,-0.330,2021-10-03,04:25:55.449996,1633235155,449996,0000,5A2F,1,1,3.319,GPS-3.0,5,0.247,0.281,0.553,0.819,1.328,0,2,10,4,0,0,3,,,,,,,,,,,0,000000,,,,,
003491-20211003-122538-000000038,220003491       ,2.4468926567,102.8329457462,17.4613132477,0.00000000,0.00000000,96.3877661710,29.848,-0.787,8.254,-0.323,2021-10-03,04:25:55.849996,1633235155,849996,0000,5A2F,1,1,3.315,GPS-3.0,5,0.247,0.281,0.552,0.908,1.328,0,2,10,4,0,0,3,,,,,,,,,,,0,000000,,,,,
003491-20211003-122538-000000039,220003491       ,2.4468891225,102.8329753203,17.5396842957,0.00000000,0.00000000,96.1038352072,29.954,-0.925,8.269,-0.196,2021-10-03,04:25:56.250137,1633235156,250137,0000,5A2F,1,1,3.309,GPS-3.0,5,0.247,0.281,0.553,0.954,1.384,0,2,10,4,0,0,3,,,,,,,,,,,0,000000,,,,,
003491-20211003-122538-000000040,220003491       ,2.4468860277,102.8330047731,17.6355838776,0.00000000,0.00000000,95.7163858963,30.097,-0.932,8.308,-0.204,2021-10-03,04:25:56.649996,1633235156,649996,0000,5A2F,1,1,3.290,GPS-3.0,5,0.247,0.281,0.553,0.908,1.328,0,2,10,4,0,0,3,,,,,,,,,,,0,000000,,,,,
003491-20211003-122538-000000041,220003491       ,2.4468834539,102.8330340904,17.7745151520,0.00000000,0.00000000,95.2583602408,29.984,-0.714,8.298,-0.213,2021-10-03,04:25:57.049996,1633235157,049996,0000,5A2F,1,1,3.270,GPS-3.0,5,0.247,0.281,0.553,0.868,1.367,0,2,10,4,0,0,3,,,,,,,,,,,0,000000,,,,,
003491-20211003-122538-000000042,220003491       ,2.4468805563,102.8330638997,17.8238906860,0.00000000,0.00000000,94.8271977192,30.240,-0.720,8.369,-0.185,2021-10-03,04:25:57.450092,1633235157,450092,0000,5A2F,1,1,3.327,GPS-3.0,5,0.248,0.282,0.553,0.868,1.367,0,2,10,4,0,0,3,,,,,,,,,,,0,000000,,,,,
003491-20211003-122538-000000043,220003491       ,2.4468787270,102.8330943386,18.0497455597,0.00000000,0.00000000,93.6349267279,30.617,-0.479,8.491,-0.273,2021-10-03,04:25:57.849996,1633235157,849996,0000,5A2F,1,1,3.388,GPS-3.0,5,0.248,0.282,0.553,0.794,1.355,0,2,10,4,0,0,3,,,,,,,,,,,0,000000,,,,,
003491-20211003-122538-000000044,220003491       ,2.4468779797,102.8331248684,18.1608219147,0.00000000,0.00000000,92.3581184852,31.131,-0.331,8.641,-0.312,2021-10-03,04:25:58.249996,1633235158,249996,0000,5A2F,1,1,3.393,GPS-3.0,5,0.249,0.283,0.554,0.868,1.367,0,2,10,4,0,0,3,,,,,,,,,,,0,000000,,,,,
003491-20211003-122538-000000045,220003491       ,2.4468782417,102.8331554244,18.2223224640,0.00000000,0.00000000,91.0521863159,31.340,0.004,8.705,-0.301,2021-10-03,04:25:58.650003,1633235158,650003,0000,5A2F,1,1,3.395,GPS-3.0,5,0.249,0.283,0.555,1.077,1.535,0,2,10,4,0,0,3,,,,,,,,,,,0,000000,,,,,
003491-20211003-122538-000000046,220003491       ,2.4468787701,102.8331830872,18.3852100372,0.00000000,0.00000000,89.9193789515,31.604,0.311,8.773,-0.343,2021-10-03,04:25:59.000010,1633235159,000010,0000,5A2F,1,1,3.074,GPS-3.0,5,0.250,0.284,0.556,1.003,1.488,0,2,10,4,0,0,3,,,,,,,,,,,0,000000,,,,,
003491-20211003-122538-000000047,220003491       ,2.4468801193,102.8332109575,18.5850238800,0.00000000,0.00000000,88.9032448785,32.167,0.518,8.920,-0.435,2021-10-03,04:25:59.349996,1633235159,349996,0000,5A2F,1,1,3.100,GPS-3.0,5,0.250,0.284,0.556,1.003,1.488,0,2,10,4,0,0,4,,,,,,,,,,,0,000000,,,,,
003491-20211003-122538-000000048,220003491       ,2.4468814449,102.8332401607,18.7841701508,0.00000000,0.00000000,88.3035884203,32.730,0.587,9.073,-0.408,2021-10-03,04:25:59.700269,1633235159,700269,0000,5A2F,1,1,3.248,GPS-3.0,5,0.250,0.284,0.556,1.652,2.873,0,2,10,4,0,0,4,,,,,,,,,,,0,000000,,,,,
003491-20211003-122538-000000049,220003491       ,2.4468830785,102.8332693006,18.8992881775,0.00000000,0.00000000,87.7311639264,33.510,0.362,9.301,-0.328,2021-10-03,04:26:00.050066,1633235160,050066,0000,5A2F,1,1,3.242,GPS-3.0,5,0.251,0.285,0.557,1.454,2.045,0,2,10,4,0,0,4,,,,,,,,,,,0,000000,,,,,
003491-20211003-122538-000000050,220003491       ,2.4468853648,102.8332990593,19.0996761322,0.00000000,0.00000000,87.1910325668,34.152,0.594,9.468,-0.334,2021-10-03,04:26:00.400003,1633235160,400003,0000,5A2F,1,1,3.316,GPS-3.0,5,0.252,0.285,0.558,1.101,1.641,0,2,11,4,0,0,1,,,,,,,,,,,0,000000,,,,,
003491-20211003-122538-000000051,220003491       ,2.4468872123,102.8333288883,19.1390476227,0.00000000,0.00000000,86.3781307725,34.373,0.625,9.528,-0.230,2021-10-03,04:26:00.749997,1633235160,749997,0000,5A2F,1,1,3.320,GPS-3.0,5,0.253,0.287,0.559,1.379,1.949,0,2,11,4,0,0,1,,,,,,,,,,,0,000000,,,,,
003491-20211003-122538-000000052,220003491       ,2.4468889476,102.8333589600,19.1582851410,0.00000000,0.00000000,86.2459529517,34.497,0.610,9.563,-0.158,2021-10-03,04:26:01.099999,1633235161,099999,0000,5A2F,1,1,3.346,GPS-3.0,5,0.254,0.287,0.560,1.454,2.045,0,2,11,4,0,0,1,,,,,,,,,,,0,000000,,,,,
003491-20211003-122538-000000053,220003491       ,2.4468908002,102.8333892850,19.1451931000,0.00000000,0.00000000,86.2191649498,34.449,0.528,9.555,-0.120,2021-10-03,04:26:01.450139,1633235161,450139,0000,5A2F,1,1,3.375,GPS-3.0,5,0.255,0.288,0.562,1.454,2.045,0,2,11,4,0,0,0,,,,,,,,,,,0,000000,,,,,
003491-20211003-122538-000000054,220003491       ,2.4468916803,102.8334197155,19.0549736023,0.00000000,0.00000000,86.7442630630,34.340,0.260,9.535,-0.011,2021-10-03,04:26:01.800001,1633235161,800001,0000,5A2F,1,1,3.382,GPS-3.0,5,0.256,0.289,0.562,1.454,2.045,0,2,11,4,0,0,0,,,,,,,,,,,0,000000,,,,,
003491-20211003-122538-000000055,220003491       ,2.4468922644,102.8334491853,19.0356788635,0.00000000,0.00000000,86.9308843217,33.794,0.400,9.379,0.013,2021-10-03,04:26:02.149995,1633235162,149995,0000,5A2F,1,1,3.275,GPS-3.0,5,0.256,0.289,0.563,1.454,2.045,0,2,11,4,0,0,0,,,,,,,,,,,0,000000,,,,,
003491-20211003-122538-000000056,220003491       ,2.4468928797,102.8334792512,19.1043834686,0.00000000,0.00000000,87.4902563241,33.102,0.275,9.191,0.015,2021-10-03,04:26:02.499998,1633235162,499998,0000,5A2F,1,1,3.341,GPS-3.0,5,0.256,0.289,0.564,1.454,2.045,0,2,11,4,0,0,1,,,,,,,,,,,0,000000,,,,,
003491-20211003-122538-000000057,220003491       ,2.4468938532,102.8335076530,19.1222381592,0.00000000,0.00000000,87.8148952154,32.828,0.337,9.113,-0.041,2021-10-03,04:26:02.850219,1633235162,850219,0000,5A2F,1,1,3.157,GPS-3.0,5,0.257,0.290,0.565,1.455,2.045,0,2,11,4,0,0,1,,,,,,,,,,,0,000000,,,,,
003491-20211003-122538-000000058,220003491       ,2.4468950993,102.8335360031,19.1911468506,0.00000000,0.00000000,87.8536360484,32.796,0.233,9.107,-0.077,2021-10-03,04:26:03.200004,1633235163,200004,0000,5A2F,1,1,3.153,GPS-3.0,5,0.258,0.291,0.566,1.455,2.045,0,2,11,4,0,0,1,,,,,,,,,,,0,000000,,,,,
003491-20211003-122538-000000059,220003491       ,2.4468958818,102.8335646775,19.2033004761,0.00000000,0.00000000,88.1441581447,32.846,0.194,9.122,-0.074,2021-10-03,04:26:03.549995,1633235163,549995,0000,5A2F,1,1,3.187,GPS-3.0,5,0.259,0.292,0.567,1.455,2.045,0,2,11,4,0,0,1,,,,,,,,,,,0,000000,,,,,
003491-20211003-122538-000000060,220003491       ,2.4468962049,102.8335922934,19.1326847076,0.00000000,0.00000000,88.2169611311,32.761,0.135,9.099,-0.005,2021-10-03,04:26:03.899999,1633235163,899999,0000,5A2F,1,1,3.068,GPS-3.0,5,0.260,0.292,0.568,1.455,2.045,0,2,11,4,0,0,1,,,,,,,,,,,0,000000,,,,,
003491-20211003-122538-000000061,220003491       ,2.4468977212,102.8336207522,19.2744750977,0.00000000,0.00000000,88.0833831215,32.726,0.260,9.087,-0.049,2021-10-03,04:26:04.250273,1633235164,250273,0000,5A2F,1,1,3.166,GPS-3.0,5,0.260,0.293,0.568,1.380,1.949,0,2,10,4,0,0,3,,,,,,,,,,,0,000000,,,,,
003491-20211003-122538-000000062,220003491       ,2.4468988615,102.8336492716,19.2674579620,0.00000000,0.00000000,87.7064932831,32.236,0.523,8.939,-0.022,2021-10-03,04:26:04.600107,1633235164,600107,0000,5A2F,1,1,3.171,GPS-3.0,5,0.262,0.294,0.570,1.455,2.045,0,2,10,4,0,0,3,,,,,,,,,,,0,000000,,,,,
003491-20211003-122538-000000063,220003491       ,2.4469002557,102.8336778288,19.2512054443,0.00000000,0.00000000,87.1519502244,32.764,0.526,9.086,-0.073,2021-10-03,04:26:04.950007,1633235164,950007,0000,5A2F,1,1,3.176,GPS-3.0,5,0.264,0.296,0.572,1.218,1.730,0,2,10,4,0,0,3,,,,,,,,,,,0,000000,,,,,
003491-20211003-122538-000000064,220003491       ,2.4469028347,102.8337072971,19.2244892120,0.00000000,0.00000000,86.6932757008,32.977,0.600,9.141,-0.001,2021-10-03,04:26:05.300000,1633235165,300000,0000,5A2F,1,1,3.286,GPS-3.0,5,0.264,0.296,0.572,1.859,2.107,0,2,11,4,0,0,4,,,,,,,,,,,0,000000,,,,,
003491-20211003-122538-000000065,220003491       ,2.4469036490,102.8337350707,19.0832386017,0.00000000,0.00000000,86.9445925114,32.512,0.621,9.010,0.082,2021-10-03,04:26:05.649996,1633235165,649996,0000,5A2F,1,1,3.087,GPS-3.0,5,0.264,0.296,0.572,1.455,2.045,0,2,11,4,0,0,4,,,,,,,,,,,0,000000,,,,,
003491-20211003-122538-000000066,220003491       ,2.4469048498,102.8337629368,19.1092262268,0.00000000,0.00000000,87.0071707045,32.140,0.501,8.914,0.026,2021-10-03,04:26:06.000164,1633235166,000164,0000,5A2F,1,1,3.099,GPS-3.0,5,0.264,0.296,0.573,1.350,1.979,0,2,11,4,0,0,4,,,,,,,,,,,0,000000,,,,,
003491-20211003-122538-000000067,220003491       ,2.4469059151,102.8337908430,19.1740913391,0.00000000,0.00000000,87.0892217670,31.687,0.482,8.789,-0.029,2021-10-03,04:26:06.349996,1633235166,349996,0000,5A2F,1,1,3.102,GPS-3.0,5,0.265,0.297,0.574,1.378,1.924,0,2,11,4,0,0,3,,,,,,,,,,,0,000000,,,,,
003491-20211003-122538-000000068,220003491       ,2.4469077857,102.8338183186,19.3871631622,0.00000000,0.00000000,87.2687396290,31.636,0.424,8.777,-0.210,2021-10-03,04:26:06.700012,1633235166,700012,0000,5A2F,1,1,3.059,GPS-3.0,5,0.265,0.297,0.574,1.292,1.923,0,2,11,4,0,0,3,,,,,,,,,,,0,000000,,,,,
003491-20211003-122538-000000069,220003491       ,2.4469097337,102.8338456564,19.6046257019,0.00000000,0.00000000,87.6298790512,31.500,0.246,8.747,-0.312,2021-10-03,04:26:07.050012,1633235167,050012,0000,5A2F,1,1,3.045,GPS-3.0,5,0.266,0.297,0.575,1.292,1.923,0,2,11,4,0,0,3,,,,,,,,,,,0,000000,,,,,
003491-20211003-122538-000000070,220003491       ,2.4469102409,102.8338763872,19.5993080139,0.00000000,0.00000000,88.4695278662,30.927,0.355,8.583,-0.283,2021-10-03,04:26:07.449998,1633235167,449998,0000,5A2F,1,1,3.414,GPS-3.0,5,0.266,0.298,0.575,1.292,1.923,0,2,11,4,0,0,3,,,,,,,,,,,0,000000,,,,,
003491-20211003-122538-000000071,220003491       ,2.4469106054,102.8339034745,19.7130737305,0.00000000,0.00000000,88.9632685809,30.819,-0.007,8.561,-0.215,2021-10-03,04:26:07.800004,1633235167,800004,0000,5A2F,1,1,3.009,GPS-3.0,5,0.267,0.298,0.576,1.292,1.923,0,2,11,4,0,0,3,,,,,,,,,,,0,000000,,,,,
003491-20211003-122538-000000072,220003491       ,2.4469095323,102.8339306999,19.9253501892,0.00000000,0.00000000,89.7425385237,30.692,-0.053,8.525,-0.216,2021-10-03,04:26:08.150291,1633235168,150291,0000,5A2F,1,1,3.027,GPS-3.0,5,0.267,0.298,0.576,1.292,1.923,0,2,11,4,0,0,3,,,,,,,,,,,0,000000,,,,,
003491-20211003-122538-000000073,220003491       ,2.4469087494,102.8339607661,20.0581779480,0.00000000,0.00000000,90.1816718760,30.039,-0.296,8.339,-0.229,2021-10-03,04:26:08.550000,1633235168,550000,0000,5A2F,1,1,3.341,GPS-3.0,5,0.267,0.299,0.577,1.292,1.923,0,2,11,4,0,0,3,,,,,,,,,,,0,000000,,,,,
003491-20211003-122538-000000074,220003491       ,2.4469083461,102.8339909654,20.3491210938,0.00000000,0.00000000,90.2956472427,29.960,-0.225,8.319,-0.463,2021-10-03,04:26:08.949996,1633235168,949996,0000,5A2F,1,1,3.355,GPS-3.0,5,0.267,0.299,0.577,0.964,1.439,0,2,11,4,0,0,3,,,,,,,,,,,0,000000,,,,,
003491-20211003-122538-000000075,220003491       ,2.4469080472,102.8340206505,20.6663322449,0.00000000,0.00000000,90.4948975212,29.550,-0.423,8.198,-0.561,2021-10-03,04:26:09.350228,1633235169,350228,0000,5A2F,1,1,3.298,GPS-3.0,5,0.267,0.299,0.577,0.964,1.439,0,2,11,4,0,0,3,,,,,,,,,,,0,000000,,,,,
003491-20211003-122538-000000076,220003491       ,2.4469075253,102.8340505556,20.9939956665,0.00000000,0.00000000,90.8471098861,28.893,-0.313,8.020,-0.435,2021-10-03,04:26:09.750016,1633235169,750016,0000,5A2F,1,1,3.323,GPS-3.0,5,0.267,0.299,0.577,0.964,1.439,0,2,11,4,0,0,3,,,,,,,,,,,0,000000,,,,,
003491-20211003-122538-000000077,220003491       ,2.4469067180,102.8340793095,21.3112449646,0.00000000,0.00000000,91.4598803075,28.070,-0.190,7.795,-0.700,2021-10-03,04:26:10.150003,1633235170,150003,0000,5A2F,1,1,3.196,GPS-3.0,5,0.267,0.299,0.578,0.964,1.439,0,2,11,4,0,0,3,,,,,,,,,,,0,000000,,,,,
003491-20211003-122538-000000078,220003491       ,2.4469061162,102.8341084957,21.8230247498,0.00000000,0.00000000,91.9555061544,28.575,-0.135,7.936,-0.772,2021-10-03,04:26:10.550154,1633235170,550154,0000,5A2F,1,1,3.243,GPS-3.0,5,0.267,0.299,0.578,0.883,1.380,0,2,10,4,0,0,4,,,,,,,,,,,0,000000,,,,,
003491-20211003-122538-000000079,220003491       ,2.4469049729,102.8341375035,22.3282661438,0.00000000,0.00000000,92.7673219486,29.511,-0.117,8.197,-1.071,2021-10-03,04:26:10.950003,1633235170,950003,0000,5A2F,1,1,3.225,GPS-3.0,5,0.267,0.299,0.578,0.883,1.380,0,2,10,4,0,0,4,,,,,,,,,,,0,000000,,,,,
003491-20211003-122538-000000080,220003491       ,2.4469034005,102.8341671742,22.7863693237,0.00000000,0.00000000,94.0165567176,30.380,-0.471,8.426,-0.933,2021-10-03,04:26:11.349996,1633235171,349996,0000,5A2F,1,1,3.301,GPS-3.0,5,0.266,0.299,0.578,0.894,1.409,0,2,10,4,0,0,4,,,,,,,,,,,0,000000,,,,,
003491-20211003-122538-000000081,220003491       ,2.4469010238,102.8341970939,23.1677646637,0.00000000,0.00000000,95.4413751596,30.797,-0.877,8.509,-0.826,2021-10-03,04:26:11.750073,1633235171,750073,0000,5A2F,1,1,3.334,GPS-3.0,5,0.266,0.298,0.578,0.748,1.284,0,2,10,4,0,0,4,,,,,,,,,,,0,000000,,,,,
003491-20211003-122538-000000082,220003491       ,2.4468975031,102.8342275809,23.4874114990,0.00000000,0.00000000,96.8892659806,31.329,-1.166,8.624,-0.718,2021-10-03,04:26:12.150007,1633235172,150007,0000,5A2F,1,1,3.409,GPS-3.0,5,0.266,0.298,0.578,0.748,1.284,0,2,10,4,0,0,4,,,,,,,,,,,0,000000,,,,,
003491-20211003-122538-000000083,220003491       ,2.4468934997,102.8342551317,23.7842102051,0.00000000,0.00000000,97.9165332620,31.767,-0.846,8.783,-0.707,2021-10-03,04:26:12.500157,1633235172,500157,0000,5A2F,1,1,3.093,GPS-3.0,5,0.266,0.298,0.578,0.863,1.412,0,2,10,4,0,0,4,,,,,,,,,,,0,000000,,,,,
003491-20211003-122538-000000084,220003491       ,2.4468895892,102.8342834056,24.1283111572,0.00000000,0.00000000,98.4868813784,32.458,-1.074,8.952,-0.714,2021-10-03,04:26:12.850005,1633235172,850005,0000,5A2F,1,1,3.171,GPS-3.0,5,0.265,0.298,0.578,0.820,1.327,0,2,10,4,0,0,4,,,,,,,,,,,0,000000,,,,,
003491-20211003-122538-000000085,220003491       ,2.4468854587,102.8343122308,24.4547576904,0.00000000,0.00000000,98.9285350705,33.956,-1.536,9.306,-0.747,2021-10-03,04:26:13.200003,1633235173,200003,0000,5A2F,1,1,3.235,GPS-3.0,5,0.265,0.298,0.578,0.895,1.408,0,2,10,4,0,0,3,,,,,,,,,,,0,000000,,,,,
003491-20211003-122538-000000086,220003491       ,2.4468808252,102.8343418817,24.7051544189,0.00000000,0.00000000,99.2890529455,34.463,-1.381,9.473,-0.701,2021-10-03,04:26:13.550012,1633235173,550012,0000,5A2F,1,1,3.334,GPS-3.0,5,0.265,0.298,0.577,0.895,1.408,0,2,10,4,0,0,3,,,,,,,,,,,0,000000,,,,,
003491-20211003-122538-000000087,220003491       ,2.4468759909,102.8343721781,24.9890975952,0.00000000,0.00000000,99.3420757040,34.848,-1.300,9.592,-0.639,2021-10-03,04:26:13.900262,1633235173,900262,0000,5A2F,1,1,3.408,GPS-3.0,5,0.265,0.297,0.577,0.895,1.408,0,2,10,4,0,0,3,,,,,,,,,,,0,000000,,,,,
003491-20211003-122538-000000088,220003491       ,2.4468705562,102.8344028184,25.2048625946,0.00000000,0.00000000,99.3471983459,35.636,-1.857,9.723,-0.616,2021-10-03,04:26:14.250090,1633235174,250090,0000,5A2F,1,1,3.457,GPS-3.0,5,0.265,0.297,0.577,0.836,1.362,0,2,10,4,0,0,3,,,,,,,,,,,0,000000,,,,,
003491-20211003-122538-000000089,220003491       ,2.4468650224,102.8344334324,25.5216255188,0.00000000,0.00000000,99.1608024835,35.407,-1.514,9.718,-0.952,2021-10-03,04:26:14.600002,1633235174,600002,0000,5A2F,1,1,3.456,GPS-3.0,5,0.265,0.297,0.577,0.836,1.362,0,2,10,4,0,0,3,,,,,,,,,,,0,000000,,,,,
003491-20211003-122538-000000090,220003491       ,2.4468609044,102.8344603932,25.7159099579,0.00000000,0.00000000,98.7564894355,35.983,-1.647,9.859,-0.643,2021-10-03,04:26:14.900017,1633235174,900017,0000,5A2F,1,1,3.030,GPS-3.0,5,0.265,0.297,0.577,0.836,1.362,0,2,10,4,0,0,3,,,,,,,,,,,0,000000,,,,,
003491-20211003-122538-000000091,220003491       ,2.4468565666,102.8344906703,26.0121021271,0.00000000,0.00000000,98.4236474871,34.838,-1.366,9.580,-1.049,2021-10-03,04:26:15.250010,1633235175,250010,0000,5A2F,1,1,3.398,GPS-3.0,5,0.265,0.297,0.577,0.748,1.284,0,2,10,4,0,0,3,,,,,,,,,,,0,000000,,,,,
003491-20211003-122538-000000092,220003491       ,2.4468521452,102.8345207526,26.3404254913,0.00000000,0.00000000,98.2253739257,34.195,-1.331,9.405,-0.893,2021-10-03,04:26:15.600003,1633235175,600003,0000,5A2F,1,1,3.378,GPS-3.0,5,0.265,0.297,0.577,0.883,1.380,0,2,10,4,0,0,3,,,,,,,,,,,0,000000,,,,,
003491-20211003-122538-000000093,220003491       ,2.4468480315,102.8345504457,26.7843647003,0.00000000,0.00000000,98.1064330115,33.387,-1.442,9.161,-1.034,2021-10-03,04:26:15.950001,1633235175,950001,0000,5A2F,1,1,3.330,GPS-3.0,5,0.265,0.297,0.577,0.883,1.380,0,2,10,4,0,0,3,,,,,,,,,,,0,000000,,,,,
003491-20211003-122538-000000094,220003491       ,2.4468442773,102.8345796530,27.2864761353,0.00000000,0.00000000,97.1636346796,33.195,-1.346,9.122,-1.087,2021-10-03,04:26:16.300103,1633235176,300103,0000,5A2F,1,1,3.271,GPS-3.0,5,0.265,0.297,0.578,0.895,1.408,0,2,10,4,0,0,3,,,,,,,,,,,0,000000,,,,,
003491-20211003-122538-000000095,220003491       ,2.4468412113,102.8346086534,27.6824913025,0.00000000,0.00000000,96.5187555389,33.033,-1.192,9.098,-0.915,2021-10-03,04:26:16.650022,1633235176,650022,0000,5A2F,1,1,3.240,GPS-3.0,5,0.266,0.297,0.578,0.944,1.503,0,2,10,4,0,0,3,,,,,,,,,,,0,000000,,,,,
003491-20211003-122538-000000096,220003491       ,2.4468377447,102.8346364562,27.9471912384,0.00000000,0.00000000,96.6632755116,32.391,-1.063,8.935,-0.779,2021-10-03,04:26:17.000030,1633235177,000030,0000,5A2F,1,1,3.113,GPS-3.0,5,0.266,0.297,0.578,0.944,1.503,0,2,10,4,0,0,3,,,,,,,,,,,0,000000,,,,,
003491-20211003-122538-000000097,220003491       ,2.4468345473,102.8346643400,28.2734603882,0.00000000,0.00000000,96.9441943619,32.018,-1.097,8.826,-0.739,2021-10-03,04:26:17.350016,1633235177,350016,0000,5A2F,1,1,3.118,GPS-3.0,5,0.266,0.297,0.578,0.944,1.503,0,2,10,4,0,0,3,,,,,,,,,,,0,000000,,,,,
003491-20211003-122538-000000098,220003491       ,2.4468313520,102.8346924415,28.5983600616,0.00000000,0.00000000,97.7101317755,31.707,-1.022,8.748,-0.740,2021-10-03,04:26:17.700168,1633235177,700168,0000,5A2F,1,1,3.142,GPS-3.0,5,0.266,0.297,0.578,0.944,1.503,0,2,10,4,0,0,3,,,,,,,,,,,0,000000,,,,,
003491-20211003-122538-000000099,220003491       ,2.4468281378,102.8347203961,28.8560752869,0.00000000,0.00000000,99.3215441554,32.139,-1.399,8.817,-0.684,2021-10-03,04:26:18.049989,1633235178,049989,0000,5A2F,1,1,3.126,GPS-3.0,5,0.266,0.297,0.578,0.820,1.327,0,2,10,4,0,0,3,,,,,,,,,,,0,000000,,,,,
003491-20211003-122538-000000100,220003491       ,2.4468234743,102.8347476165,29.1330261230,0.00000000,0.00000000,100.9487615931,31.693,-1.691,8.640,-0.617,2021-10-03,04:26:18.400003,1633235178,400003,0000,5A2F,1,1,3.068,GPS-3.0,5,0.266,0.297,0.578,0.884,1.414,0,2,10,4,0,0,3,,,,,,,,,,,0,000000,,,,,
003491-20211003-122538-000000101,220003491       ,2.4468178389,102.8347750586,29.4098320007,0.00000000,0.00000000,102.4962843835,32.125,-1.847,8.730,-0.539,2021-10-03,04:26:18.750016,1633235178,750016,0000,5A2F,1,1,3.112,GPS-3.0,5,0.267,0.297,0.578,0.835,1.409,0,2,10,4,0,0,3,,,,,,,,,,,0,000000,,,,,
003491-20211003-122538-000000102,220003491       ,2.4468109228,102.8348023980,29.7222080231,0.00000000,0.00000000,103.6648819392,32.258,-2.370,8.642,-0.455,2021-10-03,04:26:19.100261,1633235179,100261,0000,5A2F,1,1,3.133,GPS-3.0,5,0.267,0.297,0.578,0.915,1.465,0,2,10,4,0,0,3,,,,,,,,,,,0,000000,,,,,
003491-20211003-122538-000000103,220003491       ,2.4468038948,102.8348292553,29.9992446899,0.00000000,0.00000000,104.6018404593,32.014,-2.038,8.656,-0.568,2021-10-03,04:26:19.450039,1633235179,450039,0000,5A2F,1,1,3.084,GPS-3.0,5,0.267,0.297,0.578,0.895,1.408,0,2,10,4,0,0,4,,,,,,,,,,,0,000000,,,,,
003491-20211003-122538-000000104,220003491       ,2.4467963169,102.8348563103,30.2203330994,0.00000000,0.00000000,105.5089988641,31.898,-2.472,8.509,-0.416,2021-10-03,04:26:19.800006,1633235179,800006,0000,5A2F,1,1,3.122,GPS-3.0,5,0.266,0.297,0.578,0.920,1.418,0,2,10,4,0,0,4,,,,,,,,,,,0,000000,,,,,
003491-20211003-122538-000000105,220003491       ,2.4467879506,102.8348837233,30.4685382843,0.00000000,0.00000000,106.4846025946,32.112,-2.533,8.553,-0.409,2021-10-03,04:26:20.150006,1633235180,150006,0000,5A2F,1,1,3.184,GPS-3.0,5,0.266,0.296,0.578,0.895,1.408,0,2,10,4,0,0,4,,,,,,,,,,,0,000000,,,,,
003491-20211003-122538-000000106,220003491       ,2.4467792046,102.8349104049,30.6455287933,0.00000000,0.00000000,107.4777052697,32.305,-2.819,8.519,-0.346,2021-10-03,04:26:20.500064,1633235180,500064,0000,5A2F,1,1,3.120,GPS-3.0,5,0.266,0.296,0.577,0.895,1.408,0,2,10,4,0,0,4,,,,,,,,,,,0,000000,,,,,
003491-20211003-122538-000000107,220003491       ,2.4467704995,102.8349371214,30.8014831543,0.00000000,0.00000000,108.4566899438,32.321,-2.887,8.501,-0.299,2021-10-03,04:26:20.850121,1633235180,850121,0000,5A2F,1,1,3.122,GPS-3.0,5,0.266,0.296,0.577,1.032,1.504,0,2,10,4,0,0,4,,,,,,,,,,,0,000000,,,,,
003491-20211003-122538-000000108,220003491       ,2.4467613222,102.8349636015,30.9395027161,0.00000000,0.00000000,109.6700047480,32.268,-2.880,8.488,-0.275,2021-10-03,04:26:21.199996,1633235181,199996,0000,5A2F,1,1,3.114,GPS-3.0,5,0.266,0.296,0.577,0.883,1.379,0,2,11,4,0,0,4,,,,,,,,,,,0,000000,,,,,
003491-20211003-122538-000000109,220003491       ,2.4467517228,102.8349902528,31.0228538513,0.00000000,0.00000000,111.0748995282,32.600,-3.314,8.427,-0.203,2021-10-03,04:26:21.549996,1633235181,549996,0000,5A2F,1,1,3.147,GPS-3.0,5,0.266,0.296,0.577,0.860,1.343,0,2,11,4,0,0,4,,,,,,,,,,,0,000000,,,,,
003491-20211003-122538-000000110,220003491       ,2.4467414213,102.8350169586,31.0729980469,0.00000000,0.00000000,112.4783804592,32.975,-3.514,8.459,-0.106,2021-10-03,04:26:21.899994,1633235181,899994,0000,5A2F,1,1,3.180,GPS-3.0,5,0.267,0.296,0.578,0.944,1.502,0,2,11,4,0,0,4,,,,,,,,,,,0,000000,,,,,
003491-20211003-122538-000000111,220003491       ,2.4467297161,102.8350437108,31.1807861328,0.00000000,0.00000000,114.1443933714,33.367,-3.859,8.427,-0.024,2021-10-03,04:26:22.250205,1633235182,250205,0000,5A2F,1,1,3.245,GPS-3.0,5,0.267,0.296,0.577,0.944,1.502,0,2,11,4,0,0,4,,,,,,,,,,,0,000000,,,,,
003491-20211003-122538-000000112,220003491       ,2.4467177062,102.8350703018,31.1578350067,0.00000000,0.00000000,115.8955650821,33.348,-4.042,8.335,0.137,2021-10-03,04:26:22.600029,1633235182,600029,0000,5A2F,1,1,3.242,GPS-3.0,5,0.267,0.295,0.577,0.944,1.502,0,2,11,4,0,0,4,,,,,,,,,,,0,000000,,,,,
003491-20211003-122538-000000113,220003491       ,2.4467037955,102.8350962016,31.1701278687,0.00000000,0.00000000,117.5120932737,33.229,-4.204,8.217,0.187,2021-10-03,04:26:22.950011,1633235182,950011,0000,5A2F,1,1,3.267,GPS-3.0,5,0.267,0.295,0.577,0.944,1.502,0,2,11,4,0,0,4,,,,,,,,,,,0,000000,,,,,
003491-20211003-122538-000000114,220003491       ,2.4466897192,102.8351219728,31.1748256683,0.00000000,0.00000000,118.7350249843,33.166,-4.414,8.086,0.235,2021-10-03,04:26:23.300001,1633235183,300001,0000,5A2F,1,1,3.263,GPS-3.0,5,0.266,0.295,0.577,0.944,1.502,0,2,11,4,0,0,4,,,,,,,,,,,0,000000,,,,,
003491-20211003-122538-000000115,220003491       ,2.4466750689,102.8351472930,31.1212406158,0.00000000,0.00000000,119.4804445095,33.041,-4.503,7.997,0.275,2021-10-03,04:26:23.650288,1633235183,650288,0000,5A2F,1,1,3.251,GPS-3.0,5,0.266,0.295,0.577,0.944,1.502,0,2,11,4,0,0,4,,,,,,,,,,,0,000000,,,,,
003491-20211003-122538-000000116,220003491       ,2.4466603583,102.8351724164,31.0767078400,0.00000000,0.00000000,119.9726962430,33.228,-4.617,7.993,0.315,2021-10-03,04:26:24.000056,1633235184,000056,0000,5A2F,1,1,3.235,GPS-3.0,5,0.265,0.294,0.576,0.944,1.502,0,2,11,4,0,0,4,,,,,,,,,,,0,000000,,,,,
003491-20211003-122538-000000117,220003491       ,2.4466454926,102.8351976975,31.0214004517,0.00000000,0.00000000,120.1744463707,33.867,-4.601,8.206,0.273,2021-10-03,04:26:24.350012,1633235184,350012,0000,5A2F,1,1,3.259,GPS-3.0,5,0.265,0.294,0.576,0.920,1.417,0,2,11,4,0,0,4,,,,,,,,,,,0,000000,,,,,
003491-20211003-122538-000000118,220003491       ,2.4466302021,102.8352235395,30.9985103607,0.00000000,0.00000000,119.8754753304,34.582,-4.965,8.223,0.249,2021-10-03,04:26:24.700028,1633235184,700028,0000,5A2F,1,1,3.337,GPS-3.0,5,0.264,0.294,0.576,0.944,1.501,0,2,11,4,0,0,4,,,,,,,,,,,0,000000,,,,,
003491-20211003-122538-000000119,220003491       ,2.4466150097,102.8352500550,31.0034713745,0.00000000,0.00000000,119.3612713689,34.714,-4.745,8.394,0.240,2021-10-03,04:26:25.050039,1633235185,050039,0000,5A2F,1,1,3.396,GPS-3.0,5,0.264,0.293,0.575,0.944,1.501,0,2,11,4,0,0,4,,,,,,,,,,,0,000000,,,,,
003491-20211003-122538-000000120,220003491       ,2.4465998098,102.8352769282,31.0005035400,0.00000000,0.00000000,118.6589230165,34.880,-4.526,8.567,0.346,2021-10-03,04:26:25.400133,1633235185,400133,0000,5A2F,1,1,3.431,GPS-3.0,5,0.263,0.293,0.575,0.895,1.407,0,2,11,4,0,0,4,,,,,,,,,,,0,000000,,,,,
003491-20211003-122538-000000121,220003491       ,2.4465849331,102.8353041366,30.8988418579,0.00000000,0.00000000,117.8781094510,35.220,-4.545,8.664,0.580,2021-10-03,04:26:25.749996,1633235185,749996,0000,5A2F,1,1,3.446,GPS-3.0,5,0.263,0.293,0.575,0.944,1.501,0,2,11,4,0,0,4,,,,,,,,,,,0,000000,,,,,
003491-20211003-122538-000000122,220003491       ,2.4465705021,102.8353314897,30.7143115997,0.00000000,0.00000000,116.8436363201,35.079,-4.368,8.710,0.794,2021-10-03,04:26:26.099999,1633235186,099999,0000,5A2F,1,1,3.436,GPS-3.0,5,0.262,0.292,0.574,0.944,1.501,0,2,11,4,0,0,4,,,,,,,,,,,0,000000,,,,,
003491-20211003-122538-000000123,220003491       ,2.4465565685,102.8353589537,30.5303440094,0.00000000,0.00000000,115.6414820450,34.887,-4.198,8.734,0.754,2021-10-03,04:26:26.449995,1633235186,449995,0000,5A2F,1,1,3.422,GPS-3.0,5,0.262,0.292,0.574,0.944,1.501,0,2,11,4,0,0,4,,,,,,,,,,,0,000000,,,,,
003491-20211003-122538-000000124,220003491       ,2.4465435449,102.8353863877,30.3946533203,0.00000000,0.00000000,114.1701841657,34.525,-4.171,8.635,0.652,2021-10-03,04:26:26.800210,1633235186,800210,0000,5A2F,1,1,3.374,GPS-3.0,5,0.262,0.292,0.573,0.883,1.378,0,2,11,4,0,0,4,,,,,,,,,,,0,000000,,,,,
003491-20211003-122538-000000125,220003491       ,2.4465312919,102.8354134986,30.2547626495,0.00000000,0.00000000,112.3591390167,33.332,-3.518,8.564,0.600,2021-10-03,04:26:27.149995,1633235187,149995,0000,5A2F,1,1,3.306,GPS-3.0,5,0.262,0.292,0.573,0.883,1.378,0,2,11,4,0,0,4,,,,,,,,,,,0,000000,,,,,
003491-20211003-122538-000000126,220003491       ,2.4465207123,102.8354402625,30.0863304138,0.00000000,0.00000000,110.4651890316,32.598,-3.232,8.458,0.618,2021-10-03,04:26:27.500019,1633235187,500019,0000,5A2F,1,1,3.198,GPS-3.0,5,0.262,0.291,0.573,0.883,1.378,0,2,11,4,0,0,4,,,,,,,,,,,0,000000,,,,,
003491-20211003-122538-000000127,220003491       ,2.4465114636,102.8354668311,29.9206638336,0.00000000,0.00000000,108.4887576820,32.202,-2.691,8.531,0.626,2021-10-03,04:26:27.849995,1633235187,849995,0000,5A2F,1,1,3.126,GPS-3.0,5,0.262,0.291,0.572,0.883,1.378,0,2,11,4,0,0,4,,,,,,,,,,,0,000000,,,,,
003491-20211003-122538-000000128,220003491       ,2.4465028713,102.8354938160,29.7892704010,0.00000000,0.00000000,106.0453599593,32.469,-2.393,8.696,0.609,2021-10-03,04:26:28.200273,1633235188,200273,0000,5A2F,1,1,3.146,GPS-3.0,5,0.262,0.291,0.572,0.883,1.378,0,2,11,4,0,0,4,,,,,,,,,,,0,000000,,,,,
003491-20211003-122538-000000129,220003491       ,2.4464956876,102.8355212593,29.6641216278,0.00000000,0.00000000,102.4384600020,32.405,-1.708,8.838,0.514,2021-10-03,04:26:28.550041,1633235188,550041,0000,5A2F,1,1,3.152,GPS-3.0,5,0.262,0.290,0.572,0.883,1.378,0,2,11,4,0,0,4,,,,,,,,,,,0,000000,,,,,
003491-20211003-122538-000000130,220003491       ,2.4464914143,102.8355493542,29.5666732788,0.00000000,0.00000000,98.3251424989,32.516,-1.172,8.956,0.365,2021-10-03,04:26:28.899999,1633235188,899999,0000,5A2F,1,1,3.157,GPS-3.0,5,0.262,0.290,0.572,0.883,1.378,0,2,11,4,0,0,4,,,,,,,,,,,0,000000,,,,,
003491-20211003-122538-000000131,220003491       ,2.4464890985,102.8355773849,29.5433673859,0.00000000,0.00000000,93.9574346002,31.678,-0.545,8.783,0.235,2021-10-03,04:26:29.249996,1633235189,249996,0000,5A2F,1,1,3.125,GPS-3.0,5,0.262,0.290,0.571,0.883,1.378,0,2,11,4,0,0,4,,,,,,,,,,,0,000000,,,,,
003491-20211003-122538-000000132,220003491       ,2.4464886974,102.8356045018,29.5064907074,0.00000000,0.00000000,89.6006003626,30.315,0.072,8.421,0.122,2021-10-03,04:26:29.600002,1633235189,600002,0000,5A2F,1,1,3.013,GPS-3.0,5,0.262,0.290,0.571,0.820,1.326,0,2,11,4,0,0,4,,,,,,,,,,,0,000000,,,,,
003491-20211003-122538-000000133,220003491       ,2.4464910684,102.8356338234,29.5677680969,0.00000000,0.00000000,84.6970436329,28.301,0.987,7.799,0.014,2021-10-03,04:26:30.000012,1633235190,000012,0000,5A2F,1,1,3.268,GPS-3.0,5,0.262,0.290,0.570,0.820,1.326,0,2,11,4,0,0,4,,,,,,,,,,,0,000000,,,,,
003491-20211003-122538-000000134,220003491       ,2.4464948825,102.8356626810,29.7415351868,0.00000000,0.00000000,80.4955005763,28.155,1.409,7.693,-0.091,2021-10-03,04:26:30.400043,1633235190,400043,0000,5A2F,1,1,3.234,GPS-3.0,5,0.261,0.290,0.570,0.883,1.378,0,2,11,4,0,0,4,,,,,,,,,,,0,000000,,,,,
003491-20211003-122538-000000135,220003491       ,2.4465010490,102.8356892534,29.7794647217,0.00000000,0.00000000,77.1253896171,27.799,1.892,7.487,-0.073,2021-10-03,04:26:30.800017,1633235190,800017,0000,5A2F,1,1,3.031,GPS-3.0,5,0.261,0.290,0.570,0.883,1.378,0,2,11,4,0,0,4,,,,,,,,,,,0,000000,,,,,
003491-20211003-122538-000000136,220003491       ,2.4465085503,102.8357153595,29.8010139465,0.00000000,0.00000000,74.1501318939,27.442,2.262,7.279,-0.008,2021-10-03,04:26:31.200002,1633235191,200002,0000,5A2F,1,1,3.018,GPS-3.0,5,0.261,0.289,0.569,0.820,1.326,0,2,11,4,0,0,3,,,,,,,,,,,0,000000,,,,,
003491-20211003-122538-000000137,220003491       ,2.4465168824,102.8357411411,29.8260192871,0.00000000,0.00000000,72.1105622757,27.408,2.570,7.167,-0.007,2021-10-03,04:26:31.600002,1633235191,600002,0000,5A2F,1,1,3.010,GPS-3.0,5,0.260,0.289,0.569,0.820,1.326,0,2,11,4,0,0,3,,,,,,,,,,,0,000000,,,,,
003491-20211003-122538-000000138,220003491       ,2.4465259641,102.8357668460,29.8540802002,0.00000000,0.00000000,70.3191607507,27.478,2.756,7.118,0.005,2021-10-03,04:26:32.000217,1633235192,000217,0000,5A2F,1,1,3.029,GPS-3.0,5,0.259,0.289,0.568,0.820,1.326,0,2,11,4,0,0,3,,,,,,,,,,,0,000000,,,,,
003491-20211003-122538-000000139,220003491       ,2.4465358058,102.8357924770,29.8680038452,0.00000000,0.00000000,68.9779096732,27.525,2.788,7.119,0.059,2021-10-03,04:26:32.400002,1633235192,400002,0000,5A2F,1,1,3.050,GPS-3.0,5,0.259,0.289,0.568,0.820,1.326,0,2,11,4,0,0,3,,,,,,,,,,,0,000000,,,,,
003491-20211003-122538-000000140,220003491       ,2.4465462666,102.8358178615,29.8763561249,0.00000000,0.00000000,67.9665430723,26.963,3.098,6.819,0.124,2021-10-03,04:26:32.800002,1633235192,800002,0000,5A2F,1,1,3.051,GPS-3.0,5,0.258,0.288,0.567,0.820,1.326,0,2,11,4,0,0,3,,,,,,,,,,,0,000000,,,,,
003491-20211003-122538-000000141,220003491       ,2.4465568258,102.8358430101,29.8649024963,0.00000000,0.00000000,67.4109413342,27.229,2.900,6.985,0.224,2021-10-03,04:26:33.200152,1633235193,200152,0000,5A2F,1,1,3.031,GPS-3.0,5,0.258,0.288,0.566,0.749,1.283,0,2,11,4,0,0,3,,,,,,,,,,,0,000000,,,,,
003491-20211003-122538-000000142,220003491       ,2.4465671379,102.8358681976,29.8042011261,0.00000000,0.00000000,67.1756549777,27.220,2.796,7.025,0.358,2021-10-03,04:26:33.600002,1633235193,600002,0000,5A2F,1,1,3.024,GPS-3.0,5,0.258,0.288,0.566,0.749,1.283,0,2,11,4,0,0,3,,,,,,,,,,,0,000000,,,,,
003491-20211003-122538-000000143,220003491       ,2.4465776713,102.8358937767,29.7157001495,0.00000000,0.00000000,67.2811335890,28.256,2.941,7.277,0.399,2021-10-03,04:26:34.000010,1633235194,000010,0000,5A2F,1,1,3.074,GPS-3.0,5,0.257,0.288,0.565,0.749,1.283,0,2,11,4,0,0,3,,,,,,,,,,,0,000000,,,,,
003491-20211003-122538-000000144,220003491       ,2.4465885285,102.8359204381,29.6443347931,0.00000000,0.00000000,67.7271312815,29.583,3.149,7.590,0.358,2021-10-03,04:26:34.400066,1633235194,400066,0000,5A2F,1,1,3.198,GPS-3.0,5,0.257,0.288,0.564,0.749,1.283,0,2,11,4,0,0,3,,,,,,,,,,,0,000000,,,,,
003491-20211003-122538-000000145,220003491       ,2.4465998923,102.8359484069,29.5879421234,0.00000000,0.00000000,68.0335608884,30.637,3.218,7.878,0.310,2021-10-03,04:26:34.800002,1633235194,800002,0000,5A2F,1,1,3.354,GPS-3.0,5,0.256,0.287,0.563,0.749,1.283,0,2,11,4,0,0,3,,,,,,,,,,,0,000000,,,,,
003491-20211003-122538-000000146,220003491       ,2.4466102869,102.8359740994,29.5673656464,0.00000000,0.00000000,68.1344291221,31.969,3.328,8.233,0.219,2021-10-03,04:26:35.150141,1633235195,150141,0000,5A2F,1,1,3.079,GPS-3.0,5,0.256,0.287,0.562,0.749,1.283,0,2,11,4,0,0,3,,,,,,,,,,,0,000000,,,,,
003491-20211003-122538-000000147,220003491       ,2.4466210284,102.8360005607,29.5755195618,0.00000000,0.00000000,68.2065695801,32.734,3.375,8.443,0.140,2021-10-03,04:26:35.500000,1633235195,500000,0000,5A2F,1,1,3.173,GPS-3.0,5,0.255,0.287,0.562,0.749,1.283,0,2,11,4,0,0,4,,,,,,,,,,,0,000000,,,,,
003491-20211003-122538-000000148,220003491       ,2.4466320456,102.8360278509,29.6193923950,0.00000000,0.00000000,68.2410483750,33.977,3.487,8.770,0.006,2021-10-03,04:26:35.849996,1633235195,849996,0000,5A2F,1,1,3.270,GPS-3.0,5,0.254,0.286,0.561,0.749,1.283,0,2,11,4,0,0,4,,,,,,,,,,,0,000000,,,,,
003491-20211003-122538-000000149,220003491       ,2.4466435778,102.8360558820,29.6928825378,0.00000000,0.00000000,68.1968433907,34.659,3.624,8.919,-0.022,2021-10-03,04:26:36.200002,1633235196,200002,0000,5A2F,1,1,3.368,GPS-3.0,5,0.254,0.286,0.560,0.770,1.299,0,2,11,4,0,0,4,,,,,,,,,,,0,000000,,,,,
003491-20211003-122538-000000150,220003491       ,2.4466554460,102.8360846957,29.7744216919,0.00000000,0.00000000,68.1469351984,35.926,3.683,9.275,-0.065,2021-10-03,04:26:36.550235,1633235196,550235,0000,5A2F,1,1,3.462,GPS-3.0,5,0.253,0.285,0.559,0.749,1.283,0,2,11,4,0,0,4,,,,,,,,,,,0,000000,,,,,
003491-20211003-122538-000000151,220003491       ,2.4466656515,102.8361100631,29.8282184601,0.00000000,0.00000000,68.0901011943,36.843,3.730,9.530,0.102,2021-10-03,04:26:36.849996,1633235196,849996,0000,5A2F,1,1,3.038,GPS-3.0,5,0.252,0.285,0.558,0.749,1.282,0,2,11,4,0,0,4,,,,,,,,,,,0,000000,,,,,
003491-20211003-122538-000000152,220003491       ,2.4466758603,102.8361364147,29.7838039398,0.00000000,0.00000000,67.9617619398,37.821,3.573,9.880,0.403,2021-10-03,04:26:37.149996,1633235197,149996,0000,5A2F,1,1,3.140,GPS-3.0,5,0.251,0.284,0.557,0.749,1.282,0,2,11,4,0,0,4,,,,,,,,,,,0,000000,,,,,
003491-20211003-122538-000000153,220003491       ,2.4466862879,102.8361631630,29.6553764343,0.00000000,0.00000000,67.6814304857,38.037,3.881,9.827,0.667,2021-10-03,04:26:37.449997,1633235197,449997,0000,5A2F,1,1,3.190,GPS-3.0,5,0.251,0.284,0.556,0.749,1.282,0,2,11,4,0,0,4,,,,,,,,,,,0,000000,,,,,
003491-20211003-122538-000000154,220003491       ,2.4466972385,102.8361898113,29.4986515045,0.00000000,0.00000000,67.5274165501,38.377,3.857,9.938,0.721,2021-10-03,04:26:37.750159,1633235197,750159,0000,5A2F,1,1,3.201,GPS-3.0,5,0.250,0.284,0.555,0.749,1.282,0,2,11,4,0,0,4,,,,,,,,,,,0,000000,,,,,
003491-20211003-122538-000000155,220003491       ,2.4467083623,102.8362164445,29.3395595551,0.00000000,0.00000000,67.5515066273,38.147,4.234,9.714,0.661,2021-10-03,04:26:38.049995,1633235198,049995,0000,5A2F,1,1,3.207,GPS-3.0,5,0.249,0.283,0.555,0.749,1.282,0,2,11,4,0,0,4,,,,,,,,,,,0,000000,,,,,
003491-20211003-122538-000000156,220003491       ,2.4467196535,102.8362432159,29.2196063995,0.00000000,0.00000000,67.6805289008,39.158,4.295,9.993,0.465,2021-10-03,04:26:38.349995,1633235198,349995,0000,5A2F,1,1,3.228,GPS-3.0,5,0.249,0.283,0.554,0.749,1.282,0,2,11,4,0,0,4,,,,,,,,,,,0,000000,,,,,
003491-20211003-122538-000000157,220003491       ,2.4467311173,102.8362705782,29.1804485321,0.00000000,0.00000000,67.7928240409,39.994,4.147,10.306,0.234,2021-10-03,04:26:38.649995,1633235198,649995,0000,5A2F,1,1,3.296,GPS-3.0,5,0.249,0.283,0.554,0.749,1.282,0,2,11,4,0,0,4,,,,,,,,,,,0,000000,,,,,
003491-20211003-122538-000000158,220003491       ,2.4467426363,102.8362985016,29.1380119324,0.00000000,0.00000000,67.8835972550,40.347,4.207,10.388,0.146,2021-10-03,04:26:38.950084,1633235198,950084,0000,5A2F,1,1,3.356,GPS-3.0,5,0.249,0.283,0.554,0.749,1.282,0,2,11,4,0,0,4,,,,,,,,,,,0,000000,,,,,
003491-20211003-122538-000000159,220003491       ,2.4467543294,102.8363272361,29.3878059387,0.00000000,0.00000000,67.9811596771,41.222,4.351,10.592,-0.059,2021-10-03,04:26:39.250037,1633235199,250037,0000,5A2F,1,1,3.447,GPS-3.0,5,0.247,0.280,0.549,0.749,1.282,0,2,11,4,0,0,3,,,,,,,,,,,0,000000,,,,,
003491-20211003-122538-000000160,220003491       ,2.4467662095,102.8363561570,29.4833698273,0.00000000,0.00000000,68.0670561361,41.776,4.253,10.797,-0.117,2021-10-03,04:26:39.549995,1633235199,549995,0000,5A2F,1,1,3.474,GPS-3.0,5,0.246,0.280,0.549,0.749,1.282,0,2,11,4,0,0,3,,,,,,,,,,,0,000000,,,,,
003491-20211003-122538-000000161,220003491       ,2.4467780787,102.8363853300,29.5781917572,0.00000000,0.00000000,68.0846507034,41.925,4.319,10.815,-0.162,2021-10-03,04:26:39.849995,1633235199,849995,0000,5A2F,1,1,3.499,GPS-3.0,5,0.246,0.280,0.548,0.749,1.282,0,2,11,4,0,0,3,,,,,,,,,,,0,000000,,,,,
003491-20211003-122538-000000162,220003491       ,2.4467898910,102.8364145042,29.6709995270,0.00000000,0.00000000,67.8930229160,41.515,4.346,10.682,-0.140,2021-10-03,04:26:40.150003,1633235200,150003,0000,5A2F,1,1,3.497,GPS-3.0,5,0.245,0.279,0.548,0.749,1.282,0,2,11,4,0,0,3,,,,,,,,,,,0,000000,,,,,
003491-20211003-122538-000000163,220003491       ,2.4468018325,102.8364433383,29.7761268616,0.00000000,0.00000000,67.4577691112,41.123,4.507,10.496,-0.144,2021-10-03,04:26:40.450243,1633235200,450243,0000,5A2F,1,1,3.468,GPS-3.0,5,0.245,0.279,0.547,0.749,1.282,0,2,11,4,0,0,3,,,,,,,,,,,0,000000,,,,,
003491-20211003-122538-000000164,220003491       ,2.4468140790,102.8364715810,29.8879623413,0.00000000,0.00000000,66.7957735164,40.511,4.524,10.304,-0.204,2021-10-03,04:26:40.749995,1633235200,749995,0000,5A2F,1,1,3.420,GPS-3.0,5,0.244,0.279,0.546,0.749,1.282,0,2,11,4,0,0,3,,,,,,,,,,,0,000000,,,,,
003491-20211003-122538-000000165,220003491       ,2.4468264432,102.8364993882,30.0341911316,0.00000000,0.00000000,66.0719852003,40.380,4.579,10.239,-0.289,2021-10-03,04:26:41.049995,1633235201,049995,0000,5A2F,1,1,3.381,GPS-3.0,5,0.244,0.278,0.545,0.749,1.282,0,2,11,4,0,0,3,,,,,,,,,,,0,000000,,,,,
003491-20211003-122538-000000166,220003491       ,2.4468390149,102.8365267702,30.1218643188,0.00000000,0.00000000,65.3099409946,39.986,4.597,10.111,-0.210,2021-10-03,04:26:41.349995,1633235201,349995,0000,5A2F,1,1,3.348,GPS-3.0,5,0.243,0.278,0.545,0.749,1.282,0,2,11,4,0,0,4,,,,,,,,,,,0,000000,,,,,
003491-20211003-122538-000000167,220003491       ,2.4468517453,102.8365537436,30.2220611572,0.00000000,0.00000000,64.5498570532,39.565,4.848,9.863,-0.131,2021-10-03,04:26:41.650174,1633235201,650174,0000,5A2F,1,1,3.314,GPS-3.0,5,0.243,0.278,0.544,0.749,1.282,0,2,11,4,0,0,4,,,,,,,,,,,0,000000,,,,,
003491-20211003-122538-000000168,220003491       ,2.4468646947,102.8365801926,30.2973384857,0.00000000,0.00000000,63.8206319064,39.355,4.848,9.799,0.000,2021-10-03,04:26:41.949995,1633235201,949995,0000,5A2F,1,1,3.272,GPS-3.0,5,0.243,0.277,0.543,0.749,1.282,0,2,11,4,0,0,4,,,,,,,,,,,0,000000,,,,,
003491-20211003-122538-000000169,220003491       ,2.4468779336,102.8366063034,30.3680534363,0.00000000,0.00000000,63.1016930246,38.964,4.947,9.627,0.130,2021-10-03,04:26:42.249995,1633235202,249995,0000,5A2F,1,1,3.253,GPS-3.0,5,0.242,0.277,0.542,0.749,1.282,0,2,11,4,0,0,4,,,,,,,,,,,0,000000,,,,,
003491-20211003-122538-000000170,220003491       ,2.4468915757,102.8366321288,30.4075717926,0.00000000,0.00000000,62.4245412401,38.915,5.160,9.499,0.260,2021-10-03,04:26:42.549995,1633235202,549995,0000,5A2F,1,1,3.245,GPS-3.0,5,0.242,0.277,0.541,0.749,1.282,0,2,11,4,0,0,4,,,,,,,,,,,0,000000,,,,,
003491-20211003-122538-000000171,220003491       ,2.4469055609,102.8366576757,30.3759021759,0.00000000,0.00000000,61.7786034201,38.796,5.301,9.383,0.422,2021-10-03,04:26:42.850082,1633235202,850082,0000,5A2F,1,1,3.236,GPS-3.0,5,0.241,0.276,0.540,0.749,1.282,0,2,11,4,0,0,4,,,,,,,,,,,0,000000,,,,,
003491-20211003-122538-000000172,220003491       ,2.4469195564,102.8366829842,30.3247661591,0.00000000,0.00000000,61.2692898741,38.724,5.163,9.436,0.529,2021-10-03,04:26:43.150005,1633235203,150005,0000,5A2F,1,1,3.214,GPS-3.0,5,0.241,0.276,0.540,0.749,1.282,0,2,11,4,0,0,4,,,,,,,,,,,0,000000,,,,,
003491-20211003-122538-000000173,220003491       ,2.4469335657,102.8367084030,30.2647094727,0.00000000,0.00000000,61.0910424273,38.709,5.191,9.416,0.504,2021-10-03,04:26:43.449997,1633235203,449997,0000,5A2F,1,1,3.225,GPS-3.0,5,0.240,0.275,0.539,0.749,1.282,0,2,11,4,0,0,4,,,,,,,,,,,0,000000,,,,,
003491-20211003-122538-000000174,220003491       ,2.4469475779,102.8367338362,30.1879444122,0.00000000,0.00000000,61.1500074504,38.771,5.172,9.446,0.455,2021-10-03,04:26:43.749996,1633235203,749996,0000,5A2F,1,1,3.227,GPS-3.0,5,0.240,0.275,0.538,0.749,1.282,0,2,11,4,0,0,4,,,,,,,,,,,0,000000,,,,,
003491-20211003-122538-000000175,220003491       ,2.4469614689,102.8367592284,30.1386165619,0.00000000,0.00000000,61.4219787530,38.652,5.014,9.494,0.335,2021-10-03,04:26:44.050016,1633235204,050016,0000,5A2F,1,1,3.216,GPS-3.0,5,0.240,0.275,0.537,0.749,1.282,0,2,11,4,0,0,4,,,,,,,,,,,0,000000,,,,,
003491-20211003-122538-000000176,220003491       ,2.4469750950,102.8367848193,30.1237087250,0.00000000,0.00000000,61.9891918126,38.606,4.793,9.593,0.248,2021-10-03,04:26:44.350239,1633235204,350239,0000,5A2F,1,1,3.222,GPS-3.0,5,0.239,0.274,0.537,0.836,1.358,0,2,11,4,0,0,4,,,,,,,,,,,0,000000,,,,,
003491-20211003-122538-000000177,220003491       ,2.4469884903,102.8368103126,30.0944004059,0.00000000,0.00000000,62.8293050805,38.601,4.894,9.540,0.110,2021-10-03,04:26:44.649996,1633235204,649996,0000,5A2F,1,1,3.200,GPS-3.0,5,0.240,0.274,0.537,0.749,1.282,0,2,11,4,0,0,4,,,,,,,,,,,0,000000,,,,,
003491-20211003-122538-000000178,220003491       ,2.4470015991,102.8368360471,30.1703357697,0.00000000,0.00000000,63.8268063974,38.185,4.536,9.588,0.196,2021-10-03,04:26:44.949996,1633235204,949996,0000,5A2F,1,1,3.209,GPS-3.0,5,0.239,0.273,0.534,0.749,1.282,0,2,11,4,0,0,4,,,,,,,,,,,0,000000,,,,,
003491-20211003-122538-000000179,220003491       ,2.4470139520,102.8368621475,30.3437690735,0.00000000,0.00000000,64.9260160613,38.402,4.357,9.737,0.130,2021-10-03,04:26:45.249996,1633235205,249996,0000,5A2F,1,1,3.208,GPS-3.0,5,0.237,0.271,0.531,0.749,1.282,0,2,11,4,0,0,4,,,,,,,,,,,0,000000,,,,,
003491-20211003-122538-000000180,220003491       ,2.4470262165,102.8368880562,30.3492717743,0.00000000,0.00000000,65.9955827042,38.113,4.301,9.674,0.232,2021-10-03,04:26:45.550183,1633235205,550183,0000,5A2F,1,1,3.185,GPS-3.0,5,0.237,0.271,0.530,0.749,1.282,0,2,11,4,0,0,4,,,,,,,,,,,0,000000,,,,,
003491-20211003-122538-000000181,220003491       ,2.4470375317,102.8369139086,30.2980041504,0.00000000,0.00000000,67.0631481017,37.373,4.032,9.566,0.460,2021-10-03,04:26:45.849996,1633235205,849996,0000,5A2F,1,1,3.136,GPS-3.0,5,0.237,0.271,0.530,0.749,1.282,0,2,11,4,0,0,4,,,,,,,,,,,0,000000,,,,,
003491-20211003-122538-000000182,220003491       ,2.4470480885,102.8369396804,30.2067165375,0.00000000,0.00000000,68.1598101050,36.979,3.819,9.535,0.574,2021-10-03,04:26:46.149996,1633235206,149996,0000,5A2F,1,1,3.094,GPS-3.0,5,0.236,0.270,0.529,0.749,1.282,0,2,11,4,0,0,4,,,,,,,,,,,0,000000,,,,,
003491-20211003-122538-000000183,220003491       ,2.4470580151,102.8369653471,30.0953941345,0.00000000,0.00000000,69.5155548439,37.149,3.511,9.703,0.695,2021-10-03,04:26:46.449996,1633235206,449996,0000,5A2F,1,1,3.058,GPS-3.0,5,0.236,0.270,0.528,0.749,1.282,0,2,11,4,0,0,4,,,,,,,,,,,0,000000,,,,,
003491-20211003-122538-000000184,220003491       ,2.4470674655,102.8369915295,29.9307098389,0.00000000,0.00000000,71.0712533708,36.061,3.342,9.443,0.894,2021-10-03,04:26:46.750166,1633235206,750166,0000,5A2F,1,1,3.093,GPS-3.0,5,0.235,0.270,0.527,0.836,1.358,0,2,11,4,0,0,4,,,,,,,,,,,0,000000,,,,,
003491-20211003-122538-000000185,220003491       ,2.4470757761,102.8370174665,29.8300170898,0.00000000,0.00000000,72.7220008102,37.686,3.138,9.987,0.503,2021-10-03,04:26:47.050011,1633235207,050011,0000,5A2F,1,1,3.026,GPS-3.0,5,0.235,0.269,0.526,0.836,1.358,0,2,11,4,0,0,4,,,,,,,,,,,0,000000,,,,,
003491-20211003-122538-000000186,220003491       ,2.4470837010,102.8370446304,29.6862125397,0.00000000,0.00000000,74.3458509646,37.227,2.591,10.011,0.681,2021-10-03,04:26:47.349996,1633235207,349996,0000,5A2F,1,1,3.144,GPS-3.0,5,0.235,0.269,0.525,0.836,1.358,0,2,11,4,0,0,4,,,,,,,,,,,0,000000,,,,,
003491-20211003-122538-000000187,220003491       ,2.4470907810,102.8370715970,29.5982208252,0.00000000,0.00000000,76.0247456135,37.524,2.327,10.160,0.473,2021-10-03,04:26:47.649996,1633235207,649996,0000,5A2F,1,1,3.098,GPS-3.0,5,0.234,0.269,0.525,0.836,1.358,0,2,11,4,0,0,4,,,,,,,,,,,0,000000,,,,,
003491-20211003-122538-000000188,220003491       ,2.4470971677,102.8370989496,29.5110530853,0.00000000,0.00000000,77.7213031317,37.543,1.989,10.237,0.468,2021-10-03,04:26:47.950068,1633235207,950068,0000,5A2F,1,1,3.121,GPS-3.0,5,0.234,0.268,0.524,0.836,1.358,0,2,11,4,0,0,4,,,,,,,,,,,0,000000,,,,,
003491-20211003-122538-000000189,220003491       ,2.4471026758,102.8371266855,29.4131126404,0.00000000,0.00000000,79.2173262958,37.582,1.813,10.281,0.523,2021-10-03,04:26:48.250264,1633235208,250264,0000,5A2F,1,1,3.142,GPS-3.0,5,0.234,0.268,0.524,0.994,1.441,0,2,11,4,0,0,4,,,,,,,,,,,0,000000,,,,,
003491-20211003-122538-000000190,220003491       ,2.4471076431,102.8371544880,29.2930126190,0.00000000,0.00000000,80.1082971522,37.791,1.788,10.344,0.619,2021-10-03,04:26:48.549996,1633235208,549996,0000,5A2F,1,1,3.138,GPS-3.0,5,0.233,0.268,0.523,0.994,1.441,0,2,11,4,0,0,4,,,,,,,,,,,0,000000,,,,,
003491-20211003-122538-000000191,220003491       ,2.4471126049,102.8371825888,29.1481723785,0.00000000,0.00000000,80.7506559531,37.631,1.871,10.284,0.833,2021-10-03,04:26:48.849996,1633235208,849996,0000,5A2F,1,1,3.170,GPS-3.0,5,0.233,0.268,0.523,0.994,1.440,0,2,11,4,0,0,4,,,,,,,,,,,0,000000,,,,,
003491-20211003-122538-000000192,220003491       ,2.4471173443,102.8372102300,28.9072933197,0.00000000,0.00000000,80.9213492106,36.922,1.519,10.143,0.974,2021-10-03,04:26:49.149996,1633235209,149996,0000,5A2F,1,1,3.116,GPS-3.0,5,0.233,0.268,0.522,0.994,1.440,0,2,11,4,0,0,4,,,,,,,,,,,0,000000,,,,,
003491-20211003-122538-000000193,220003491       ,2.4471215846,102.8372372627,28.6820068359,0.00000000,0.00000000,80.9977653671,35.757,1.508,9.817,0.939,2021-10-03,04:26:49.450178,1633235209,450178,0000,5A2F,1,1,3.040,GPS-3.0,5,0.233,0.268,0.522,0.994,1.440,0,2,11,4,0,0,4,,,,,,,,,,,0,000000,,,,,
003491-20211003-122538-000000194,220003491       ,2.4471264143,102.8372680275,28.4462814331,0.00000000,0.00000000,80.7066012329,34.507,1.558,9.458,0.862,2021-10-03,04:26:49.800002,1633235209,800002,0000,5A2F,1,1,3.460,GPS-3.0,5,0.232,0.267,0.522,0.994,1.440,0,2,11,4,0,0,4,,,,,,,,,,,0,000000,,,,,
003491-20211003-122538-000000195,220003491       ,2.4471308525,102.8372971181,28.2517986298,0.00000000,0.00000000,80.4637811778,32.553,1.397,8.934,0.746,2021-10-03,04:26:50.149996,1633235210,149996,0000,5A2F,1,1,3.269,GPS-3.0,5,0.232,0.267,0.522,1.118,1.751,0,2,11,4,0,0,4,,,,,,,,,,,0,000000,,,,,
003491-20211003-122538-000000196,220003491       ,2.4471355884,102.8373241435,28.0453624725,0.00000000,0.00000000,79.9981398613,30.167,1.647,8.216,0.639,2021-10-03,04:26:50.499999,1633235210,499999,0000,5A2F,1,1,3.048,GPS-3.0,5,0.232,0.267,0.521,0.921,1.414,0,2,11,4,0,0,4,,,,,,,,,,,0,000000,,,,,
003491-20211003-122538-000000197,220003491       ,2.4471407584,102.8373520349,27.8392429352,0.00000000,0.00000000,79.4462537462,27.176,1.495,7.399,0.582,2021-10-03,04:26:50.899999,1633235210,899999,0000,5A2F,1,1,3.151,GPS-3.0,5,0.232,0.267,0.521,1.111,1.621,0,2,11,4,0,0,4,,,,,,,,,,,0,000000,,,,,
003491-20211003-122538-000000198,220003491       ,2.4471465272,102.8373799825,27.5881214142,0.00000000,0.00000000,78.6947758431,23.934,1.332,6.514,0.573,2021-10-03,04:26:51.349995,1633235211,349995,0000,5A2F,1,1,3.170,GPS-3.0,5,0.233,0.267,0.521,0.884,1.375,0,2,11,4,0,0,4,,,,,,,,,,,0,000000,,,,,
