#0:imgID,1:camSN,2:lat,3:lon,4:height,5:roll,6:pitch,7:heading,8:speed,9:speed_n,10:speed_e,11:speed_d,12:date,13:time,14:unix_time_sec,15:unix_time_microsec,16:systemStatus,17:filterStatus,18:haveFix,19:extVelocity,20:distancetoprevious,21:releaseMode,22:device_id,23:lat_dev,24:lon_dev,25:hei_dev,26:hdop,27:vdop,28:fs_10,29:gnss_fix_status,30:gps_sat,31:glonass_sat,32:beidu_sat,33:gal_sat,34:sbas_sat,35:custLog0,36:custLog1,37:custLog2,38:custLog3,39:custLog4,40:custLog5,41:custLog6,42:custLog7,43:custLog8,44:custLog9,45:unix_time_sec_fixed,46:unix_time_microsec_fixed,47:pnvgbss_field3,48:pnvgbss_field4,49:pnvgbss_field5,50:pnvgbss_field6,51:pnvgbss_field7
003491-20211003-112724-000000001,220003491       ,2.4007048321,102.8333091554,19.8746738434,0.00000000,0.00000000,39.9567022672,23.693,5.189,4.048,-0.058,2021-10-03,03:27:24.200018,1633231644,200018,0000,5A4F,1,1,0.000,GPS-3.0,5,0.143,0.128,0.303,0.733,1.355,0,4,9,4,0,0,4,,,,,,,,,,,0,000000,,,,,
003491-20211003-112724-000000002,220003491       ,2.4007259977,102.8333269379,19.9316444397,0.00000000,0.00000000,40.3179202366,24.376,5.140,4.408,-0.013,2021-10-03,03:27:24.650180,1633231644,650180,0000,5A4F,1,1,3.073,GPS-3.0,5,0.143,0.128,0.303,0.793,1.516,0,4,9,4,0,0,4,,,,,,,,,,,0,000000,,,,,
003491-20211003-112724-000000003,220003491       ,2.4007474261,102.8333453337,20.0202159882,0.00000000,0.00000000,40.5929617092,24.946,5.354,4.399,-0.067,2021-10-03,03:27:25.100032,1633231645,100032,0000,5A4F,1,1,3.139,GPS-3.0,5,0.143,0.128,0.303,0.733,1.355,0,4,9,4,0,0,4,,,,,,,,,,,0,000000,,,,,
003491-20211003-112724-000000004,220003491       ,2.4007691477,102.8333638592,20.1113777161,0.00000000,0.00000000,40.7801635339,25.283,5.463,4.414,-0.104,2021-10-03,03:27:25.549995,1633231645,549995,0000,5A4F,1,1,3.173,GPS-3.0,5,0.143,0.127,0.302,0.733,1.355,0,4,10,4,0,0,4,,,,,,,,,,,0,000000,,,,,
003491-20211003-112724-000000005,220003491       ,2.4007911921,102.8333826240,20.1749706268,0.00000000,0.00000000,40.7908937611,25.717,5.433,4.638,-0.064,2021-10-03,03:27:26.000009,1633231646,000009,0000,5A4F,1,1,3.218,GPS-3.0,5,0.144,0.127,0.302,0.733,1.355,0,4,10,4,0,0,4,,,,,,,,,,,0,000000,,,,,
003491-20211003-112724-000000006,220003491       ,2.4008134213,102.8334015125,20.2928714752,0.00000000,0.00000000,40.7448856069,25.831,5.572,4.520,-0.043,2021-10-03,03:27:26.449995,1633231646,449995,0000,5A4F,1,1,3.242,GPS-3.0,5,0.144,0.127,0.302,0.733,1.355,0,4,10,4,0,0,4,,,,,,,,,,,0,000000,,,,,
003491-20211003-112724-000000007,220003491       ,2.4008363345,102.8334204825,20.3329181671,0.00000000,0.00000000,40.5826549537,26.383,5.616,4.708,-0.013,2021-10-03,03:27:26.899999,1633231646,899999,0000,5A4F,1,1,3.307,GPS-3.0,5,0.144,0.127,0.302,0.733,1.354,0,4,10,4,0,0,4,,,,,,,,,,,0,000000,,,,,
003491-20211003-112724-000000008,220003491       ,2.4008588551,102.8334394948,20.3532180786,0.00000000,0.00000000,40.4495550574,26.045,5.594,4.588,-0.026,2021-10-03,03:27:27.350245,1633231647,350245,0000,5A4F,1,1,3.276,GPS-3.0,5,0.144,0.127,0.302,0.793,1.516,0,4,10,4,0,0,4,,,,,,,,,,,0,000000,,,,,
003491-20211003-112724-000000009,220003491       ,2.4008817316,102.8334580949,20.3045539856,0.00000000,0.00000000,40.1959842844,26.692,5.477,4.998,0.071,2021-10-03,03:27:27.800102,1633231647,800102,0000,5A4F,1,1,3.277,GPS-3.0,5,0.144,0.128,0.303,0.785,1.416,0,4,10,4,0,0,4,,,,,,,,,,,0,000000,,,,,
003491-20211003-112724-000000010,220003491       ,2.4009045941,102.8334767835,20.2477436066,0.00000000,0.00000000,40.0195024415,26.208,5.533,4.731,0.272,2021-10-03,03:27:28.249996,1633231648,249996,0000,5A4F,1,1,3.282,GPS-3.0,5,0.145,0.129,0.303,0.785,1.416,0,4,10,3,0,0,4,,,,,,,,,,,0,000000,,,,,
003491-20211003-112724-000000011,220003491       ,2.4009264924,102.8334954123,20.2194595337,0.00000000,0.00000000,40.2537198735,25.302,5.399,4.499,0.219,2021-10-03,03:27:28.700000,1633231648,700000,0000,5A4F,1,1,3.196,GPS-3.0,5,0.145,0.129,0.304,0.861,1.637,0,4,10,3,0,0,4,,,,,,,,,,,0,000000,,,,,
003491-20211003-112724-000000012,220003491       ,2.4009486214,102.8335144103,20.2014522552,0.00000000,0.00000000,40.3410506722,24.921,5.437,4.285,0.168,2021-10-03,03:27:29.149996,1633231649,149996,0000,5A4F,1,1,3.242,GPS-3.0,5,0.145,0.130,0.304,0.793,1.516,0,4,10,3,0,0,4,,,,,,,,,,,0,000000,,,,,
003491-20211003-112724-000000013,220003491       ,2.4009710847,102.8335335096,20.1358280182,0.00000000,0.00000000,40.4048309787,26.870,5.657,4.869,0.188,2021-10-03,03:27:29.600003,1633231649,600003,0000,5A4F,1,1,3.277,GPS-3.0,5,0.145,0.130,0.304,0.793,1.516,0,4,10,4,0,0,4,,,,,,,,,,,0,000000,,,,,
003491-20211003-112724-000000014,220003491       ,2.4009941227,102.8335525541,20.1503829956,0.00000000,0.00000000,40.6646991860,26.725,5.730,4.720,0.156,2021-10-03,03:27:30.050040,1633231650,050040,0000,5A4F,1,1,3.322,GPS-3.0,5,0.145,0.130,0.303,0.733,1.354,0,4,10,4,0,0,4,,,,,,,,,,,0,000000,,,,,
003491-20211003-112724-000000015,220003491       ,2.4010147059,102.8335705473,20.1088962555,0.00000000,0.00000000,41.3287506677,27.664,5.639,5.221,0.129,2021-10-03,03:27:30.449996,1633231650,449996,0000,5A4F,1,1,3.039,GPS-3.0,5,0.145,0.130,0.304,0.733,1.354,0,4,10,4,0,0,4,,,,,,,,,,,0,000000,,,,,
003491-20211003-112724-000000016,220003491       ,2.4010355231,102.8335887276,20.0913276672,0.00000000,0.00000000,41.9291516165,27.949,5.677,5.296,0.145,2021-10-03,03:27:30.849996,1633231650,849996,0000,5A4F,1,1,3.072,GPS-3.0,5,0.146,0.131,0.304,0.811,1.567,0,4,10,4,0,0,4,,,,,,,,,,,0,000000,,,,,
003491-20211003-112724-000000017,220003491       ,2.4010562239,102.8336073583,20.0607452393,0.00000000,0.00000000,42.7591937705,27.425,5.847,4.883,0.157,2021-10-03,03:27:31.250226,1633231651,250226,0000,5A4F,1,1,3.096,GPS-3.0,5,0.146,0.132,0.304,0.733,1.354,0,4,10,4,0,0,4,,,,,,,,,,,0,000000,,,,,
003491-20211003-112724-000000018,220003491       ,2.4010766917,102.8336261800,20.0177021027,0.00000000,0.00000000,43.0959494173,27.825,5.814,5.093,0.148,2021-10-03,03:27:31.649996,1633231651,649996,0000,5A4F,1,1,3.091,GPS-3.0,5,0.146,0.132,0.304,0.784,1.415,0,4,10,4,0,0,4,,,,,,,,,,,0,000000,,,,,
003491-20211003-112724-000000019,220003491       ,2.4010977888,102.8336450302,19.9275417328,0.00000000,0.00000000,43.0863973978,28.215,5.793,5.279,0.257,2021-10-03,03:27:32.049997,1633231652,049997,0000,5A4F,1,1,3.145,GPS-3.0,5,0.146,0.133,0.304,0.784,1.415,0,4,10,4,0,0,4,,,,,,,,,,,0,000000,,,,,
003491-20211003-112724-000000020,220003491       ,2.4011188261,102.8336642476,19.8540630341,0.00000000,0.00000000,43.2364464085,28.086,5.594,5.438,0.365,2021-10-03,03:27:32.450145,1633231652,450145,0000,5A4F,1,1,3.167,GPS-3.0,5,0.147,0.133,0.305,0.733,1.354,0,4,10,4,0,0,2,,,,,,,,,,,0,000000,,,,,
003491-20211003-112724-000000021,220003491       ,2.4011395565,102.8336834382,19.7963027954,0.00000000,0.00000000,43.3553429265,28.644,5.704,5.548,0.247,2021-10-03,03:27:32.849996,1633231652,849996,0000,5A4F,1,1,3.140,GPS-3.0,5,0.147,0.133,0.305,0.733,1.354,0,4,10,4,0,0,2,,,,,,,,,,,0,000000,,,,,
003491-20211003-112724-000000022,220003491       ,2.4011606380,102.8337030007,19.7915229797,0.00000000,0.00000000,43.3610461345,28.759,5.838,5.453,0.210,2021-10-03,03:27:33.249996,1633231653,249996,0000,5A4F,1,1,3.197,GPS-3.0,5,0.146,0.133,0.304,0.733,1.354,0,4,10,4,0,0,2,,,,,,,,,,,0,000000,,,,,
003491-20211003-112724-000000023,220003491       ,2.4011828703,102.8337225159,19.7459278107,0.00000000,0.00000000,42.8120082082,29.144,6.424,4.926,0.331,2021-10-03,03:27:33.650084,1633231653,650084,0000,5A4F,1,1,3.288,GPS-3.0,5,0.146,0.133,0.304,0.733,1.354,0,4,10,4,0,0,2,,,,,,,,,,,0,000000,,,,,
003491-20211003-112724-000000024,220003491       ,2.4012045220,102.8337416004,19.5978927612,0.00000000,0.00000000,42.2553956022,29.354,6.064,5.451,0.317,2021-10-03,03:27:34.049996,1633231654,049996,0000,5A4F,1,1,3.208,GPS-3.0,5,0.147,0.133,0.305,0.733,1.354,0,4,10,4,0,0,2,,,,,,,,,,,0,000000,,,,,
003491-20211003-112724-000000025,220003491       ,2.4012270273,102.8337612730,19.4507503510,0.00000000,0.00000000,41.6500222757,29.575,6.235,5.349,0.370,2021-10-03,03:27:34.449996,1633231654,449996,0000,5A4F,1,1,3.323,GPS-3.0,5,0.147,0.134,0.305,0.733,1.354,0,4,10,4,0,0,3,,,,,,,,,,,0,000000,,,,,
003491-20211003-112724-000000026,220003491       ,2.4012498178,102.8337813058,19.3485145569,0.00000000,0.00000000,41.1318431441,30.153,6.262,5.563,0.358,2021-10-03,03:27:34.849996,1633231654,849996,0000,5A4F,1,1,3.373,GPS-3.0,5,0.148,0.134,0.306,0.733,1.354,0,4,10,4,0,0,3,,,,,,,,,,,0,000000,,,,,
003491-20211003-112724-000000027,220003491       ,2.4012727080,102.8338009990,19.2880554199,0.00000000,0.00000000,40.5791305761,29.846,6.321,5.365,0.373,2021-10-03,03:27:35.250014,1633231655,250014,0000,5A4F,1,1,3.356,GPS-3.0,5,0.147,0.135,0.306,0.733,1.354,0,4,10,4,0,0,3,,,,,,,,,,,0,000000,,,,,
003491-20211003-112724-000000028,220003491       ,2.4012959242,102.8338209399,19.2033824921,0.00000000,0.00000000,40.1501161490,30.305,6.547,5.291,0.330,2021-10-03,03:27:35.649997,1633231655,649997,0000,5A4F,1,1,3.402,GPS-3.0,5,0.147,0.135,0.306,0.793,1.515,0,4,10,4,0,0,3,,,,,,,,,,,0,000000,,,,,
003491-20211003-112724-000000029,220003491       ,2.4013193647,102.8338408231,19.1406822205,0.00000000,0.00000000,39.6705617372,30.600,6.497,5.481,0.322,2021-10-03,03:27:36.049996,1633231656,049996,0000,5A4F,1,1,3.417,GPS-3.0,5,0.147,0.135,0.305,0.733,1.354,0,4,10,4,0,0,3,,,,,,,,,,,0,000000,,,,,
003491-20211003-112724-000000030,220003491       ,2.4013433285,102.8338602305,19.1101627350,0.00000000,0.00000000,39.0238282002,30.627,6.656,5.298,0.298,2021-10-03,03:27:36.450205,1633231656,450205,0000,5A4F,1,1,3.428,GPS-3.0,5,0.147,0.136,0.304,0.733,1.354,0,4,10,4,0,0,4,,,,,,,,,,,0,000000,,,,,
003491-20211003-112724-000000031,220003491       ,2.4013645884,102.8338768803,19.0405673981,0.00000000,0.00000000,38.5010557664,30.436,6.686,5.175,0.264,2021-10-03,03:27:36.800002,1633231656,800002,0000,5A4F,1,1,3.002,GPS-3.0,5,0.147,0.136,0.304,0.733,1.353,0,4,10,4,0,0,4,,,,,,,,,,,0,000000,,,,,
003491-20211003-112724-000000032,220003491       ,2.4013885759,102.8338957087,19.0343551636,0.00000000,0.00000000,38.5717106583,30.677,6.349,5.684,0.179,2021-10-03,03:27:37.200270,1633231657,200270,0000,5A4F,1,1,3.390,GPS-3.0,5,0.147,0.136,0.304,0.733,1.353,0,4,10,4,0,0,4,,,,,,,,,,,0,000000,,,,,
003491-20211003-112724-000000033,220003491       ,2.4014117661,102.8339150027,19.0320396423,0.00000000,0.00000000,39.8365865605,29.138,6.275,5.112,0.075,2021-10-03,03:27:37.600001,1633231657,600001,0000,5A4F,1,1,3.353,GPS-3.0,5,0.147,0.136,0.304,0.733,1.353,0,4,10,4,0,0,4,,,,,,,,,,,0,000000,,,,,
003491-20211003-112724-000000034,220003491       ,2.4014336395,102.8339337415,19.0370883942,0.00000000,0.00000000,40.3791597127,26.424,5.535,4.821,0.140,2021-10-03,03:27:38.000009,1633231658,000009,0000,5A4F,1,1,3.202,GPS-3.0,5,0.146,0.136,0.302,0.733,1.353,0,4,10,4,0,0,4,,,,,,,,,,,0,000000,,,,,
003491-20211003-112724-000000035,220003491       ,2.4014542268,102.8339515923,18.9978828430,0.00000000,0.00000000,41.0275256649,21.097,4.880,3.245,0.084,2021-10-03,03:27:38.449995,1633231658,449995,0000,5A4F,1,1,3.029,GPS-3.0,5,0.147,0.136,0.303,0.733,1.353,0,4,10,4,0,0,4,,,,,,,,,,,0,000000,,,,,
003491-20211003-112724-000000036,220003491       ,2.4014751445,102.8339701604,18.9834213257,0.00000000,0.00000000,41.8964179349,20.024,4.092,3.768,0.041,2021-10-03,03:27:39.000009,1633231659,000009,0000,5A4F,1,1,3.109,GPS-3.0,5,0.148,0.138,0.304,0.733,1.353,0,4,10,4,0,0,4,,,,,,,,,,,0,000000,,,,,
003491-20211003-112724-000000037,220003491       ,2.4014963639,102.8339898883,18.8868350983,0.00000000,0.00000000,42.6386716675,19.607,3.759,3.942,0.105,2021-10-03,03:27:39.600117,1633231659,600117,0000,5A4F,1,1,3.220,GPS-3.0,5,0.149,0.138,0.305,0.733,1.353,0,4,10,4,0,0,4,,,,,,,,,,,0,000000,,,,,
003491-20211003-112724-000000038,220003491       ,2.4015175913,102.8340095254,18.9968147278,0.00000000,0.00000000,43.0907004169,18.872,3.918,3.483,0.051,2021-10-03,03:27:40.200001,1633231660,200001,0000,5A4F,1,1,3.214,GPS-3.0,5,0.150,0.139,0.305,0.733,1.353,0,4,10,4,0,0,4,,,,,,,,,,,0,000000,,,,,
003491-20211003-112724-000000039,220003491       ,2.4015387686,102.8340286720,19.0952587128,0.00000000,0.00000000,43.3811507963,19.756,3.765,3.993,0.013,2021-10-03,03:27:40.800052,1633231660,800052,0000,5A4F,1,1,3.173,GPS-3.0,5,0.149,0.139,0.304,0.811,1.566,0,4,10,4,0,0,4,,,,,,,,,,,0,000000,,,,,
003491-20211003-112724-000000040,220003491       ,2.4015599614,102.8340484448,19.1933670044,0.00000000,0.00000000,43.6784347799,19.926,4.147,3.666,-0.038,2021-10-03,03:27:41.400002,1633231661,400002,0000,5A4F,1,1,3.222,GPS-3.0,5,0.149,0.139,0.303,0.811,1.566,0,4,10,4,0,0,4,,,,,,,,,,,0,000000,,,,,
003491-20211003-112724-000000041,220003491       ,2.4015803367,102.8340675200,19.3157157898,0.00000000,0.00000000,43.8918577009,20.576,4.137,3.944,-0.054,2021-10-03,03:27:41.949996,1633231661,949996,0000,5A4F,1,1,3.102,GPS-3.0,5,0.149,0.139,0.302,0.733,1.353,0,4,10,4,0,0,4,,,,,,,,,,,0,000000,,,,,
003491-20211003-112724-000000042,220003491       ,2.4016011293,102.8340874583,19.4098606110,0.00000000,0.00000000,44.1642968714,21.141,4.199,4.106,-0.086,2021-10-03,03:27:42.500015,1633231662,500015,0000,5A4F,1,1,3.202,GPS-3.0,5,0.149,0.139,0.302,0.733,1.353,0,4,10,4,0,0,4,,,,,,,,,,,0,000000,,,,,
003491-20211003-112724-000000043,220003491       ,2.4016223943,102.8341079335,19.4908599854,0.00000000,0.00000000,44.3930569822,21.540,4.307,4.153,-0.084,2021-10-03,03:27:43.050248,1633231663,050248,0000,5A4F,1,1,3.281,GPS-3.0,5,0.148,0.139,0.302,0.733,1.353,0,4,10,4,0,0,4,,,,,,,,,,,0,000000,,,,,
003491-20211003-112724-000000044,220003491       ,2.4016416664,102.8341268325,19.5801563263,0.00000000,0.00000000,44.5800573164,21.430,4.229,4.189,-0.024,2021-10-03,03:27:43.549996,1633231663,549996,0000,5A4F,1,1,3.000,GPS-3.0,5,0.147,0.139,0.301,0.733,1.353,0,4,10,4,0,0,4,,,,,,,,,,,0,000000,,,,,
003491-20211003-112724-000000045,220003491       ,2.4016626744,102.8341468260,19.6714305878,0.00000000,0.00000000,43.6260711347,20.272,4.203,3.747,-0.006,2021-10-03,03:27:44.099999,1633231664,099999,0000,5A4F,1,1,3.223,GPS-3.0,5,0.147,0.139,0.301,0.811,1.566,0,4,10,4,0,0,4,,,,,,,,,,,0,000000,,,,,
003491-20211003-112724-000000046,220003491       ,2.4016837625,102.8341659466,19.7686271667,0.00000000,0.00000000,42.4406371627,20.319,4.178,3.795,0.073,2021-10-03,03:27:44.649997,1633231664,649997,0000,5A4F,1,1,3.164,GPS-3.0,5,0.147,0.139,0.301,0.733,1.352,0,4,10,4,0,0,4,,,,,,,,,,,0,000000,,,,,
003491-20211003-112724-000000047,220003491       ,2.4017047019,102.8341843399,19.8130798340,0.00000000,0.00000000,41.3872990493,19.839,4.104,3.677,0.051,2021-10-03,03:27:45.200004,1633231665,200004,0000,5A4F,1,1,3.098,GPS-3.0,5,0.147,0.140,0.301,0.810,1.565,0,4,10,4,0,0,4,,,,,,,,,,,0,000000,,,,,
003491-20211003-112724-000000048,220003491       ,2.4017260844,102.8342022020,19.8324298859,0.00000000,0.00000000,40.4800381916,19.612,4.287,3.362,0.053,2021-10-03,03:27:45.750039,1633231665,750039,0000,5A4F,1,1,3.097,GPS-3.0,5,0.147,0.140,0.301,0.733,1.352,0,4,10,4,0,0,4,,,,,,,,,,,0,000000,,,,,
003491-20211003-112724-000000049,220003491       ,2.4017473819,102.8342198896,19.8493194580,0.00000000,0.00000000,39.6819408324,19.884,4.253,3.524,0.107,2021-10-03,03:27:46.300233,1633231666,300233,0000,5A4F,1,1,3.077,GPS-3.0,5,0.147,0.140,0.301,0.733,1.352,0,4,10,4,0,0,4,,,,,,,,,,,0,000000,,,,,
003491-20211003-112724-000000050,220003491       ,2.4017690125,102.8342370549,19.8786945343,0.00000000,0.00000000,38.5148971448,19.979,4.442,3.326,0.089,2021-10-03,03:27:46.850150,1633231666,850150,0000,5A4F,1,1,3.069,GPS-3.0,5,0.147,0.139,0.299,0.733,1.352,0,4,10,4,0,0,4,,,,,,,,,,,0,000000,,,,,
003491-20211003-112724-000000051,220003491       ,2.4017909503,102.8342538755,19.9464416504,0.00000000,0.00000000,37.5217329979,19.915,4.581,3.101,0.107,2021-10-03,03:27:47.400093,1633231667,400093,0000,5A4F,1,1,3.073,GPS-3.0,5,0.146,0.139,0.296,0.733,1.352,0,4,10,4,0,0,4,,,,,,,,,,,0,000000,,,,,
003491-20211003-112724-000000052,220003491       ,2.4018126087,102.8342709909,19.9571094513,0.00000000,0.00000000,37.5957039466,19.748,4.234,3.488,0.125,2021-10-03,03:27:47.950023,1633231667,950023,0000,5A4F,1,1,3.068,GPS-3.0,5,0.146,0.139,0.296,0.733,1.352,0,4,10,4,0,0,4,,,,,,,,,,,0,000000,,,,,
003491-20211003-112724-000000053,220003491       ,2.4018340827,102.8342877106,19.8647384644,0.00000000,0.00000000,37.6544367433,18.409,4.347,2.694,0.165,2021-10-03,03:27:48.499999,1633231668,499999,0000,5A4F,1,1,3.025,GPS-3.0,5,0.147,0.140,0.298,0.810,1.565,0,4,10,4,0,0,3,,,,,,,,,,,0,000000,,,,,
003491-20211003-112724-000000054,220003491       ,2.4018561641,102.8343050371,19.8700809479,0.00000000,0.00000000,37.7128109550,20.269,4.195,3.756,0.123,2021-10-03,03:27:49.049996,1633231669,049996,0000,5A4F,1,1,3.120,GPS-3.0,5,0.148,0.140,0.299,0.810,1.565,0,4,10,4,0,0,3,,,,,,,,,,,0,000000,,,,,
003491-20211003-112724-000000055,220003491       ,2.4018781282,102.8343218605,19.8360500336,0.00000000,0.00000000,37.4509790683,20.654,4.380,3.706,0.171,2021-10-03,03:27:49.600003,1633231669,600003,0000,5A4F,1,1,3.075,GPS-3.0,5,0.148,0.140,0.299,0.810,1.565,0,4,10,4,0,0,3,,,,,,,,,,,0,000000,,,,,
003491-20211003-112724-000000056,220003491       ,2.4019001521,102.8343390223,19.7528572083,0.00000000,0.00000000,37.8498996819,20.478,4.682,3.231,0.210,2021-10-03,03:27:50.150005,1633231670,150005,0000,5A4F,1,1,3.104,GPS-3.0,5,0.149,0.141,0.299,0.733,1.352,0,4,10,4,0,0,3,,,,,,,,,,,0,000000,,,,,
003491-20211003-112724-000000057,220003491       ,2.4019217309,102.8343560219,19.6603202820,0.00000000,0.00000000,38.7918852213,19.742,4.293,3.412,0.219,2021-10-03,03:27:50.700008,1633231670,700008,0000,5A4F,1,1,3.054,GPS-3.0,5,0.150,0.142,0.301,0.867,1.701,0,4,10,4,0,0,3,,,,,,,,,,,0,000000,,,,,
003491-20211003-112724-000000058,220003491       ,2.4019445471,102.8343738349,19.4810047150,0.00000000,0.00000000,39.9531095877,19.696,4.355,3.312,0.284,2021-10-03,03:27:51.300073,1633231671,300073,0000,5A4F,1,1,3.218,GPS-3.0,5,0.151,0.143,0.302,0.733,1.352,0,4,10,4,0,0,3,,,,,,,,,,,0,000000,,,,,
003491-20211003-112724-000000059,220003491       ,2.4019669944,102.8343926953,19.3200531006,0.00000000,0.00000000,41.0731240078,19.940,4.098,3.727,0.329,2021-10-03,03:27:51.900010,1633231671,900010,0000,5A4F,1,1,3.259,GPS-3.0,5,0.151,0.143,0.303,0.889,1.614,0,4,10,4,0,0,3,,,,,,,,,,,0,000000,,,,,
003491-20211003-112724-000000060,220003491       ,2.4019875926,102.8344111825,19.1220550537,0.00000000,0.00000000,42.0040343955,20.061,4.164,3.704,0.430,2021-10-03,03:27:52.449995,1633231672,449995,0000,5A4F,1,1,3.076,GPS-3.0,5,0.152,0.143,0.303,0.867,1.701,0,4,9,4,0,0,3,,,,,,,,,,,0,000000,,,,,
003491-20211003-112724-000000061,220003491       ,2.4020078402,102.8344300468,18.8255004883,0.00000000,0.00000000,42.9389950853,18.755,3.890,3.466,0.498,2021-10-03,03:27:53.000032,1633231673,000032,0000,5A4F,1,1,3.076,GPS-3.0,5,0.152,0.144,0.305,0.733,1.352,0,4,9,4,0,0,3,,,,,,,,,,,0,000000,,,,,
003491-20211003-112724-000000062,220003491       ,2.4020270913,102.8344493995,18.5033130646,0.00000000,0.00000000,44.1247193403,19.797,3.992,3.782,0.575,2021-10-03,03:27:53.550277,1633231673,550277,0000,5A4F,1,1,3.034,GPS-3.0,5,0.153,0.144,0.306,0.733,1.352,0,4,10,4,0,0,3,,,,,,,,,,,0,000000,,,,,
003491-20211003-112724-000000063,220003491       ,2.4020462151,102.8344689748,18.1451034546,0.00000000,0.00000000,45.4592392664,20.166,3.834,4.084,0.695,2021-10-03,03:27:54.100195,1633231674,100195,0000,5A4F,1,1,3.042,GPS-3.0,5,0.154,0.145,0.307,0.810,1.564,0,4,10,4,0,0,3,,,,,,,,,,,0,000000,,,,,
003491-20211003-112724-000000064,220003491       ,2.4020665043,102.8344893470,17.7762527466,0.00000000,0.00000000,45.6448906382,20.621,3.829,4.260,0.778,2021-10-03,03:27:54.650134,1633231674,650134,0000,5A4F,1,1,3.196,GPS-3.0,5,0.155,0.146,0.308,0.881,1.565,0,4,10,4,0,0,3,,,,,,,,,,,0,000000,,,,,
003491-20211003-112724-000000065,220003491       ,2.4020854590,102.8345101320,17.4268627167,0.00000000,0.00000000,46.2473269834,20.317,3.571,4.370,0.920,2021-10-03,03:27:55.200056,1633231675,200056,0000,5A4F,1,1,3.126,GPS-3.0,5,0.156,0.146,0.309,0.810,1.564,0,4,10,4,0,0,3,,,,,,,,,,,0,000000,,,,,
003491-20211003-112724-000000066,220003491       ,2.4021057838,102.8345312685,17.0212154388,0.00000000,0.00000000,45.7803298743,18.804,3.561,3.821,0.869,2021-10-03,03:27:55.800001,1633231675,800001,0000,5A4F,1,1,3.259,GPS-3.0,5,0.156,0.145,0.308,0.810,1.564,0,4,10,4,0,0,3,,,,,,,,,,,0,000000,,,,,
003491-20211003-112724-000000067,220003491       ,2.4021253150,102.8345508200,16.6073875427,0.00000000,0.00000000,44.8379311085,17.838,3.581,3.425,0.784,2021-10-03,03:27:56.400001,1633231676,400001,0000,5A4F,1,1,3.072,GPS-3.0,5,0.155,0.145,0.308,0.867,1.701,0,4,10,4,0,0,3,,,,,,,,,,,0,000000,,,,,
003491-20211003-112724-000000068,220003491       ,2.4021450951,102.8345700135,16.2329254150,0.00000000,0.00000000,43.6995298192,18.925,3.457,3.961,0.917,2021-10-03,03:27:57.000010,1633231677,000010,0000,5A4F,1,1,3.063,GPS-3.0,5,0.156,0.144,0.308,0.867,1.700,0,4,10,4,0,0,3,,,,,,,,,,,0,000000,,,,,
003491-20211003-112724-000000069,220003491       ,2.4021668811,102.8345899303,15.6851167679,0.00000000,0.00000000,43.2879460349,20.425,4.260,3.747,0.956,2021-10-03,03:27:57.600002,1633231677,600002,0000,5A4F,1,1,3.281,GPS-3.0,5,0.156,0.144,0.308,0.867,1.700,0,4,10,4,0,0,3,,,,,,,,,,,0,000000,,,,,
003491-20211003-112724-000000070,220003491       ,2.4021879740,102.8346095847,15.2618684769,0.00000000,0.00000000,43.2287248797,20.954,4.238,3.990,0.876,2021-10-03,03:27:58.149996,1633231678,149996,0000,5A4F,1,1,3.205,GPS-3.0,5,0.157,0.144,0.308,0.810,1.564,0,4,10,4,0,0,3,,,,,,,,,,,0,000000,,,,,
003491-20211003-112724-000000071,220003491       ,2.4022092738,102.8346287162,14.8396825790,0.00000000,0.00000000,43.1547675914,20.393,4.189,3.813,0.851,2021-10-03,03:27:58.700000,1633231678,700000,0000,5A4F,1,1,3.182,GPS-3.0,5,0.158,0.144,0.310,0.866,1.700,0,4,10,4,0,0,4,,,,,,,,,,,0,000000,,,,,
003491-20211003-112724-000000072,220003491       ,2.4022293737,102.8346471507,14.3824577332,0.00000000,0.00000000,43.4455253292,22.402,4.553,4.242,0.941,2021-10-03,03:27:59.200117,1633231679,200117,0000,5A4F,1,1,3.031,GPS-3.0,5,0.159,0.143,0.310,0.810,1.564,0,4,10,4,0,0,2,,,,,,,,,,,0,000000,,,,,
003491-20211003-112724-000000073,220003491       ,2.4022489001,102.8346668982,13.8332653046,0.00000000,0.00000000,44.1336976240,21.959,4.501,4.117,1.083,2021-10-03,03:27:59.699999,1633231679,699999,0000,5A4F,1,1,3.087,GPS-3.0,5,0.160,0.144,0.312,0.866,1.700,0,4,10,4,0,0,2,,,,,,,,,,,0,000000,,,,,
003491-20211003-112724-000000074,220003491       ,2.4022697501,102.8346866717,13.4053106308,0.00000000,0.00000000,44.6544141708,22.479,4.407,4.424,1.036,2021-10-03,03:28:00.200002,1633231680,200002,0000,5A4F,1,1,3.194,GPS-3.0,5,0.161,0.144,0.313,0.810,1.564,0,4,10,4,0,0,2,,,,,,,,,,,0,000000,,,,,
003491-20211003-112724-000000075,220003491       ,2.4022891389,102.8347067860,12.9830837250,0.00000000,0.00000000,45.2413152507,21.960,4.226,4.399,0.953,2021-10-03,03:28:00.700236,1633231680,700236,0000,5A4F,1,1,3.105,GPS-3.0,5,0.161,0.145,0.313,0.810,1.563,0,4,10,4,0,0,2,,,,,,,,,,,0,000000,,,,,
003491-20211003-112724-000000076,220003491       ,2.4023093933,102.8347276371,12.5116424561,0.00000000,0.00000000,44.9718813634,20.784,4.256,3.901,0.820,2021-10-03,03:28:01.250158,1633231681,250158,0000,5A4F,1,1,3.231,GPS-3.0,5,0.162,0.145,0.314,0.810,1.563,0,4,10,4,0,0,2,,,,,,,,,,,0,000000,,,,,
003491-20211003-112724-000000077,220003491       ,2.4023293199,102.8347470794,12.1454830170,0.00000000,0.00000000,44.4845541963,19.943,3.858,3.976,0.804,2021-10-03,03:28:01.800100,1633231681,800100,0000,5A4F,1,1,3.094,GPS-3.0,5,0.162,0.144,0.314,0.866,1.700,0,4,10,4,0,0,2,,,,,,,,,,,0,000000,,,,,
003491-20211003-112724-000000078,220003491       ,2.4023489671,102.8347657794,11.9069461823,0.00000000,0.00000000,44.1237938497,19.046,3.699,3.783,0.639,2021-10-03,03:28:02.350027,1633231682,350027,0000,5A4F,1,1,3.015,GPS-3.0,5,0.163,0.143,0.313,0.810,1.563,0,4,10,4,0,0,2,,,,,,,,,,,0,000000,,,,,
003491-20211003-112724-000000079,220003491       ,2.4023697434,102.8347854358,11.7010068893,0.00000000,0.00000000,43.9617202908,19.492,3.625,4.022,0.558,2021-10-03,03:28:02.949996,1633231682,949996,0000,5A4F,1,1,3.179,GPS-3.0,5,0.163,0.141,0.312,0.810,1.563,0,4,10,4,0,0,2,,,,,,,,,,,0,000000,,,,,
003491-20211003-112724-000000080,220003491       ,2.4023898729,102.8348053666,11.4249544144,0.00000000,0.00000000,44.3550264889,18.953,3.896,3.541,0.572,2021-10-03,03:28:03.549996,1633231683,549996,0000,5A4F,1,1,3.148,GPS-3.0,5,0.164,0.140,0.312,0.866,1.699,0,4,10,4,0,0,2,,,,,,,,,,,0,000000,,,,,
003491-20211003-112724-000000081,220003491       ,2.4024104249,102.8348250090,11.0583038330,0.00000000,0.00000000,44.6341558297,19.348,3.989,3.602,0.615,2021-10-03,03:28:04.149996,1633231684,149996,0000,5A4F,1,1,3.160,GPS-3.0,5,0.164,0.140,0.312,0.866,1.699,0,4,10,4,0,0,2,,,,,,,,,,,0,000000,,,,,
003491-20211003-112724-000000082,220003491       ,2.4024305060,102.8348447819,10.8193397522,0.00000000,0.00000000,44.9222600391,20.246,4.194,3.747,0.581,2021-10-03,03:28:04.700020,1633231684,700020,0000,5A4F,1,1,3.132,GPS-3.0,5,0.165,0.140,0.313,0.866,1.699,0,4,10,4,0,0,2,,,,,,,,,,,0,000000,,,,,
003491-20211003-112724-000000083,220003491       ,2.4024516353,102.8348654947,10.5482559204,0.00000000,0.00000000,44.5457731819,21.691,4.319,4.201,0.573,2021-10-03,03:28:05.250210,1633231685,250210,0000,5A4F,1,1,3.289,GPS-3.0,5,0.166,0.140,0.314,0.866,1.699,0,4,10,4,0,0,4,,,,,,,,,,,0,000000,,,,,
003491-20211003-112724-000000084,220003491       ,2.4024719811,102.8348850369,10.3399543762,0.00000000,0.00000000,43.6794114970,23.155,4.521,4.575,0.546,2021-10-03,03:28:05.749996,1633231685,749996,0000,5A4F,1,1,3.136,GPS-3.0,5,0.166,0.139,0.314,0.810,1.563,0,4,10,4,0,0,4,,,,,,,,,,,0,000000,,,,,
003491-20211003-112724-000000085,220003491       ,2.4024937106,102.8349050071,10.1419115067,0.00000000,0.00000000,42.3872387438,24.015,5.076,4.329,0.516,2021-10-03,03:28:06.249996,1633231686,249996,0000,5A4F,1,1,3.280,GPS-3.0,5,0.166,0.139,0.313,0.810,1.563,0,4,10,4,0,0,3,,,,,,,,,,,0,000000,,,,,
003491-20211003-112724-000000086,220003491       ,2.4025145775,102.8349228578,10.0844268799,0.00000000,0.00000000,41.7351196026,24.857,5.237,4.500,0.414,2021-10-03,03:28:06.700000,1633231686,700000,0000,5A4F,1,1,3.052,GPS-3.0,5,0.166,0.137,0.311,0.810,1.563,0,4,10,4,0,0,3,,,,,,,,,,,0,000000,,,,,
003491-20211003-112724-000000087,220003491       ,2.4025354870,102.8349419132,9.8758735657,0.00000000,0.00000000,41.5732782702,25.503,5.007,5.011,0.521,2021-10-03,03:28:07.149995,1633231687,149995,0000,5A4F,1,1,3.144,GPS-3.0,5,0.166,0.136,0.310,0.810,1.563,0,4,10,4,0,0,3,,,,,,,,,,,0,000000,,,,,
003491-20211003-112724-000000088,220003491       ,2.4025574783,102.8349608310,9.7599859238,0.00000000,0.00000000,41.5008782650,25.504,5.386,4.602,0.443,2021-10-03,03:28:07.600001,1633231687,600001,0000,5A4F,1,1,3.224,GPS-3.0,5,0.166,0.134,0.309,0.810,1.563,0,4,10,4,0,0,3,,,,,,,,,,,0,000000,,,,,
003491-20211003-112724-000000089,220003491       ,2.4025801703,102.8349804108,9.6361837387,0.00000000,0.00000000,41.8248409675,26.209,5.427,4.853,0.529,2021-10-03,03:28:08.049995,1633231688,049995,0000,5A4F,1,1,3.331,GPS-3.0,5,0.166,0.133,0.308,0.810,1.563,0,4,10,4,0,0,3,,,,,,,,,,,0,000000,,,,,
003491-20211003-112724-000000090,220003491       ,2.4026023034,102.8350006986,9.4251832962,0.00000000,0.00000000,42.5346069053,27.084,5.612,5.010,0.483,2021-10-03,03:28:08.500199,1633231688,500199,0000,5A4F,1,1,3.337,GPS-3.0,5,0.167,0.132,0.308,0.866,1.699,0,4,10,4,0,0,3,,,,,,,,,,,0,000000,,,,,
003491-20211003-112724-000000091,220003491       ,2.4026218692,102.8350193019,9.2288293839,0.00000000,0.00000000,43.1686909320,27.001,5.596,4.994,0.502,2021-10-03,03:28:08.899999,1633231688,899999,0000,5A4F,1,1,3.001,GPS-3.0,5,0.167,0.131,0.308,0.810,1.562,0,4,10,4,0,0,3,,,,,,,,,,,0,000000,,,,,
003491-20211003-112724-000000092,220003491       ,2.4026419370,102.8350379809,9.1119318008,0.00000000,0.00000000,43.2432731826,27.315,5.737,4.965,0.444,2021-10-03,03:28:09.299999,1633231689,299999,0000,5A4F,1,1,3.047,GPS-3.0,5,0.166,0.131,0.308,0.810,1.562,0,4,10,4,0,0,3,,,,,,,,,,,0,000000,,,,,
003491-20211003-112724-000000093,220003491       ,2.4026624909,102.8350571454,8.9787855148,0.00000000,0.00000000,43.0597562449,27.936,5.699,5.267,0.423,2021-10-03,03:28:09.700115,1633231689,700115,0000,5A4F,1,1,3.124,GPS-3.0,5,0.167,0.130,0.308,0.810,1.562,0,4,10,4,0,0,3,,,,,,,,,,,0,000000,,,,,
003491-20211003-112724-000000094,220003491       ,2.4026827472,102.8350769825,8.7749805450,0.00000000,0.00000000,42.8612846080,28.575,5.648,5.577,0.446,2021-10-03,03:28:10.099999,1633231690,099999,0000,5A4F,1,1,3.151,GPS-3.0,5,0.168,0.130,0.309,0.880,1.563,0,4,10,4,0,0,3,,,,,,,,,,,0,000000,,,,,
003491-20211003-112724-000000095,220003491       ,2.4027035574,102.8350956600,8.6333560944,0.00000000,0.00000000,42.4748734859,28.557,5.729,5.487,0.258,2021-10-03,03:28:10.499998,1633231690,499998,0000,5A4F,1,1,3.108,GPS-3.0,5,0.169,0.131,0.311,0.866,1.698,0,4,10,4,0,0,3,,,,,,,,,,,0,000000,,,,,
003491-20211003-112724-000000096,220003491       ,2.4027241914,102.8351138743,8.4064760208,0.00000000,0.00000000,42.1978341830,26.661,5.225,5.248,0.483,2021-10-03,03:28:10.900033,1633231690,900033,0000,5A4F,1,1,3.059,GPS-3.0,5,0.169,0.132,0.312,0.903,1.960,0,4,10,4,0,0,3,,,,,,,,,,,0,000000,,,,,
003491-20211003-112724-000000097,220003491       ,2.4027442830,102.8351327492,8.2688455582,0.00000000,0.00000000,42.5263355462,27.226,5.556,5.131,0.328,2021-10-03,03:28:11.300015,1633231691,300015,0000,5A4F,1,1,3.064,GPS-3.0,5,0.170,0.133,0.313,0.809,1.562,0,4,10,4,0,0,2,,,,,,,,,,,0,000000,,,,,
003491-20211003-112724-000000098,220003491       ,2.4027670237,102.8351522442,8.1334323883,0.00000000,0.00000000,42.6846798217,24.959,5.379,4.374,0.331,2021-10-03,03:28:11.750179,1633231691,750179,0000,5A4F,1,1,3.329,GPS-3.0,5,0.170,0.134,0.314,0.809,1.562,0,4,10,4,0,0,2,,,,,,,,,,,0,000000,,,,,
003491-20211003-112724-000000099,220003491       ,2.4027877505,102.8351706518,8.0740737915,0.00000000,0.00000000,42.4651882777,23.583,4.619,4.645,0.267,2021-10-03,03:28:12.200051,1633231692,200051,0000,5A4F,1,1,3.081,GPS-3.0,5,0.171,0.135,0.316,0.809,1.562,0,4,10,4,0,0,2,,,,,,,,,,,0,000000,,,,,
003491-20211003-112724-000000100,220003491       ,2.4028094022,102.8351901313,7.9734411240,0.00000000,0.00000000,42.5655100962,19.728,4.219,3.497,0.255,2021-10-03,03:28:12.749996,1633231692,749996,0000,5A4F,1,1,3.237,GPS-3.0,5,0.173,0.137,0.318,0.809,1.562,0,4,10,4,0,0,2,,,,,,,,,,,0,000000,,,,,
003491-20211003-112724-000000101,220003491       ,2.4028299166,102.8352083239,7.7469177246,0.00000000,0.00000000,42.6290137800,16.806,3.679,2.874,0.279,2021-10-03,03:28:13.349996,1633231693,349996,0000,5A4F,1,1,3.048,GPS-3.0,5,0.174,0.138,0.319,0.866,1.698,0,4,10,4,0,0,2,,,,,,,,,,,0,000000,,,,,
003491-20211003-112724-000000102,220003491       ,2.4028507718,102.8352258419,7.7310042381,0.00000000,0.00000000,41.6829779384,16.679,3.521,3.011,0.241,2021-10-03,03:28:14.000010,1633231694,000010,0000,5A4F,1,1,3.027,GPS-3.0,5,0.175,0.140,0.321,0.809,1.562,0,4,10,4,0,0,2,,,,,,,,,,,0,000000,,,,,
003491-20211003-112724-000000103,220003491       ,2.4028708859,102.8352439609,7.6719574928,0.00000000,0.00000000,40.8788905033,17.151,3.347,3.390,0.168,2021-10-03,03:28:14.649996,1633231694,649996,0000,5A4F,1,1,3.009,GPS-3.0,5,0.177,0.142,0.324,0.846,1.585,0,4,10,4,0,0,2,,,,,,,,,,,0,000000,,,,,
003491-20211003-112724-000000104,220003491       ,2.4028930639,102.8352615824,7.5771107674,0.00000000,0.00000000,39.6931081917,18.479,3.943,3.287,0.196,2021-10-03,03:28:15.300001,1633231695,300001,0000,5A4F,1,1,3.149,GPS-3.0,5,0.178,0.144,0.326,0.809,1.562,0,4,10,4,0,0,2,,,,,,,,,,,0,000000,,,,,
003491-20211003-112724-000000105,220003491       ,2.4029159736,102.8352793504,7.5781168938,0.00000000,0.00000000,38.1961424615,20.323,4.373,3.570,0.072,2021-10-03,03:28:15.899999,1633231695,899999,0000,5A4F,1,1,3.223,GPS-3.0,5,0.180,0.146,0.328,0.866,1.698,0,4,10,4,0,0,2,,,,,,,,,,,0,000000,,,,,
003491-20211003-112724-000000106,220003491       ,2.4029387482,102.8352966402,7.6134467125,0.00000000,0.00000000,37.2621721491,21.352,4.704,3.612,-0.030,2021-10-03,03:28:16.449996,1633231696,449996,0000,5A4F,1,1,3.178,GPS-3.0,5,0.181,0.147,0.330,0.866,1.698,0,4,10,4,0,0,2,,,,,,,,,,,0,000000,,,,,
003491-20211003-112724-000000107,220003491       ,2.4029606437,102.8353132019,7.7079973221,0.00000000,0.00000000,37.2577905827,22.845,4.992,3.918,-0.134,2021-10-03,03:28:16.950149,1633231696,950149,0000,5A4F,1,1,3.052,GPS-3.0,5,0.181,0.148,0.331,0.866,1.697,0,4,10,4,0,0,2,,,,,,,,,,,0,000000,,,,,
003491-20211003-112724-000000108,220003491       ,2.4029831559,102.8353321300,7.9148430824,0.00000000,0.00000000,37.5701283033,24.346,5.238,4.277,-0.207,2021-10-03,03:28:17.449996,1633231697,449996,0000,5A4F,1,1,3.269,GPS-3.0,5,0.181,0.148,0.331,0.866,1.697,0,4,10,4,0,0,2,,,,,,,,,,,0,000000,,,,,
003491-20211003-112724-000000109,220003491       ,2.4030057779,102.8353493615,7.9305558205,0.00000000,0.00000000,37.8206767175,25.735,5.627,4.409,-0.219,2021-10-03,03:28:17.899999,1633231697,899999,0000,5A4F,1,1,3.161,GPS-3.0,5,0.182,0.148,0.332,0.947,1.822,0,4,10,4,0,0,2,,,,,,,,,,,0,000000,,,,,
003491-20211003-112724-000000110,220003491       ,2.4030290514,102.8353674496,8.0744123459,0.00000000,0.00000000,38.4342599314,27.741,5.595,5.299,-0.348,2021-10-03,03:28:18.350218,1633231698,350218,0000,5A4F,1,1,3.277,GPS-3.0,5,0.182,0.150,0.333,0.947,1.822,0,4,10,4,0,0,2,,,,,,,,,,,0,000000,,,,,
003491-20211003-112724-000000111,220003491       ,2.4030508634,102.8353842654,8.2131938934,0.00000000,0.00000000,38.9239742496,26.440,6.134,4.038,-0.311,2021-10-03,03:28:18.749996,1633231698,749996,0000,5A4F,1,1,3.061,GPS-3.0,5,0.181,0.150,0.333,0.866,1.697,0,4,10,4,0,0,2,,,,,,,,,,,0,000000,,,,,
003491-20211003-112724-000000112,220003491       ,2.4030743027,102.8354028806,8.3850307465,0.00000000,0.00000000,39.5275888024,25.619,5.578,4.419,-0.227,2021-10-03,03:28:19.200002,1633231699,200002,0000,5A4F,1,1,3.327,GPS-3.0,5,0.181,0.150,0.332,0.947,1.822,0,4,10,4,0,0,4,,,,,,,,,,,0,000000,,,,,
003491-20211003-112724-000000113,220003491       ,2.4030962686,102.8354208763,8.5170955658,0.00000000,0.00000000,39.8836533940,24.986,5.273,4.513,-0.324,2021-10-03,03:28:19.650211,1633231699,650211,0000,5A4F,1,1,3.156,GPS-3.0,5,0.181,0.151,0.332,0.840,1.732,0,4,10,4,0,0,4,,,,,,,,,,,0,000000,,,,,
003491-20211003-112724-000000114,220003491       ,2.4031173286,102.8354382939,8.7720623016,0.00000000,0.00000000,40.3989775065,23.846,5.113,4.211,-0.306,2021-10-03,03:28:20.100078,1633231700,100078,0000,5A4F,1,1,3.038,GPS-3.0,5,0.180,0.151,0.332,0.846,1.584,0,4,10,4,0,0,4,,,,,,,,,,,0,000000,,,,,
003491-20211003-112724-000000115,220003491       ,2.4031396685,102.8354561855,8.8521852493,0.00000000,0.00000000,40.7709393635,21.798,4.685,3.836,-0.132,2021-10-03,03:28:20.600003,1633231700,600003,0000,5A4F,1,1,3.181,GPS-3.0,5,0.181,0.152,0.332,0.947,1.821,0,4,10,4,0,0,2,,,,,,,,,,,0,000000,,,,,
003491-20211003-112724-000000116,220003491       ,2.4031613301,102.8354750559,9.0727405548,0.00000000,0.00000000,41.0278740046,19.885,4.235,3.546,-0.194,2021-10-03,03:28:21.149996,1633231701,149996,0000,5A4F,1,1,3.193,GPS-3.0,5,0.180,0.152,0.332,0.846,1.584,0,4,10,4,0,0,2,,,,,,,,,,,0,000000,,,,,
003491-20211003-112724-000000117,220003491       ,2.4031825744,102.8354934693,9.3127489090,0.00000000,0.00000000,41.0846328766,17.665,3.758,3.155,-0.144,2021-10-03,03:28:21.749996,1633231701,749996,0000,5A4F,1,1,3.125,GPS-3.0,5,0.176,0.151,0.329,0.846,1.584,0,4,10,4,0,0,2,,,,,,,,,,,0,000000,,,,,
003491-20211003-112724-000000118,220003491       ,2.4032036616,102.8355125325,9.5572452545,0.00000000,0.00000000,41.7181841485,15.093,3.066,2.860,-0.019,2021-10-03,03:28:22.449995,1633231702,449995,0000,5A4F,1,1,3.160,GPS-3.0,5,0.173,0.150,0.325,0.947,1.821,0,4,10,4,0,0,2,,,,,,,,,,,0,000000,,,,,
003491-20211003-112724-000000119,220003491       ,2.4032241508,102.8355320361,9.8404455185,0.00000000,0.00000000,42.9061794414,12.985,2.779,2.299,-0.185,2021-10-03,03:28:23.249995,1633231703,249995,0000,5A4F,1,1,3.144,GPS-3.0,5,0.170,0.148,0.322,0.809,1.561,0,4,10,4,0,0,2,,,,,,,,,,,0,000000,,,,,
003491-20211003-112724-000000120,220003491       ,2.4032447268,102.8355499255,10.3090133667,0.00000000,0.00000000,43.6238035118,11.722,2.408,2.192,-0.222,2021-10-03,03:28:24.149995,1633231704,149995,0000,5A4F,1,1,3.031,GPS-3.0,5,0.164,0.144,0.317,1.012,2.206,0,4,10,4,0,0,2,,,,,,,,,,,0,000000,,,,,
003491-20211003-112724-000000121,220003491       ,2.4032650648,102.8355684226,10.6755962372,0.00000000,0.00000000,44.0853569601,12.038,2.500,2.220,-0.155,2021-10-03,03:28:25.099999,1633231705,099999,0000,5A4F,1,1,3.056,GPS-3.0,5,0.159,0.139,0.312,0.894,1.762,0,4,10,4,0,0,3,,,,,,,,,,,0,000000,,,,,
003491-20211003-112724-000000122,220003491       ,2.4032853665,102.8355873699,10.9928979874,0.00000000,0.00000000,43.3991927410,13.719,2.807,2.577,-0.309,2021-10-03,03:28:25.950044,1633231705,950044,0000,5A4F,1,1,3.087,GPS-3.0,5,0.157,0.138,0.311,0.809,1.560,0,4,10,4,0,0,3,,,,,,,,,,,0,000000,,,,,
003491-20211003-112724-000000123,220003491       ,2.4033055157,102.8356056230,11.2551794052,0.00000000,0.00000000,42.6784643496,15.447,3.030,3.038,-0.361,2021-10-03,03:28:26.700121,1633231706,700121,0000,5A4F,1,1,3.022,GPS-3.0,5,0.158,0.139,0.313,0.866,1.696,0,4,10,4,0,0,4,,,,,,,,,,,0,000000,,,,,
003491-20211003-112724-000000124,220003491       ,2.4033266239,102.8356242002,11.5159511566,0.00000000,0.00000000,41.7489678111,16.669,3.430,3.110,-0.331,2021-10-03,03:28:27.400003,1633231707,400003,0000,5A4F,1,1,3.125,GPS-3.0,5,0.158,0.139,0.314,0.866,1.696,0,4,10,4,0,0,4,,,,,,,,,,,0,000000,,,,,
003491-20211003-112724-000000125,220003491       ,2.4033481190,102.8356423758,11.7897777557,0.00000000,0.00000000,40.4082324129,17.568,3.749,3.124,-0.328,2021-10-03,03:28:28.049996,1633231708,049996,0000,5A4F,1,1,3.129,GPS-3.0,5,0.158,0.139,0.313,0.809,1.560,0,4,10,4,0,0,4,,,,,,,,,,,0,000000,,,,,
003491-20211003-112724-000000126,220003491       ,2.4033693604,102.8356599769,12.0017871857,0.00000000,0.00000000,40.2004819640,18.190,3.930,3.175,-0.367,2021-10-03,03:28:28.650107,1633231708,650107,0000,5A4F,1,1,3.066,GPS-3.0,5,0.158,0.140,0.314,0.866,1.695,0,4,10,4,0,0,4,,,,,,,,,,,0,000000,,,,,
003491-20211003-112724-000000127,220003491       ,2.4033906056,102.8356787491,12.2007923126,0.00000000,0.00000000,38.8674510191,18.517,3.983,3.255,-0.285,2021-10-03,03:28:29.249997,1633231709,249997,0000,5A4F,1,1,3.151,GPS-3.0,5,0.158,0.141,0.315,0.903,1.958,0,4,10,3,0,0,4,,,,,,,,,,,0,000000,,,,,
003491-20211003-112724-000000128,220003491       ,2.4034128367,102.8356956893,12.3272151947,0.00000000,0.00000000,36.8387243262,18.434,4.445,2.542,-0.303,2021-10-03,03:28:29.850008,1633231709,850008,0000,5A4F,1,1,3.107,GPS-3.0,5,0.157,0.141,0.315,0.809,1.560,0,4,10,3,0,0,4,,,,,,,,,,,0,000000,,,,,
003491-20211003-112724-000000129,220003491       ,2.4034345992,102.8357116942,12.5867166519,0.00000000,0.00000000,37.0376091896,20.136,4.425,3.422,-0.464,2021-10-03,03:28:30.400002,1633231710,400002,0000,5A4F,1,1,3.003,GPS-3.0,5,0.156,0.141,0.316,0.809,1.560,0,4,10,4,0,0,4,,,,,,,,,,,0,000000,,,,,
003491-20211003-112724-000000130,220003491       ,2.4034568471,102.8357290631,12.9237070084,0.00000000,0.00000000,38.5222737491,21.454,4.480,3.930,-0.482,2021-10-03,03:28:30.949996,1633231710,949996,0000,5A4F,1,1,3.137,GPS-3.0,5,0.154,0.140,0.313,0.866,1.695,0,4,10,4,0,0,4,,,,,,,,,,,0,000000,,,,,
003491-20211003-112724-000000131,220003491       ,2.4034777727,102.8357466364,13.3542098999,0.00000000,0.00000000,40.7758434393,21.296,4.710,3.579,-0.490,2021-10-03,03:28:31.450239,1633231711,450239,0000,5A4F,1,1,3.037,GPS-3.0,5,0.151,0.139,0.310,0.866,1.695,0,4,10,4,0,0,3,,,,,,,,,,,0,000000,,,,,
003491-20211003-112724-000000132,220003491       ,2.4034989015,102.8357650366,13.6194829941,0.00000000,0.00000000,43.3565791908,22.132,4.589,4.091,-0.441,2021-10-03,03:28:31.949996,1633231711,949996,0000,5A4F,1,1,3.114,GPS-3.0,5,0.150,0.139,0.309,0.809,1.560,0,4,10,4,0,0,3,,,,,,,,,,,0,000000,,,,,
003491-20211003-112724-000000133,220003491       ,2.4035194430,102.8357854372,13.9773588181,0.00000000,0.00000000,45.2191478718,23.270,4.202,4.912,-0.632,2021-10-03,03:28:32.449996,1633231712,449996,0000,5A4F,1,1,3.218,GPS-3.0,5,0.149,0.139,0.309,0.809,1.560,0,4,10,4,0,0,3,,,,,,,,,,,0,000000,,,,,
003491-20211003-112724-000000134,220003491       ,2.4035381970,102.8358056996,14.3473072052,0.00000000,0.00000000,46.2156656415,22.186,3.840,4.820,-0.662,2021-10-03,03:28:32.949997,1633231712,949997,0000,5A4F,1,1,3.069,GPS-3.0,5,0.149,0.140,0.309,0.809,1.560,0,4,10,4,0,0,3,,,,,,,,,,,0,000000,,,,,
003491-20211003-112724-000000135,220003491       ,2.4035565966,102.8358257636,14.6414737701,0.00000000,0.00000000,46.7340906599,22.123,3.939,4.716,-0.539,2021-10-03,03:28:33.449996,1633231713,449996,0000,5A4F,1,1,3.026,GPS-3.0,5,0.150,0.140,0.310,0.809,1.560,0,4,10,4,0,0,4,,,,,,,,,,,0,000000,,,,,
003491-20211003-112724-000000136,220003491       ,2.4035747590,102.8358462200,14.9043102264,0.00000000,0.00000000,47.6112474587,22.954,3.811,5.112,-0.423,2021-10-03,03:28:33.950137,1633231713,950137,0000,5A4F,1,1,3.040,GPS-3.0,5,0.150,0.141,0.310,0.866,1.695,0,4,10,4,0,0,4,,,,,,,,,,,0,000000,,,,,
003491-20211003-112724-000000137,220003491       ,2.4035927642,102.8358672928,15.0421161652,0.00000000,0.00000000,48.8341757541,21.902,3.973,4.608,-0.247,2021-10-03,03:28:34.449996,1633231714,449996,0000,5A4F,1,1,3.080,GPS-3.0,5,0.151,0.141,0.311,0.866,1.695,0,4,10,4,0,0,4,,,,,,,,,,,0,000000,,,,,
003491-20211003-112724-000000138,220003491       ,2.4036104712,102.8358884776,15.1670179367,0.00000000,0.00000000,50.4583366822,21.248,3.979,4.360,-0.198,2021-10-03,03:28:34.949996,1633231714,949996,0000,5A4F,1,1,3.069,GPS-3.0,5,0.151,0.142,0.312,0.866,1.695,0,4,10,4,0,0,4,,,,,,,,,,,0,000000,,,,,
003491-20211003-112724-000000139,220003491       ,2.4036285617,102.8359118074,15.2708473206,0.00000000,0.00000000,52.0458024189,21.313,3.503,4.772,-0.004,2021-10-03,03:28:35.500000,1633231715,500000,0000,5A4F,1,1,3.281,GPS-3.0,5,0.152,0.142,0.312,0.903,1.958,0,4,10,4,0,0,3,,,,,,,,,,,0,000000,,,,,
003491-20211003-112724-000000140,220003491       ,2.4036456860,102.8359349317,15.3621473312,0.00000000,0.00000000,53.6669000071,20.741,3.473,4.597,0.006,2021-10-03,03:28:36.049995,1633231716,049995,0000,5A4F,1,1,3.198,GPS-3.0,5,0.152,0.142,0.312,0.866,1.695,0,4,10,4,0,0,3,,,,,,,,,,,0,000000,,,,,
003491-20211003-112724-000000141,220003491       ,2.4036626427,102.8359584936,15.4113826752,0.00000000,0.00000000,55.0647426169,21.291,3.326,4.890,0.037,2021-10-03,03:28:36.600001,1633231716,600001,0000,5A4F,1,1,3.226,GPS-3.0,5,0.152,0.142,0.312,0.865,1.694,0,4,10,4,0,0,3,,,,,,,,,,,0,000000,,,,,
003491-20211003-112724-000000142,220003491       ,2.4036781597,102.8359806345,15.4177551270,0.00000000,0.00000000,55.1950079848,21.609,3.426,4.928,0.061,2021-10-03,03:28:37.100053,1633231717,100053,0000,5A4F,1,1,3.005,GPS-3.0,5,0.152,0.142,0.311,0.865,1.694,0,4,10,4,0,0,3,,,,,,,,,,,0,000000,,,,,
003491-20211003-112724-000000143,220003491       ,2.4036942148,102.8360028465,15.3955888748,0.00000000,0.00000000,54.5546982407,22.505,3.405,5.243,0.115,2021-10-03,03:28:37.600003,1633231717,600003,0000,5A4F,1,1,3.046,GPS-3.0,5,0.152,0.142,0.311,0.808,1.559,0,4,10,4,0,0,3,,,,,,,,,,,0,000000,,,,,
003491-20211003-112724-000000144,220003491       ,2.4037108031,102.8360255339,15.4204454422,0.00000000,0.00000000,53.6711825357,23.508,3.316,5.625,0.054,2021-10-03,03:28:38.099999,1633231718,099999,0000,5A4F,1,1,3.123,GPS-3.0,5,0.152,0.142,0.311,0.865,1.694,0,4,10,4,0,0,3,,,,,,,,,,,0,000000,,,,,
003491-20211003-112724-000000145,220003491       ,2.4037280540,102.8360482015,15.4144353867,0.00000000,0.00000000,52.5882423824,22.912,3.863,5.058,0.101,2021-10-03,03:28:38.600210,1633231718,600210,0000,5A4F,1,1,3.166,GPS-3.0,5,0.152,0.142,0.311,0.808,1.559,0,4,10,4,0,0,3,,,,,,,,,,,0,000000,,,,,
003491-20211003-112724-000000146,220003491       ,2.4037461078,102.8360702785,15.4148387909,0.00000000,0.00000000,51.3839126921,22.807,4.047,4.874,0.112,2021-10-03,03:28:39.099998,1633231719,099998,0000,5A4F,1,1,3.169,GPS-3.0,5,0.151,0.142,0.311,0.865,1.694,0,4,10,4,0,0,3,,,,,,,,,,,0,000000,,,,,
003491-20211003-112724-000000147,220003491       ,2.4037646732,102.8360920194,15.3696975708,0.00000000,0.00000000,51.1911374329,22.881,3.941,4.987,0.150,2021-10-03,03:28:39.600001,1633231719,600001,0000,5A4F,1,1,3.177,GPS-3.0,5,0.151,0.141,0.311,0.865,1.694,0,4,10,4,0,0,4,,,,,,,,,,,0,000000,,,,,
003491-20211003-112724-000000148,220003491       ,2.4037829511,102.8361150915,15.3837862015,0.00000000,0.00000000,52.5278805856,19.275,3.531,4.025,0.055,2021-10-03,03:28:40.149995,1633231720,149995,0000,5A4F,1,1,3.271,GPS-3.0,5,0.150,0.139,0.309,0.808,1.559,0,4,10,4,0,0,4,,,,,,,,,,,0,000000,,,,,
003491-20211003-112724-000000149,220003491       ,2.4037994640,102.8361365522,15.4144439697,0.00000000,0.00000000,53.3575607395,16.037,2.821,3.448,0.082,2021-10-03,03:28:40.749995,1633231720,749995,0000,5A4F,1,1,3.009,GPS-3.0,5,0.149,0.136,0.307,0.808,1.559,0,4,10,4,0,0,4,,,,,,,,,,,0,000000,,,,,
003491-20211003-112724-000000150,220003491       ,2.4038154610,102.8361590643,15.4776830673,0.00000000,0.00000000,53.9081149678,11.509,1.759,2.670,0.156,2021-10-03,03:28:41.549995,1633231721,549995,0000,5A4F,1,1,3.069,GPS-3.0,5,0.147,0.135,0.305,0.808,1.559,0,4,10,4,0,0,4,,,,,,,,,,,0,000000,,,,,
003491-20211003-112724-000000151,220003491       ,2.4038318816,102.8361815042,15.4302616119,0.00000000,0.00000000,54.1213432284,10.403,1.846,2.223,0.078,2021-10-03,03:28:42.549996,1633231722,549996,0000,5A4F,1,1,3.090,GPS-3.0,5,0.148,0.136,0.307,0.808,1.559,0,4,10,4,0,0,4,,,,,,,,,,,0,000000,,,,,
003491-20211003-112724-000000152,220003491       ,2.4038478202,102.8362039425,15.6814193726,0.00000000,0.00000000,55.8832076003,11.498,1.584,2.773,0.035,2021-10-03,03:28:43.549996,1633231723,549996,0000,5A4F,1,1,3.059,GPS-3.0,5,0.148,0.137,0.305,0.808,1.558,0,4,10,4,0,0,4,,,,,,,,,,,0,000000,,,,,
003491-20211003-112724-000000153,220003491       ,2.4038623626,102.8362267748,15.8675336838,0.00000000,0.00000000,56.5990080102,13.388,2.026,3.118,-0.071,2021-10-03,03:28:44.400002,1633231724,400002,0000,5A4F,1,1,3.008,GPS-3.0,5,0.147,0.137,0.303,0.808,1.558,0,4,10,4,0,0,4,,,,,,,,,,,0,000000,,,,,
003491-20211003-112724-000000154,220003491       ,2.4038776930,102.8362494626,15.9512729645,0.00000000,0.00000000,55.9152309422,15.715,2.639,3.478,-0.094,2021-10-03,03:28:45.149996,1633231725,149996,0000,5A4F,1,1,3.043,GPS-3.0,5,0.147,0.137,0.304,0.808,1.558,0,4,10,4,0,0,4,,,,,,,,,,,0,000000,,,,,
003491-20211003-112724-000000155,220003491       ,2.4038938875,102.8362728634,15.9763422012,0.00000000,0.00000000,54.9740718557,18.687,3.194,4.092,-0.045,2021-10-03,03:28:45.800002,1633231725,800002,0000,5A4F,1,1,3.163,GPS-3.0,5,0.148,0.138,0.305,0.865,1.693,0,4,10,4,0,0,4,,,,,,,,,,,0,000000,,,,,
003491-20211003-112724-000000156,220003491       ,2.4039108492,102.8362950074,16.0491809845,0.00000000,0.00000000,53.6725075924,21.416,3.603,4.734,-0.133,2021-10-03,03:28:46.349996,1633231726,349996,0000,5A4F,1,1,3.100,GPS-3.0,5,0.149,0.139,0.307,0.865,1.693,0,4,10,4,0,0,4,,,,,,,,,,,0,000000,,,,,
003491-20211003-112724-000000157,220003491       ,2.4039280607,102.8363180850,16.1278820038,0.00000000,0.00000000,53.1988134829,23.991,4.122,5.236,-0.205,2021-10-03,03:28:46.850013,1633231726,850013,0000,5A4F,1,1,3.199,GPS-3.0,5,0.149,0.140,0.307,0.808,1.558,0,4,10,4,0,0,4,,,,,,,,,,,0,000000,,,,,
003491-20211003-112724-000000158,220003491       ,2.4039449051,102.8363401544,16.1828346252,0.00000000,0.00000000,52.7035223152,23.927,4.295,5.072,-0.098,2021-10-03,03:28:47.299999,1633231727,299999,0000,5A4F,1,1,3.085,GPS-3.0,5,0.149,0.140,0.308,0.808,1.558,0,4,10,4,0,0,4,,,,,,,,,,,0,000000,,,,,
003491-20211003-112724-000000159,220003491       ,2.4039615387,102.8363621080,16.2383556366,0.00000000,0.00000000,52.7319290719,23.652,4.224,5.032,-0.106,2021-10-03,03:28:47.749996,1633231727,749996,0000,5A4F,1,1,3.061,GPS-3.0,5,0.150,0.141,0.309,0.808,1.558,0,4,10,4,0,0,4,,,,,,,,,,,0,000000,,,,,
003491-20211003-112724-000000160,220003491       ,2.4039798101,102.8363857316,16.2981796265,0.00000000,0.00000000,53.7538517303,23.640,3.800,5.356,-0.098,2021-10-03,03:28:48.250094,1633231728,250094,0000,5A4F,1,1,3.319,GPS-3.0,5,0.151,0.142,0.310,0.808,1.558,0,4,10,4,0,0,3,,,,,,,,,,,0,000000,,,,,
003491-20211003-112724-000000161,220003491       ,2.4039961920,102.8364091103,16.3470401764,0.00000000,0.00000000,55.7778519323,22.749,3.274,5.405,-0.069,2021-10-03,03:28:48.749996,1633231728,749996,0000,5A4F,1,1,3.172,GPS-3.0,5,0.151,0.142,0.310,0.808,1.558,0,4,10,4,0,0,3,,,,,,,,,,,0,000000,,,,,
003491-20211003-112724-000000162,220003491       ,2.4040113870,102.8364327498,16.4378433228,0.00000000,0.00000000,57.7245992797,22.088,3.355,5.137,-0.099,2021-10-03,03:28:49.249996,1633231729,249996,0000,5A4F,1,1,3.123,GPS-3.0,5,0.152,0.142,0.310,0.861,1.581,0,4,10,4,0,0,3,,,,,,,,,,,0,000000,,,,,
003491-20211003-112724-000000163,220003491       ,2.4040255303,102.8364567219,16.4637165070,0.00000000,0.00000000,59.3960490225,22.380,2.913,5.492,0.027,2021-10-03,03:28:49.750222,1633231729,750222,0000,5A4F,1,1,3.093,GPS-3.0,5,0.152,0.143,0.311,0.865,1.692,0,4,10,4,0,0,3,,,,,,,,,,,0,000000,,,,,
003491-20211003-112724-000000164,220003491       ,2.4040393159,102.8364811363,16.5040607452,0.00000000,0.00000000,60.7808903673,22.214,3.256,5.242,-0.018,2021-10-03,03:28:50.249995,1633231730,249995,0000,5A4F,1,1,3.116,GPS-3.0,5,0.152,0.143,0.312,0.865,1.692,0,4,10,4,0,0,3,,,,,,,,,,,0,000000,,,,,
003491-20211003-112724-000000165,220003491       ,2.4040527954,102.8365058297,16.5131072998,0.00000000,0.00000000,61.4520725664,24.772,2.178,6.527,0.093,2021-10-03,03:28:50.749995,1633231730,749995,0000,5A4F,1,1,3.126,GPS-3.0,5,0.153,0.144,0.312,0.865,1.692,0,4,10,4,0,0,3,,,,,,,,,,,0,000000,,,,,
003491-20211003-112724-000000166,220003491       ,2.4040662826,102.8365302486,16.4761371613,0.00000000,0.00000000,61.6210309559,21.753,3.351,5.028,0.133,2021-10-03,03:28:51.249995,1633231731,249995,0000,5A4F,1,1,3.100,GPS-3.0,5,0.153,0.143,0.312,0.808,1.557,0,4,10,4,0,0,3,,,,,,,,,,,0,000000,,,,,
003491-20211003-112724-000000167,220003491       ,2.4040800215,102.8365548845,16.4602909088,0.00000000,0.00000000,61.0769312565,22.414,3.114,5.391,0.216,2021-10-03,03:28:51.749995,1633231731,749995,0000,5A4F,1,1,3.134,GPS-3.0,5,0.153,0.143,0.312,0.808,1.557,0,4,10,4,0,0,3,,,,,,,,,,,0,000000,,,,,
003491-20211003-112724-000000168,220003491       ,2.4040950600,102.8365798675,16.3919277191,0.00000000,0.00000000,59.9440897411,23.483,3.147,5.714,0.344,2021-10-03,03:28:52.250121,1633231732,250121,0000,5A4F,1,1,3.240,GPS-3.0,5,0.154,0.142,0.312,0.808,1.557,0,4,10,4,0,0,3,,,,,,,,,,,0,000000,,,,,
003491-20211003-112724-000000169,220003491       ,2.4041102196,102.8366053381,16.2668056488,0.00000000,0.00000000,58.9740799356,23.953,3.463,5.682,0.346,2021-10-03,03:28:52.749995,1633231732,749995,0000,5A4F,1,1,3.294,GPS-3.0,5,0.154,0.142,0.313,0.865,1.692,0,4,10,4,0,0,3,,,,,,,,,,,0,000000,,,,,
003491-20211003-112724-000000170,220003491       ,2.4041248425,102.8366283238,16.1102180481,0.00000000,0.00000000,58.0261862825,24.297,3.742,5.617,0.379,2021-10-03,03:28:53.200002,1633231733,200002,0000,5A4F,1,1,3.027,GPS-3.0,5,0.154,0.142,0.313,0.808,1.557,0,4,10,4,0,0,3,,,,,,,,,,,0,000000,,,,,
003491-20211003-112724-000000171,220003491       ,2.4041406002,102.8366517095,15.9316625595,0.00000000,0.00000000,57.0783370258,24.960,4.084,5.603,0.398,2021-10-03,03:28:53.650215,1633231733,650215,0000,5A4F,1,1,3.134,GPS-3.0,5,0.153,0.143,0.313,0.865,1.692,0,4,10,4,0,0,3,,,,,,,,,,,0,000000,,,,,
003491-20211003-112724-000000172,220003491       ,2.4041565980,102.8366747166,15.7180147171,0.00000000,0.00000000,56.0811191617,25.934,4.174,5.871,0.433,2021-10-03,03:28:54.100035,1633231734,100035,0000,5A4F,1,1,3.114,GPS-3.0,5,0.154,0.143,0.314,0.865,1.692,0,4,10,4,0,0,3,,,,,,,,,,,0,000000,,,,,
003491-20211003-112724-000000173,220003491       ,2.4041729268,102.8366987994,15.5880756378,0.00000000,0.00000000,55.5978422967,25.890,4.141,5.880,0.442,2021-10-03,03:28:54.549995,1633231734,549995,0000,5A4F,1,1,3.233,GPS-3.0,5,0.153,0.143,0.313,0.808,1.557,0,4,10,4,0,0,4,,,,,,,,,,,0,000000,,,,,
003491-20211003-112724-000000174,220003491       ,2.4041896616,102.8367227656,15.4020814896,0.00000000,0.00000000,56.2910791767,27.098,3.975,6.392,0.447,2021-10-03,03:28:55.000010,1633231735,000010,0000,5A4F,1,1,3.248,GPS-3.0,5,0.153,0.142,0.313,0.808,1.557,0,4,10,4,0,0,4,,,,,,,,,,,0,000000,,,,,
003491-20211003-112724-000000175,220003491       ,2.4042056755,102.8367480189,15.1984014511,0.00000000,0.00000000,57.7364155070,26.645,3.901,6.290,0.516,2021-10-03,03:28:55.449996,1633231735,449996,0000,5A4F,1,1,3.323,GPS-3.0,5,0.154,0.143,0.314,0.808,1.557,0,4,10,4,0,0,4,,,,,,,,,,,0,000000,,,,,
003491-20211003-112724-000000176,220003491       ,2.4042213394,102.8367738728,15.0187215805,0.00000000,0.00000000,59.1769843652,27.080,3.695,6.552,0.434,2021-10-03,03:28:55.900000,1633231735,900000,0000,5A4F,1,1,3.359,GPS-3.0,5,0.154,0.143,0.314,0.808,1.557,0,4,10,4,0,0,4,,,,,,,,,,,0,000000,,,,,
003491-20211003-112724-000000177,220003491       ,2.4042345947,102.8367977918,14.9130916595,0.00000000,0.00000000,60.3168336547,26.767,3.704,6.447,0.433,2021-10-03,03:28:56.300000,1633231736,300000,0000,5A4F,1,1,3.039,GPS-3.0,5,0.154,0.144,0.315,0.808,1.557,0,4,10,4,0,0,4,,,,,,,,,,,0,000000,,,,,
003491-20211003-112724-000000178,220003491       ,2.4042482335,102.8368220061,14.7954940796,0.00000000,0.00000000,60.7052801732,27.318,4.035,6.427,0.363,2021-10-03,03:28:56.700046,1633231736,700046,0000,5A4F,1,1,3.088,GPS-3.0,5,0.154,0.143,0.314,0.865,1.691,0,4,10,4,0,0,4,,,,,,,,,,,0,000000,,,,,
003491-20211003-112724-000000179,220003491       ,2.4042617763,102.8368466265,14.6943140030,0.00000000,0.00000000,61.0052825721,27.908,3.643,6.843,0.434,2021-10-03,03:28:57.100006,1633231737,100006,0000,5A4F,1,1,3.122,GPS-3.0,5,0.154,0.143,0.314,0.865,1.691,0,4,10,4,0,0,4,,,,,,,,,,,0,000000,,,,,
003491-20211003-112724-000000180,220003491       ,2.4042754192,102.8368712965,14.5188941956,0.00000000,0.00000000,60.8041471614,28.232,4.046,6.718,0.432,2021-10-03,03:28:57.500000,1633231737,500000,0000,5A4F,1,1,3.133,GPS-3.0,5,0.155,0.143,0.315,0.808,1.557,0,4,10,4,0,0,4,,,,,,,,,,,0,000000,,,,,
003491-20211003-112724-000000181,220003491       ,2.4042893140,102.8368962677,14.3672695160,0.00000000,0.00000000,60.4045332836,29.237,3.673,7.243,0.407,2021-10-03,03:28:57.900000,1633231737,900000,0000,5A4F,1,1,3.175,GPS-3.0,5,0.155,0.144,0.315,0.865,1.691,0,4,10,4,0,0,4,,,,,,,,,,,0,000000,,,,,
003491-20211003-112724-000000182,220003491       ,2.4043039037,102.8369211461,14.2040157318,0.00000000,0.00000000,59.5564696755,28.697,4.572,6.530,0.387,2021-10-03,03:28:58.300240,1633231738,300240,0000,5A4F,1,1,3.205,GPS-3.0,5,0.155,0.144,0.316,0.808,1.557,0,4,10,4,0,0,4,,,,,,,,,,,0,000000,,,,,
003491-20211003-112724-000000183,220003491       ,2.4043186966,102.8369461220,14.0661077499,0.00000000,0.00000000,58.4837406550,28.398,4.233,6.656,0.407,2021-10-03,03:28:58.700000,1633231738,700000,0000,5A4F,1,1,3.226,GPS-3.0,5,0.155,0.144,0.317,0.808,1.556,0,4,10,4,0,0,4,,,,,,,,,,,0,000000,,,,,
003491-20211003-112724-000000184,220003491       ,2.4043341897,102.8369709493,13.9292907715,0.00000000,0.00000000,57.3710140468,29.180,4.575,6.691,0.415,2021-10-03,03:28:59.100000,1633231739,100000,0000,5A4F,1,1,3.252,GPS-3.0,5,0.155,0.144,0.317,0.808,1.556,0,4,10,4,0,0,4,,,,,,,,,,,0,000000,,,,,
003491-20211003-112724-000000185,220003491       ,2.4043503867,102.8369956168,13.7701129913,0.00000000,0.00000000,56.6911814130,29.883,4.526,6.958,0.431,2021-10-03,03:28:59.500175,1633231739,500175,0000,5A4F,1,1,3.279,GPS-3.0,5,0.155,0.145,0.318,0.808,1.556,0,4,10,4,0,0,4,,,,,,,,,,,0,000000,,,,,
003491-20211003-112724-000000186,220003491       ,2.4043669354,102.8370202247,13.6051845551,0.00000000,0.00000000,56.1208572022,29.834,4.778,6.771,0.474,2021-10-03,03:28:59.900000,1633231739,900000,0000,5A4F,1,1,3.295,GPS-3.0,5,0.155,0.145,0.318,0.808,1.556,0,4,10,4,0,0,4,,,,,,,,,,,0,000000,,,,,
003491-20211003-112724-000000187,220003491       ,2.4043839642,102.8370448269,13.4616680145,0.00000000,0.00000000,55.4912879306,30.168,4.638,6.979,0.454,2021-10-03,03:29:00.300001,1633231740,300001,0000,5A4F,1,1,3.325,GPS-3.0,5,0.155,0.145,0.319,0.808,1.556,0,4,10,4,0,0,4,,,,,,,,,,,0,000000,,,,,
003491-20211003-112724-000000188,220003491       ,2.4044012459,102.8370694978,13.3372879028,0.00000000,0.00000000,54.5212439741,29.481,4.896,6.565,0.431,2021-10-03,03:29:00.700076,1633231740,700076,0000,5A4F,1,1,3.347,GPS-3.0,5,0.155,0.145,0.318,0.865,1.691,0,4,10,4,0,0,4,,,,,,,,,,,0,000000,,,,,
003491-20211003-112724-000000189,220003491       ,2.4044189280,102.8370942912,13.2194366455,0.00000000,0.00000000,53.4087734979,30.491,4.757,7.008,0.438,2021-10-03,03:29:01.100000,1633231741,100000,0000,5A4F,1,1,3.384,GPS-3.0,5,0.155,0.145,0.318,0.865,1.691,0,4,10,4,0,0,4,,,,,,,,,,,0,000000,,,,,
003491-20211003-112724-000000190,220003491       ,2.4044351280,102.8371159143,12.9778919220,0.00000000,0.00000000,52.3619548001,30.976,5.302,6.777,0.405,2021-10-03,03:29:01.450160,1633231741,450160,0000,5A4F,1,1,3.003,GPS-3.0,5,0.155,0.146,0.319,0.865,1.691,0,4,10,4,0,0,4,,,,,,,,,,,0,000000,,,,,
003491-20211003-112724-000000191,220003491       ,2.4044536674,102.8371401528,12.8487987518,0.00000000,0.00000000,51.9635293752,30.110,5.297,6.473,0.403,2021-10-03,03:29:01.849996,1633231741,849996,0000,5A4F,1,1,3.391,GPS-3.0,5,0.156,0.147,0.320,0.865,1.691,0,4,10,4,0,0,4,,,,,,,,,,,0,000000,,,,,
003491-20211003-112724-000000192,220003491       ,2.4044718810,102.8371634243,12.6914081573,0.00000000,0.00000000,52.3464605160,29.163,4.767,6.550,0.375,2021-10-03,03:29:02.249997,1633231742,249997,0000,5A4F,1,1,3.284,GPS-3.0,5,0.158,0.148,0.321,0.865,1.691,0,4,9,4,0,0,3,,,,,,,,,,,0,000000,,,,,
003491-20211003-112724-000000193,220003491       ,2.4044893679,102.8371853580,12.6045370102,0.00000000,0.00000000,51.9260589574,27.246,4.693,5.937,0.315,2021-10-03,03:29:02.650076,1633231742,650076,0000,5A4F,1,1,3.117,GPS-3.0,5,0.158,0.148,0.322,0.865,1.690,0,4,9,4,0,0,3,,,,,,,,,,,0,000000,,,,,
003491-20211003-112724-000000194,220003491       ,2.4045078123,102.8372080814,12.6160717010,0.00000000,0.00000000,51.4733608494,25.334,4.256,5.604,0.175,2021-10-03,03:29:03.100000,1633231743,100000,0000,5A4F,1,1,3.253,GPS-3.0,5,0.158,0.149,0.323,0.865,1.690,0,4,9,4,0,0,3,,,,,,,,,,,0,000000,,,,,
003491-20211003-112724-000000195,220003491       ,2.4045263014,102.8372315205,12.4807519913,0.00000000,0.00000000,50.2692804610,24.262,4.128,5.327,0.130,2021-10-03,03:29:03.600014,1633231743,600014,0000,5A4F,1,1,3.318,GPS-3.0,5,0.159,0.149,0.323,0.865,1.690,0,4,10,4,0,0,3,,,,,,,,,,,0,000000,,,,,
003491-20211003-112724-000000196,220003491       ,2.4045454894,102.8372527677,12.4338417053,0.00000000,0.00000000,48.5679213199,22.561,4.332,4.529,0.107,2021-10-03,03:29:04.100000,1633231744,100000,0000,5A4F,1,1,3.182,GPS-3.0,5,0.158,0.149,0.323,0.902,1.956,0,4,10,4,0,0,3,,,,,,,,,,,0,000000,,,,,
003491-20211003-112724-000000197,220003491       ,2.4045640225,102.8372728881,12.4298648834,0.00000000,0.00000000,47.9651946917,21.032,4.002,4.257,0.159,2021-10-03,03:29:04.600065,1633231744,600065,0000,5A4F,1,1,3.040,GPS-3.0,5,0.157,0.149,0.322,0.902,1.956,0,4,10,3,0,0,3,,,,,,,,,,,0,000000,,,,,
003491-20211003-112724-000000198,220003491       ,2.4045832155,102.8372923361,12.4405517578,0.00000000,0.00000000,46.7992165136,19.174,3.819,3.713,0.130,2021-10-03,03:29:05.150000,1633231745,150000,0000,5A4F,1,1,3.037,GPS-3.0,5,0.158,0.150,0.323,0.865,1.690,0,4,10,3,0,0,3,,,,,,,,,,,0,000000,,,,,
003491-20211003-112724-000000199,220003491       ,2.4046037619,102.8373119054,12.4087543488,0.00000000,0.00000000,45.8479043509,16.857,3.224,3.396,0.121,2021-10-03,03:29:05.800003,1633231745,800003,0000,5A4F,1,1,3.154,GPS-3.0,5,0.159,0.151,0.325,0.807,1.556,0,4,10,4,0,0,2,,,,,,,,,,,0,000000,,,,,
