#0:imgID,1:camSN,2:lat,3:lon,4:height,5:roll,6:pitch,7:heading,8:speed,9:speed_n,10:speed_e,11:speed_d,12:date,13:time,14:unix_time_sec,15:unix_time_microsec,16:systemStatus,17:filterStatus,18:haveFix,19:extVelocity,20:distancetoprevious,21:releaseMode,22:device_id,23:lat_dev,24:lon_dev,25:hei_dev,26:hdop,27:vdop,28:fs_10,29:gnss_fix_status,30:gps_sat,31:glonass_sat,32:beidu_sat,33:gal_sat,34:sbas_sat,35:custLog0,36:custLog1,37:custLog2,38:custLog3,39:custLog4,40:custLog5,41:custLog6,42:custLog7,43:custLog8,44:custLog9,45:unix_time_sec_fixed,46:unix_time_microsec_fixed,47:pnvgbss_field3,48:pnvgbss_field4,49:pnvgbss_field5,50:pnvgbss_field6,51:pnvgbss_field7
003491-20211003-111655-000000001,220003491       ,2.4015589793,102.8393717949,21.2545890808,0.00000000,0.00000000,293.1529759318,12.837,1.561,-3.206,0.062,2021-10-03,03:16:54.550037,1633231014,550037,0000,5A4F,1,1,0.000,GPS-3.0,5,0.143,0.102,0.255,0.798,1.597,0,4,10,4,0,0,4,,,,,,,,,,,0,000000,,,,,
003491-20211003-111655-000000002,220003491       ,2.4015716939,102.8393475566,21.2948818207,0.00000000,0.00000000,297.5242970006,14.979,2.373,-3.418,0.060,2021-10-03,03:16:55.349995,1633231015,349995,0000,5A4F,1,1,3.041,GPS-3.0,5,0.143,0.102,0.255,0.839,1.639,0,4,10,4,0,0,4,,,,,,,,,,,0,000000,,,,,
003491-20211003-111655-000000003,220003491       ,2.4015862951,102.8393229742,21.3021812439,0.00000000,0.00000000,300.1218725834,15.651,2.108,-3.802,0.036,2021-10-03,03:16:56.100006,1633231016,100006,0000,5A4F,1,1,3.177,GPS-3.0,5,0.141,0.102,0.254,0.798,1.596,0,4,10,4,0,0,4,,,,,,,,,,,0,000000,,,,,
003491-20211003-111655-000000004,220003491       ,2.4016004322,102.8392994558,21.2434406281,0.00000000,0.00000000,300.9462490955,17.718,2.486,-4.248,0.082,2021-10-03,03:16:56.750001,1633231016,750001,0000,5A4F,1,1,3.049,GPS-3.0,5,0.141,0.103,0.255,0.910,1.961,0,4,10,4,0,0,4,,,,,,,,,,,0,000000,,,,,
003491-20211003-111655-000000005,220003491       ,2.4016147076,102.8392757475,21.2019519806,0.00000000,0.00000000,300.6655009999,19.253,2.793,-4.561,0.123,2021-10-03,03:16:57.349996,1633231017,349996,0000,5A4F,1,1,3.075,GPS-3.0,5,0.142,0.103,0.256,0.886,1.796,0,4,10,4,0,0,4,,,,,,,,,,,0,000000,,,,,
003491-20211003-111655-000000006,220003491       ,2.4016279108,102.8392518434,21.1132774353,0.00000000,0.00000000,298.7815435815,20.641,3.308,-4.683,0.255,2021-10-03,03:16:57.900000,1633231017,900000,0000,5A4F,1,1,3.034,GPS-3.0,5,0.143,0.104,0.257,0.839,1.639,0,4,10,4,0,0,4,,,,,,,,,,,0,000000,,,,,
003491-20211003-111655-000000007,220003491       ,2.4016407775,102.8392270866,20.9150943756,0.00000000,0.00000000,296.2138569064,20.183,2.400,-5.067,0.307,2021-10-03,03:16:58.450037,1633231018,450037,0000,5A4F,1,1,3.100,GPS-3.0,5,0.143,0.105,0.257,0.746,1.416,0,4,10,4,0,0,4,,,,,,,,,,,0,000000,,,,,
003491-20211003-111655-000000008,220003491       ,2.4016528153,102.8392014914,20.7230815887,0.00000000,0.00000000,293.9801118402,21.255,1.829,-5.614,0.296,2021-10-03,03:16:59.000244,1633231019,000244,0000,5A4F,1,1,3.143,GPS-3.0,5,0.145,0.108,0.260,0.746,1.415,0,4,10,4,0,0,4,,,,,,,,,,,0,000000,,,,,
003491-20211003-111655-000000009,220003491       ,2.4016635607,102.8391747111,20.4975166321,0.00000000,0.00000000,293.1323487605,20.871,1.980,-5.449,0.376,2021-10-03,03:16:59.550156,1633231019,550156,0000,5A4F,1,1,3.206,GPS-3.0,5,0.147,0.109,0.262,0.746,1.415,0,4,10,4,0,0,4,,,,,,,,,,,0,000000,,,,,
003491-20211003-111655-000000010,220003491       ,2.4016737351,102.8391491690,20.3597297668,0.00000000,0.00000000,293.1089075512,21.479,2.222,-5.537,0.382,2021-10-03,03:17:00.049996,1633231020,049996,0000,5A4F,1,1,3.055,GPS-3.0,5,0.147,0.111,0.263,0.746,1.415,0,4,10,4,0,0,4,,,,,,,,,,,0,000000,,,,,
003491-20211003-111655-000000011,220003491       ,2.4016838544,102.8391240117,20.1997184753,0.00000000,0.00000000,292.8133242847,21.971,1.855,-5.814,0.370,2021-10-03,03:17:00.549996,1633231020,549996,0000,5A4F,1,1,3.013,GPS-3.0,5,0.148,0.112,0.265,0.782,1.425,0,4,10,4,0,0,4,,,,,,,,,,,0,000000,,,,,
003491-20211003-111655-000000012,220003491       ,2.4016945322,102.8390985115,20.0334606171,0.00000000,0.00000000,292.7791733389,22.470,2.532,-5.705,0.488,2021-10-03,03:17:01.050039,1633231021,050039,0000,5A4F,1,1,3.072,GPS-3.0,5,0.149,0.113,0.266,0.746,1.415,0,4,10,4,0,0,4,,,,,,,,,,,0,000000,,,,,
003491-20211003-111655-000000013,220003491       ,2.4017058924,102.8390726336,19.8994388580,0.00000000,0.00000000,293.0195413561,22.862,2.524,-5.827,0.404,2021-10-03,03:17:01.549996,1633231021,549996,0000,5A4F,1,1,3.140,GPS-3.0,5,0.149,0.114,0.267,0.778,1.345,0,4,10,4,0,0,4,,,,,,,,,,,0,000000,,,,,
003491-20211003-111655-000000014,220003491       ,2.4017167845,102.8390459243,19.7339801788,0.00000000,0.00000000,292.9992693547,23.886,2.970,-5.933,0.381,2021-10-03,03:17:02.050089,1633231022,050089,0000,5A4F,1,1,3.205,GPS-3.0,5,0.150,0.115,0.268,0.778,1.345,0,4,10,4,0,0,4,,,,,,,,,,,0,000000,,,,,
003491-20211003-111655-000000015,220003491       ,2.4017276795,102.8390190517,19.6166267395,0.00000000,0.00000000,292.9030729704,22.536,1.791,-5.998,0.248,2021-10-03,03:17:02.549996,1633231022,549996,0000,5A4F,1,1,3.222,GPS-3.0,5,0.151,0.115,0.269,0.809,1.364,0,4,10,4,0,0,3,,,,,,,,,,,0,000000,,,,,
003491-20211003-111655-000000016,220003491       ,2.4017395602,102.8389913915,19.4045658112,0.00000000,0.00000000,292.7579724317,24.555,2.856,-6.194,0.369,2021-10-03,03:17:03.049996,1633231023,049996,0000,5A4F,1,1,3.345,GPS-3.0,5,0.151,0.116,0.270,0.691,1.208,0,4,10,4,0,0,3,,,,,,,,,,,0,000000,,,,,
003491-20211003-111655-000000017,220003491       ,2.4017497859,102.8389658023,19.3098945618,0.00000000,0.00000000,292.5897312120,24.158,2.481,-6.235,0.333,2021-10-03,03:17:03.500000,1633231023,500000,0000,5A4F,1,1,3.062,GPS-3.0,5,0.150,0.116,0.270,0.778,1.345,0,4,10,4,0,0,3,,,,,,,,,,,0,000000,,,,,
003491-20211003-111655-000000018,220003491       ,2.4017599104,102.8389402814,19.1723365784,0.00000000,0.00000000,292.8508903251,24.508,2.886,-6.166,0.333,2021-10-03,03:17:03.949996,1633231023,949996,0000,5A4F,1,1,3.051,GPS-3.0,5,0.150,0.116,0.270,0.831,1.355,0,4,10,4,0,0,3,,,,,,,,,,,0,000000,,,,,
003491-20211003-111655-000000019,220003491       ,2.4017710042,102.8389148324,18.9582920074,0.00000000,0.00000000,293.2995791121,26.119,3.221,-6.501,0.368,2021-10-03,03:17:04.400002,1633231024,400002,0000,5A4F,1,1,3.085,GPS-3.0,5,0.151,0.117,0.271,0.838,1.639,0,4,10,4,0,0,4,,,,,,,,,,,0,000000,,,,,
003491-20211003-111655-000000020,220003491       ,2.4017819531,102.8388892648,18.7410945892,0.00000000,0.00000000,293.5022718059,24.260,2.689,-6.179,0.451,2021-10-03,03:17:04.850229,1633231024,850229,0000,5A4F,1,1,3.090,GPS-3.0,5,0.151,0.117,0.272,0.746,1.415,0,4,10,4,0,0,4,,,,,,,,,,,0,000000,,,,,
003491-20211003-111655-000000021,220003491       ,2.4017930327,102.8388634173,18.4822196960,0.00000000,0.00000000,293.0975694372,24.824,2.401,-6.464,0.490,2021-10-03,03:17:05.300150,1633231025,300150,0000,5A4F,1,1,3.125,GPS-3.0,5,0.153,0.118,0.273,0.691,1.207,0,4,10,4,0,0,4,,,,,,,,,,,0,000000,,,,,
003491-20211003-111655-000000022,220003491       ,2.4018035181,102.8388370861,18.3367862701,0.00000000,0.00000000,292.8197173418,25.500,2.340,-6.686,0.452,2021-10-03,03:17:05.749996,1633231025,749996,0000,5A4F,1,1,3.149,GPS-3.0,5,0.153,0.119,0.274,0.691,1.207,0,4,10,4,0,0,4,,,,,,,,,,,0,000000,,,,,
003491-20211003-111655-000000023,220003491       ,2.4018142763,102.8388108540,18.2169914246,0.00000000,0.00000000,292.8897950827,24.814,2.284,-6.503,0.387,2021-10-03,03:17:06.200001,1633231026,200001,0000,5A4F,1,1,3.150,GPS-3.0,5,0.154,0.119,0.275,0.691,1.207,0,4,10,4,0,0,3,,,,,,,,,,,0,000000,,,,,
003491-20211003-111655-000000024,220003491       ,2.4018258962,102.8387845469,18.1284732819,0.00000000,0.00000000,293.2248295218,25.290,2.574,-6.536,0.350,2021-10-03,03:17:06.649995,1633231026,649995,0000,5A4F,1,1,3.196,GPS-3.0,5,0.152,0.119,0.274,0.778,1.344,0,4,10,4,0,0,3,,,,,,,,,,,0,000000,,,,,
003491-20211003-111655-000000025,220003491       ,2.4018371760,102.8387585770,17.9728469849,0.00000000,0.00000000,293.3207526985,23.991,2.332,-6.243,0.387,2021-10-03,03:17:07.099999,1633231027,099999,0000,5A4F,1,1,3.146,GPS-3.0,5,0.153,0.120,0.274,0.778,1.344,0,4,10,4,0,0,3,,,,,,,,,,,0,000000,,,,,
003491-20211003-111655-000000026,220003491       ,2.4018488646,102.8387324140,17.8891067505,0.00000000,0.00000000,293.4595421425,21.695,2.780,-5.347,0.376,2021-10-03,03:17:07.600001,1633231027,600001,0000,5A4F,1,1,3.184,GPS-3.0,5,0.152,0.119,0.273,0.844,1.443,0,4,10,4,0,0,3,,,,,,,,,,,0,000000,,,,,
003491-20211003-111655-000000027,220003491       ,2.4018603825,102.8387064350,17.8081836700,0.00000000,0.00000000,293.5083916554,17.159,1.676,-4.462,0.253,2021-10-03,03:17:08.200038,1633231028,200038,0000,5A4F,1,1,3.158,GPS-3.0,5,0.152,0.118,0.271,0.885,1.795,0,4,10,4,0,0,3,,,,,,,,,,,0,000000,,,,,
003491-20211003-111655-000000028,220003491       ,2.4018715528,102.8386812498,17.5771770477,0.00000000,0.00000000,293.4074141387,10.813,1.130,-2.783,0.249,2021-10-03,03:17:09.000010,1633231029,000010,0000,5A4F,1,1,3.061,GPS-3.0,5,0.153,0.119,0.272,0.880,1.693,0,4,10,4,0,0,3,,,,,,,,,,,0,000000,,,,,
003491-20211003-111655-000000029,220003491       ,2.4018830567,102.8386568192,18.0909290314,0.00000000,0.00000000,293.4523021419,3.218,0.399,-0.800,0.037,2021-10-03,03:17:18.049996,1633231038,049996,0000,5A4F,1,1,3.001,GPS-3.0,5,0.152,0.122,0.278,0.746,1.414,0,4,10,4,0,0,4,,,,,,,,,,,0,000000,,,,,
003491-20211003-111655-000000030,220003491       ,2.4018943436,102.8386307674,18.2302932739,0.00000000,0.00000000,292.6597269907,12.538,1.165,-3.282,0.028,2021-10-03,03:17:19.400002,1633231039,400002,0000,5A4F,1,1,3.155,GPS-3.0,5,0.153,0.120,0.276,0.778,1.344,0,4,10,4,0,0,4,,,,,,,,,,,0,000000,,,,,
003491-20211003-111655-000000031,220003491       ,2.4019052348,102.8386059855,18.1658382416,0.00000000,0.00000000,293.6241223807,16.864,1.827,-4.314,0.081,2021-10-03,03:17:20.099999,1633231040,099999,0000,5A4F,1,1,3.008,GPS-3.0,5,0.154,0.120,0.277,0.746,1.414,0,4,10,4,0,0,4,,,,,,,,,,,0,000000,,,,,
003491-20211003-111655-000000032,220003491       ,2.4019176187,102.8385796259,18.0611743927,0.00000000,0.00000000,295.0477796905,19.968,1.813,-5.242,0.140,2021-10-03,03:17:20.699999,1633231040,699999,0000,5A4F,1,1,3.236,GPS-3.0,5,0.154,0.121,0.277,0.756,1.329,0,4,10,4,0,0,4,,,,,,,,,,,0,000000,,,,,
003491-20211003-111655-000000033,220003491       ,2.4019305496,102.8385528648,17.9770164490,0.00000000,0.00000000,295.4286037179,21.675,2.532,-5.463,0.181,2021-10-03,03:17:21.249995,1633231041,249995,0000,5A4F,1,1,3.303,GPS-3.0,5,0.152,0.120,0.275,0.798,1.593,0,4,10,4,0,0,4,,,,,,,,,,,0,000000,,,,,
003491-20211003-111655-000000034,220003491       ,2.4019430727,102.8385269319,17.9392871857,0.00000000,0.00000000,295.4467173796,23.238,2.769,-5.831,0.181,2021-10-03,03:17:21.750227,1633231041,750227,0000,5A4F,1,1,3.200,GPS-3.0,5,0.152,0.120,0.275,0.798,1.593,0,4,10,4,0,0,4,,,,,,,,,,,0,000000,,,,,
003491-20211003-111655-000000035,220003491       ,2.4019551017,102.8385008650,17.8153305054,0.00000000,0.00000000,295.2855795567,23.223,2.785,-5.819,0.205,2021-10-03,03:17:22.249995,1633231042,249995,0000,5A4F,1,1,3.190,GPS-3.0,5,0.153,0.119,0.275,0.690,1.206,0,4,10,4,0,0,4,,,,,,,,,,,0,000000,,,,,
003491-20211003-111655-000000036,220003491       ,2.4019672301,102.8384744539,17.7256336212,0.00000000,0.00000000,294.4793440271,23.353,2.626,-5.932,0.182,2021-10-03,03:17:22.750009,1633231042,750009,0000,5A4F,1,1,3.229,GPS-3.0,5,0.153,0.119,0.275,0.690,1.206,0,4,10,4,0,0,4,,,,,,,,,,,0,000000,,,,,
003491-20211003-111655-000000037,220003491       ,2.4019794735,102.8384476332,17.6554489136,0.00000000,0.00000000,293.6226743806,23.324,2.857,-5.815,0.186,2021-10-03,03:17:23.249995,1633231043,249995,0000,5A4F,1,1,3.276,GPS-3.0,5,0.154,0.120,0.276,0.756,1.329,0,4,10,4,0,0,4,,,,,,,,,,,0,000000,,,,,
003491-20211003-111655-000000038,220003491       ,2.4019907198,102.8384211032,17.5888519287,0.00000000,0.00000000,292.8636491185,21.721,2.026,-5.683,0.179,2021-10-03,03:17:23.749995,1633231043,749995,0000,5A4F,1,1,3.202,GPS-3.0,5,0.154,0.120,0.276,0.798,1.593,0,4,10,4,0,0,4,,,,,,,,,,,0,000000,,,,,
003491-20211003-111655-000000039,220003491       ,2.4020012041,102.8383962160,17.5886135101,0.00000000,0.00000000,293.1857335190,21.083,2.407,-5.339,0.097,2021-10-03,03:17:24.250157,1633231044,250157,0000,5A4F,1,1,3.001,GPS-3.0,5,0.155,0.121,0.277,0.756,1.329,0,4,10,4,0,0,4,,,,,,,,,,,0,000000,,,,,
003491-20211003-111655-000000040,220003491       ,2.4020127877,102.8383695458,17.4511375427,0.00000000,0.00000000,294.3042179767,17.837,1.923,-4.566,0.145,2021-10-03,03:17:24.849995,1633231044,849995,0000,5A4F,1,1,3.231,GPS-3.0,5,0.156,0.121,0.278,0.885,1.793,0,4,10,4,0,0,4,,,,,,,,,,,0,000000,,,,,
003491-20211003-111655-000000041,220003491       ,2.4020242417,102.8383438782,17.3490734100,0.00000000,0.00000000,295.0044489704,15.400,1.605,-3.965,0.144,2021-10-03,03:17:25.550151,1633231045,550151,0000,5A4F,1,1,3.123,GPS-3.0,5,0.157,0.122,0.280,0.982,2.158,0,4,10,4,0,0,4,,,,,,,,,,,0,000000,,,,,
003491-20211003-111655-000000042,220003491       ,2.4020367742,102.8383185720,17.3750000000,0.00000000,0.00000000,296.7933574763,15.486,1.952,-3.833,0.134,2021-10-03,03:17:26.300231,1633231046,300231,0000,5A4F,1,1,3.138,GPS-3.0,5,0.156,0.122,0.279,0.845,1.595,0,4,9,4,0,0,4,,,,,,,,,,,0,000000,,,,,
003491-20211003-111655-000000043,220003491       ,2.4020509057,102.8382939609,17.4455623627,0.00000000,0.00000000,299.3697867935,15.594,2.230,-3.714,0.069,2021-10-03,03:17:27.050035,1633231047,050035,0000,5A4F,1,1,3.154,GPS-3.0,5,0.154,0.120,0.277,0.848,1.420,0,4,9,4,0,0,4,,,,,,,,,,,0,000000,,,,,
003491-20211003-111655-000000044,220003491       ,2.4020665052,102.8382700262,17.5033969879,0.00000000,0.00000000,301.0934806532,17.230,2.553,-4.048,0.037,2021-10-03,03:17:27.749995,1633231047,749995,0000,5A4F,1,1,3.175,GPS-3.0,5,0.154,0.120,0.277,0.848,1.420,0,4,10,4,0,0,4,,,,,,,,,,,0,000000,,,,,
003491-20211003-111655-000000045,220003491       ,2.4020808054,102.8382468661,17.4323005676,0.00000000,0.00000000,301.4895223421,18.454,2.598,-4.419,0.100,2021-10-03,03:17:28.350036,1633231048,350036,0000,5A4F,1,1,3.025,GPS-3.0,5,0.155,0.121,0.278,0.756,1.329,0,4,10,4,0,0,4,,,,,,,,,,,0,000000,,,,,
003491-20211003-111655-000000046,220003491       ,2.4020956151,102.8382232383,17.4213027954,0.00000000,0.00000000,302.0015406430,21.207,3.207,-4.941,0.087,2021-10-03,03:17:28.900231,1633231048,900231,0000,5A4F,1,1,3.099,GPS-3.0,5,0.156,0.121,0.279,0.756,1.329,0,4,10,4,0,0,4,,,,,,,,,,,0,000000,,,,,
003491-20211003-111655-000000047,220003491       ,2.4021109464,102.8381979451,17.3445453644,0.00000000,0.00000000,300.7789641023,21.531,2.776,-5.298,0.130,2021-10-03,03:17:29.450150,1633231049,450150,0000,5A4F,1,1,3.287,GPS-3.0,5,0.156,0.122,0.279,0.844,1.441,0,4,10,4,0,0,4,,,,,,,,,,,0,000000,,,,,
003491-20211003-111655-000000048,220003491       ,2.4021247624,102.8381737890,17.2773456573,0.00000000,0.00000000,299.2892725236,22.300,3.151,-5.333,0.127,2021-10-03,03:17:29.949996,1633231049,949996,0000,5A4F,1,1,3.092,GPS-3.0,5,0.156,0.123,0.280,0.848,1.420,0,4,10,4,0,0,4,,,,,,,,,,,0,000000,,,,,
003491-20211003-111655-000000049,220003491       ,2.4021384764,102.8381494808,17.2259502411,0.00000000,0.00000000,298.7336229742,22.138,2.716,-5.517,0.125,2021-10-03,03:17:30.449996,1633231050,449996,0000,5A4F,1,1,3.101,GPS-3.0,5,0.155,0.124,0.280,0.798,1.592,0,4,10,4,0,0,4,,,,,,,,,,,0,000000,,,,,
003491-20211003-111655-000000050,220003491       ,2.4021526713,102.8381254262,17.2139816284,0.00000000,0.00000000,299.5775611481,22.648,3.224,-5.403,0.084,2021-10-03,03:17:30.950034,1633231050,950034,0000,5A4F,1,1,3.104,GPS-3.0,5,0.156,0.124,0.281,0.884,1.792,0,4,10,4,0,0,4,,,,,,,,,,,0,000000,,,,,
003491-20211003-111655-000000051,220003491       ,2.4021671998,102.8381011395,17.1938686371,0.00000000,0.00000000,300.7024113421,22.732,3.183,-5.453,0.099,2021-10-03,03:17:31.449996,1633231051,449996,0000,5A4F,1,1,3.145,GPS-3.0,5,0.156,0.125,0.281,0.798,1.592,0,4,10,4,0,0,4,,,,,,,,,,,0,000000,,,,,
003491-20211003-111655-000000052,220003491       ,2.4021828271,102.8380761444,17.1492443085,0.00000000,0.00000000,301.6015920860,24.182,3.809,-5.533,0.140,2021-10-03,03:17:31.950071,1633231051,950071,0000,5A4F,1,1,3.276,GPS-3.0,5,0.156,0.125,0.282,0.848,1.420,0,4,10,4,0,0,4,,,,,,,,,,,0,000000,,,,,
003491-20211003-111655-000000053,220003491       ,2.4021969545,102.8380530557,17.1579551697,0.00000000,0.00000000,301.8201308187,24.040,3.270,-5.823,0.042,2021-10-03,03:17:32.400003,1633231052,400003,0000,5A4F,1,1,3.008,GPS-3.0,5,0.156,0.124,0.281,0.848,1.420,0,4,10,4,0,0,4,,,,,,,,,,,0,000000,,,,,
003491-20211003-111655-000000054,220003491       ,2.4022112892,102.8380292458,17.1432685852,0.00000000,0.00000000,301.7926461374,24.900,3.654,-5.873,-0.039,2021-10-03,03:17:32.849996,1633231052,849996,0000,5A4F,1,1,3.088,GPS-3.0,5,0.156,0.124,0.281,0.880,1.691,0,4,10,4,0,0,4,,,,,,,,,,,0,000000,,,,,
003491-20211003-111655-000000055,220003491       ,2.4022267583,102.8380053128,17.2219848633,0.00000000,0.00000000,302.2714970398,25.642,3.974,-5.911,-0.082,2021-10-03,03:17:33.299999,1633231053,299999,0000,5A4F,1,1,3.167,GPS-3.0,5,0.157,0.125,0.282,0.798,1.592,0,4,10,4,0,0,4,,,,,,,,,,,0,000000,,,,,
003491-20211003-111655-000000056,220003491       ,2.4022418338,102.8379813653,17.2077045441,0.00000000,0.00000000,302.7077548824,24.584,3.349,-5.951,-0.054,2021-10-03,03:17:33.749996,1633231053,749996,0000,5A4F,1,1,3.145,GPS-3.0,5,0.157,0.125,0.283,0.798,1.592,0,4,10,4,0,0,4,,,,,,,,,,,0,000000,,,,,
003491-20211003-111655-000000057,220003491       ,2.4022574095,102.8379570242,17.2529411316,0.00000000,0.00000000,302.9790499963,26.036,3.945,-6.062,-0.114,2021-10-03,03:17:34.200034,1633231054,200034,0000,5A4F,1,1,3.211,GPS-3.0,5,0.158,0.126,0.284,0.798,1.592,0,4,10,4,0,0,4,,,,,,,,,,,0,000000,,,,,
003491-20211003-111655-000000058,220003491       ,2.4022730714,102.8379320686,17.2891254425,0.00000000,0.00000000,302.4368149384,25.766,3.742,-6.101,-0.136,2021-10-03,03:17:34.650149,1633231054,650149,0000,5A4F,1,1,3.274,GPS-3.0,5,0.158,0.125,0.284,0.798,1.592,0,4,10,4,0,0,4,,,,,,,,,,,0,000000,,,,,
003491-20211003-111655-000000059,220003491       ,2.4022879366,102.8379065594,17.3281898499,0.00000000,0.00000000,301.6335846921,26.393,3.724,-6.315,-0.146,2021-10-03,03:17:35.100009,1633231055,100009,0000,5A4F,1,1,3.281,GPS-3.0,5,0.159,0.125,0.285,0.798,1.592,0,4,10,4,0,0,4,,,,,,,,,,,0,000000,,,,,
003491-20211003-111655-000000060,220003491       ,2.4023033711,102.8378814873,17.3903980255,0.00000000,0.00000000,301.2569134197,26.476,3.963,-6.195,-0.168,2021-10-03,03:17:35.549996,1633231055,549996,0000,5A4F,1,1,3.272,GPS-3.0,5,0.159,0.124,0.286,0.798,1.592,0,4,10,4,0,0,4,,,,,,,,,,,0,000000,,,,,
003491-20211003-111655-000000061,220003491       ,2.4023182550,102.8378562403,17.4666442871,0.00000000,0.00000000,300.5565731430,25.906,3.580,-6.242,-0.221,2021-10-03,03:17:36.000010,1633231056,000010,0000,5A4F,1,1,3.257,GPS-3.0,5,0.160,0.125,0.287,0.798,1.592,0,4,10,4,0,0,4,,,,,,,,,,,0,000000,,,,,
003491-20211003-111655-000000062,220003491       ,2.4023326661,102.8378308404,17.5637645721,0.00000000,0.00000000,300.0660289568,26.356,3.902,-6.194,-0.150,2021-10-03,03:17:36.449997,1633231056,449997,0000,5A4F,1,1,3.245,GPS-3.0,5,0.160,0.125,0.287,0.880,1.690,0,4,10,4,0,0,4,,,,,,,,,,,0,000000,,,,,
003491-20211003-111655-000000063,220003491       ,2.4023474188,102.8378053417,17.6705646515,0.00000000,0.00000000,299.8667240368,26.157,3.553,-6.338,-0.231,2021-10-03,03:17:36.900000,1633231056,900000,0000,5A4F,1,1,3.274,GPS-3.0,5,0.161,0.125,0.288,0.909,1.958,0,4,10,4,0,0,4,,,,,,,,,,,0,000000,,,,,
003491-20211003-111655-000000064,220003491       ,2.4023614619,102.8377804524,17.8078975677,0.00000000,0.00000000,299.8284749774,25.231,3.352,-6.155,-0.275,2021-10-03,03:17:37.350227,1633231057,350227,0000,5A4F,1,1,3.176,GPS-3.0,5,0.161,0.125,0.289,0.798,1.592,0,4,10,4,0,0,3,,,,,,,,,,,0,000000,,,,,
003491-20211003-111655-000000065,220003491       ,2.4023751715,102.8377568197,18.0079517365,0.00000000,0.00000000,299.7421687071,25.060,3.836,-5.809,-0.384,2021-10-03,03:17:37.800142,1633231057,800142,0000,5A4F,1,1,3.036,GPS-3.0,5,0.162,0.125,0.289,0.875,1.611,0,4,10,4,0,0,3,,,,,,,,,,,0,000000,,,,,
003491-20211003-111655-000000066,220003491       ,2.4023896316,102.8377313908,18.1583442688,0.00000000,0.00000000,298.9708764253,23.537,3.740,-5.363,-0.318,2021-10-03,03:17:38.299999,1633231058,299999,0000,5A4F,1,1,3.251,GPS-3.0,5,0.162,0.126,0.290,0.756,1.328,0,4,10,4,0,0,3,,,,,,,,,,,0,000000,,,,,
003491-20211003-111655-000000067,220003491       ,2.4024029271,102.8377068732,18.3292942047,0.00000000,0.00000000,297.7466333184,21.753,2.833,-5.337,-0.296,2021-10-03,03:17:38.800001,1633231058,800001,0000,5A4F,1,1,3.099,GPS-3.0,5,0.163,0.126,0.290,0.690,1.205,0,4,10,4,0,0,3,,,,,,,,,,,0,000000,,,,,
003491-20211003-111655-000000068,220003491       ,2.4024157191,102.8376811026,18.4025611877,0.00000000,0.00000000,296.4504000177,20.236,2.154,-5.192,-0.195,2021-10-03,03:17:39.349995,1633231059,349995,0000,5A4F,1,1,3.197,GPS-3.0,5,0.163,0.127,0.291,0.690,1.205,0,4,10,4,0,0,4,,,,,,,,,,,0,000000,,,,,
003491-20211003-111655-000000069,220003491       ,2.4024274798,102.8376567783,18.5771579742,0.00000000,0.00000000,295.3638262038,20.016,2.199,-5.107,-0.293,2021-10-03,03:17:39.899998,1633231059,899998,0000,5A4F,1,1,3.002,GPS-3.0,5,0.164,0.129,0.293,0.798,1.591,0,4,10,4,0,0,4,,,,,,,,,,,0,000000,,,,,
003491-20211003-111655-000000070,220003491       ,2.4024386573,102.8376319849,18.7901325226,0.00000000,0.00000000,294.6288978491,19.824,1.927,-5.159,-0.281,2021-10-03,03:17:40.449995,1633231060,449995,0000,5A4F,1,1,3.022,GPS-3.0,5,0.166,0.130,0.295,0.690,1.205,0,4,10,4,0,0,4,,,,,,,,,,,0,000000,,,,,
003491-20211003-111655-000000071,220003491       ,2.4024499665,102.8376065727,18.9638671875,0.00000000,0.00000000,294.3780933028,20.545,2.436,-5.161,-0.266,2021-10-03,03:17:41.000009,1633231061,000009,0000,5A4F,1,1,3.091,GPS-3.0,5,0.166,0.130,0.295,0.690,1.205,0,4,10,4,0,0,4,,,,,,,,,,,0,000000,,,,,
003491-20211003-111655-000000072,220003491       ,2.4024618586,102.8375808516,19.1230239868,0.00000000,0.00000000,294.3444614513,20.654,2.289,-5.261,-0.186,2021-10-03,03:17:41.549996,1633231061,549996,0000,5A4F,1,1,3.149,GPS-3.0,5,0.165,0.131,0.295,0.745,1.412,0,4,10,4,0,0,3,,,,,,,,,,,0,000000,,,,,
003491-20211003-111655-000000073,220003491       ,2.4024736891,102.8375545052,19.2648429871,0.00000000,0.00000000,294.1034650567,20.865,2.335,-5.305,-0.157,2021-10-03,03:17:42.099999,1633231062,099999,0000,5A4F,1,1,3.209,GPS-3.0,5,0.166,0.131,0.296,0.837,1.635,0,4,10,4,0,0,3,,,,,,,,,,,0,000000,,,,,
003491-20211003-111655-000000074,220003491       ,2.4024856726,102.8375284344,19.3730049133,0.00000000,0.00000000,293.9997827851,20.379,2.265,-5.188,-0.077,2021-10-03,03:17:42.650030,1633231062,650030,0000,5A4F,1,1,3.188,GPS-3.0,5,0.167,0.132,0.297,0.837,1.635,0,4,10,4,0,0,3,,,,,,,,,,,0,000000,,,,,
003491-20211003-111655-000000075,220003491       ,2.4024965536,102.8375034493,19.3002490997,0.00000000,0.00000000,294.0757891301,20.125,2.675,-4.909,0.109,2021-10-03,03:17:43.200233,1633231063,200233,0000,5A4F,1,1,3.028,GPS-3.0,5,0.167,0.133,0.298,0.808,1.362,0,4,10,4,0,0,4,,,,,,,,,,,0,000000,,,,,
003491-20211003-111655-000000076,220003491       ,2.4025089752,102.8374771050,19.2335758209,0.00000000,0.00000000,295.3252492954,20.319,3.090,-4.723,0.189,2021-10-03,03:17:43.800002,1633231063,800002,0000,5A4F,1,1,3.236,GPS-3.0,5,0.168,0.132,0.298,0.690,1.205,0,4,10,4,0,0,4,,,,,,,,,,,0,000000,,,,,
003491-20211003-111655-000000077,220003491       ,2.4025222424,102.8374512793,19.1726570129,0.00000000,0.00000000,297.0565383254,18.911,2.314,-4.716,0.210,2021-10-03,03:17:44.400155,1633231064,400155,0000,5A4F,1,1,3.226,GPS-3.0,5,0.168,0.132,0.298,0.841,1.417,0,4,10,4,0,0,4,,,,,,,,,,,0,000000,,,,,
003491-20211003-111655-000000078,220003491       ,2.4025365130,102.8374258396,19.1192531586,0.00000000,0.00000000,298.4696771440,19.722,2.796,-4.711,0.264,2021-10-03,03:17:45.000010,1633231065,000010,0000,5A4F,1,1,3.241,GPS-3.0,5,0.168,0.132,0.297,0.777,1.342,0,4,10,4,0,0,4,,,,,,,,,,,0,000000,,,,,
003491-20211003-111655-000000079,220003491       ,2.4025494998,102.8374016915,19.0873012543,0.00000000,0.00000000,298.4506618973,19.973,2.477,-4.964,0.380,2021-10-03,03:17:45.549996,1633231065,549996,0000,5A4F,1,1,3.047,GPS-3.0,5,0.167,0.131,0.295,0.836,1.634,0,4,10,4,0,0,4,,,,,,,,,,,0,000000,,,,,
003491-20211003-111655-000000080,220003491       ,2.4025625160,102.8373768636,18.9688777924,0.00000000,0.00000000,297.4786713369,20.507,2.764,-4.981,0.437,2021-10-03,03:17:46.100000,1633231066,100000,0000,5A4F,1,1,3.115,GPS-3.0,5,0.165,0.131,0.293,0.777,1.342,0,4,10,4,0,0,4,,,,,,,,,,,0,000000,,,,,
003491-20211003-111655-000000081,220003491       ,2.4025762342,102.8373510895,18.7230415344,0.00000000,0.00000000,296.5404219110,20.588,2.327,-5.224,0.456,2021-10-03,03:17:46.649996,1633231066,649996,0000,5A4F,1,1,3.244,GPS-3.0,5,0.164,0.131,0.292,0.836,1.634,0,4,10,4,0,0,4,,,,,,,,,,,0,000000,,,,,
003491-20211003-111655-000000082,220003491       ,2.4025881429,102.8373265335,18.6026382446,0.00000000,0.00000000,295.3096491433,22.090,2.548,-5.582,0.324,2021-10-03,03:17:47.149996,1633231067,149996,0000,5A4F,1,1,3.032,GPS-3.0,5,0.164,0.131,0.292,0.922,1.827,0,4,10,4,0,0,4,,,,,,,,,,,0,000000,,,,,
003491-20211003-111655-000000083,220003491       ,2.4026007233,102.8373004738,18.3678627014,0.00000000,0.00000000,294.9195907002,24.119,3.149,-5.914,0.567,2021-10-03,03:17:47.650153,1633231067,650153,0000,5A4F,1,1,3.215,GPS-3.0,5,0.164,0.130,0.292,0.776,1.342,0,4,10,4,0,0,4,,,,,,,,,,,0,000000,,,,,
003491-20211003-111655-000000084,220003491       ,2.4026125888,102.8372753873,18.1249465942,0.00000000,0.00000000,294.2346593302,25.279,2.741,-6.465,0.537,2021-10-03,03:17:48.100000,1633231068,100000,0000,5A4F,1,1,3.084,GPS-3.0,5,0.164,0.130,0.292,0.836,1.634,0,4,10,4,0,0,4,,,,,,,,,,,0,000000,,,,,
003491-20211003-111655-000000085,220003491       ,2.4026244482,102.8372483482,17.9263000488,0.00000000,0.00000000,293.2634064303,27.067,3.185,-6.810,0.526,2021-10-03,03:17:48.549996,1633231068,549996,0000,5A4F,1,1,3.281,GPS-3.0,5,0.164,0.130,0.291,0.745,1.411,0,4,10,4,0,0,4,,,,,,,,,,,0,000000,,,,,
003491-20211003-111655-000000086,220003491       ,2.4026353706,102.8372229310,17.7639961243,0.00000000,0.00000000,292.1983613726,28.070,3.035,-7.182,0.521,2021-10-03,03:17:48.950138,1633231068,950138,0000,5A4F,1,1,3.074,GPS-3.0,5,0.164,0.130,0.291,0.745,1.411,0,4,10,4,0,0,4,,,,,,,,,,,0,000000,,,,,
003491-20211003-111655-000000087,220003491       ,2.4026459025,102.8371968316,17.6108722687,0.00000000,0.00000000,291.4994690960,27.779,2.496,-7.302,0.482,2021-10-03,03:17:49.349996,1633231069,349996,0000,5A4F,1,1,3.127,GPS-3.0,5,0.162,0.129,0.289,0.798,1.590,0,4,10,4,0,0,4,,,,,,,,,,,0,000000,,,,,
003491-20211003-111655-000000088,220003491       ,2.4026567292,102.8371699012,17.5178489685,0.00000000,0.00000000,290.9103516197,29.032,2.699,-7.600,0.423,2021-10-03,03:17:49.749996,1633231069,749996,0000,5A4F,1,1,3.225,GPS-3.0,5,0.160,0.129,0.287,0.798,1.590,0,4,10,4,0,0,4,,,,,,,,,,,0,000000,,,,,
003491-20211003-111655-000000089,220003491       ,2.4026672775,102.8371425590,17.3805732727,0.00000000,0.00000000,290.5129438930,29.855,2.927,-7.759,0.424,2021-10-03,03:17:50.150066,1633231070,150066,0000,5A4F,1,1,3.256,GPS-3.0,5,0.159,0.129,0.286,0.798,1.590,0,4,10,4,0,0,4,,,,,,,,,,,0,000000,,,,,
003491-20211003-111655-000000090,220003491       ,2.4026781521,102.8371149694,17.2406044006,0.00000000,0.00000000,291.4071249384,29.477,2.792,-7.698,0.458,2021-10-03,03:17:50.549996,1633231070,549996,0000,5A4F,1,1,3.295,GPS-3.0,5,0.157,0.128,0.285,0.726,1.219,0,4,10,4,0,0,4,,,,,,,,,,,0,000000,,,,,
003491-20211003-111655-000000091,220003491       ,2.4026893783,102.8370875165,17.0844173431,0.00000000,0.00000000,292.9066246688,29.891,3.117,-7.696,0.414,2021-10-03,03:17:50.949996,1633231070,949996,0000,5A4F,1,1,3.296,GPS-3.0,5,0.158,0.128,0.285,0.843,1.439,0,4,10,4,0,0,4,,,,,,,,,,,0,000000,,,,,
003491-20211003-111655-000000092,220003491       ,2.4027015668,102.8370599332,16.9530220032,0.00000000,0.00000000,294.5658415427,29.545,3.483,-7.431,0.453,2021-10-03,03:17:51.349996,1633231071,349996,0000,5A4F,1,1,3.351,GPS-3.0,5,0.158,0.128,0.285,0.843,1.439,0,4,10,4,0,0,4,,,,,,,,,,,0,000000,,,,,
003491-20211003-111655-000000093,220003491       ,2.4027145311,102.8370328825,16.8182563782,0.00000000,0.00000000,295.1010005246,29.505,3.539,-7.393,0.443,2021-10-03,03:17:51.750024,1633231071,750024,0000,5A4F,1,1,3.333,GPS-3.0,5,0.158,0.128,0.285,0.884,1.789,0,4,10,4,0,0,4,,,,,,,,,,,0,000000,,,,,
003491-20211003-111655-000000094,220003491       ,2.4027271418,102.8370054241,16.6920223236,0.00000000,0.00000000,294.8869697167,30.261,3.591,-7.600,0.316,2021-10-03,03:17:52.149996,1633231072,149996,0000,5A4F,1,1,3.357,GPS-3.0,5,0.159,0.128,0.286,0.953,1.897,0,4,10,4,0,0,4,,,,,,,,,,,0,000000,,,,,
003491-20211003-111655-000000095,220003491       ,2.4027398730,102.8369775495,16.5504074097,0.00000000,0.00000000,294.8049254844,30.431,3.588,-7.654,0.351,2021-10-03,03:17:52.549996,1633231072,549996,0000,5A4F,1,1,3.405,GPS-3.0,5,0.159,0.128,0.286,0.781,1.421,0,4,10,4,0,0,4,,,,,,,,,,,0,000000,,,,,
003491-20211003-111655-000000096,220003491       ,2.4027527246,102.8369500031,16.4377956390,0.00000000,0.00000000,294.3163757135,30.631,3.939,-7.542,0.320,2021-10-03,03:17:52.950213,1633231072,950213,0000,5A4F,1,1,3.378,GPS-3.0,5,0.160,0.129,0.287,0.884,1.789,0,4,10,4,0,0,4,,,,,,,,,,,0,000000,,,,,
003491-20211003-111655-000000097,220003491       ,2.4027656044,102.8369224839,16.2665882111,0.00000000,0.00000000,294.1448013615,29.945,3.491,-7.550,0.338,2021-10-03,03:17:53.349995,1633231073,349995,0000,5A4F,1,1,3.376,GPS-3.0,5,0.161,0.129,0.288,0.756,1.327,0,4,10,4,0,0,4,,,,,,,,,,,0,000000,,,,,
003491-20211003-111655-000000098,220003491       ,2.4027782215,102.8368948098,16.1864223480,0.00000000,0.00000000,294.1691714765,30.367,3.510,-7.670,0.333,2021-10-03,03:17:53.749995,1633231073,749995,0000,5A4F,1,1,3.379,GPS-3.0,5,0.162,0.129,0.288,0.798,1.590,0,4,10,4,0,0,4,,,,,,,,,,,0,000000,,,,,
003491-20211003-111655-000000099,220003491       ,2.4027917897,102.8368673740,16.0640277863,0.00000000,0.00000000,294.4700549698,30.110,3.511,-7.591,0.335,2021-10-03,03:17:54.150138,1633231074,150138,0000,5A4F,1,1,3.401,GPS-3.0,5,0.162,0.130,0.289,0.798,1.590,0,4,10,4,0,0,4,,,,,,,,,,,0,000000,,,,,
003491-20211003-111655-000000100,220003491       ,2.4028046380,102.8368407525,16.0064411163,0.00000000,0.00000000,294.7010246468,28.717,3.450,-7.192,0.280,2021-10-03,03:17:54.549995,1633231074,549995,0000,5A4F,1,1,3.285,GPS-3.0,5,0.163,0.130,0.290,0.798,1.590,0,4,10,4,0,0,4,,,,,,,,,,,0,000000,,,,,
003491-20211003-111655-000000101,220003491       ,2.4028167695,102.8368158168,15.9779243469,0.00000000,0.00000000,294.8289677503,27.100,3.291,-6.770,0.223,2021-10-03,03:17:54.949995,1633231074,949995,0000,5A4F,1,1,3.081,GPS-3.0,5,0.164,0.131,0.291,0.981,2.155,0,4,10,4,0,0,4,,,,,,,,,,,0,000000,,,,,
003491-20211003-111655-000000102,220003491       ,2.4028292507,102.8367892189,15.9330005646,0.00000000,0.00000000,295.3111244642,25.383,3.064,-6.350,0.190,2021-10-03,03:17:55.400001,1633231075,400001,0000,5A4F,1,1,3.265,GPS-3.0,5,0.165,0.132,0.293,0.884,1.789,0,4,10,4,0,0,4,,,,,,,,,,,0,000000,,,,,
003491-20211003-111655-000000103,220003491       ,2.4028422878,102.8367642534,15.8557796478,0.00000000,0.00000000,295.7593214775,25.371,3.306,-6.224,0.200,2021-10-03,03:17:55.849995,1633231075,849995,0000,5A4F,1,1,3.130,GPS-3.0,5,0.165,0.132,0.293,0.884,1.789,0,4,10,4,0,0,4,,,,,,,,,,,0,000000,,,,,
003491-20211003-111655-000000104,220003491       ,2.4028549621,102.8367393574,15.8840017319,0.00000000,0.00000000,295.7235312863,24.773,3.009,-6.189,0.152,2021-10-03,03:17:56.300022,1633231076,300022,0000,5A4F,1,1,3.104,GPS-3.0,5,0.166,0.132,0.294,0.836,1.633,0,4,10,4,0,0,4,,,,,,,,,,,0,000000,,,,,
003491-20211003-111655-000000105,220003491       ,2.4028669901,102.8367142360,15.7806816101,0.00000000,0.00000000,294.3178237136,24.032,2.556,-6.167,0.252,2021-10-03,03:17:56.750137,1633231076,750137,0000,5A4F,1,1,3.095,GPS-3.0,5,0.166,0.132,0.294,0.922,1.827,0,4,10,4,0,0,4,,,,,,,,,,,0,000000,,,,,
003491-20211003-111655-000000106,220003491       ,2.4028784459,102.8366886987,15.7494983673,0.00000000,0.00000000,292.2721000949,24.536,2.359,-6.394,0.301,2021-10-03,03:17:57.200001,1633231077,200001,0000,5A4F,1,1,3.110,GPS-3.0,5,0.167,0.132,0.294,0.884,1.789,0,4,10,4,0,0,4,,,,,,,,,,,0,000000,,,,,
003491-20211003-111655-000000107,220003491       ,2.4028883355,102.8366621493,15.5994548798,0.00000000,0.00000000,290.3115352748,25.110,2.351,-6.567,0.425,2021-10-03,03:17:57.649995,1633231077,649995,0000,5A4F,1,1,3.148,GPS-3.0,5,0.168,0.132,0.295,0.953,1.896,0,4,10,4,0,0,4,,,,,,,,,,,0,000000,,,,,
003491-20211003-111655-000000108,220003491       ,2.4028978568,102.8366352132,15.4503145218,0.00000000,0.00000000,289.0885489227,25.429,2.290,-6.682,0.461,2021-10-03,03:17:58.099998,1633231078,099998,0000,5A4F,1,1,3.174,GPS-3.0,5,0.168,0.133,0.295,0.884,1.789,0,4,10,4,0,0,4,,,,,,,,,,,0,000000,,,,,
003491-20211003-111655-000000109,220003491       ,2.4029071534,102.8366086806,15.3361663818,0.00000000,0.00000000,288.5056878997,25.905,2.310,-6.815,0.269,2021-10-03,03:17:58.549995,1633231078,549995,0000,5A4F,1,1,3.124,GPS-3.0,5,0.167,0.133,0.295,0.836,1.633,0,4,10,4,0,0,4,,,,,,,,,,,0,000000,,,,,
003491-20211003-111655-000000110,220003491       ,2.4029160933,102.8365817438,15.2284450531,0.00000000,0.00000000,288.4680125763,24.894,2.057,-6.602,0.319,2021-10-03,03:17:59.000009,1633231079,000009,0000,5A4F,1,1,3.153,GPS-3.0,5,0.168,0.134,0.297,0.884,1.788,0,4,10,4,0,0,4,,,,,,,,,,,0,000000,,,,,
003491-20211003-111655-000000111,220003491       ,2.4029244265,102.8365544722,15.1210327148,0.00000000,0.00000000,288.2064163310,25.803,2.270,-6.799,0.242,2021-10-03,03:17:59.450210,1633231079,450210,0000,5A4F,1,1,3.168,GPS-3.0,5,0.169,0.135,0.298,0.884,1.788,0,4,10,4,0,0,4,,,,,,,,,,,0,000000,,,,,
003491-20211003-111655-000000112,220003491       ,2.4029329340,102.8365278174,14.9355363846,0.00000000,0.00000000,288.4108575533,24.523,2.108,-6.478,0.327,2021-10-03,03:17:59.900081,1633231079,900081,0000,5A4F,1,1,3.109,GPS-3.0,5,0.170,0.137,0.300,0.836,1.633,0,4,10,4,0,0,4,,,,,,,,,,,0,000000,,,,,
003491-20211003-111655-000000113,220003491       ,2.4029415969,102.8365018119,14.6954345703,0.00000000,0.00000000,287.0005600935,24.130,1.941,-6.416,0.370,2021-10-03,03:18:00.349996,1633231080,349996,0000,5A4F,1,1,3.045,GPS-3.0,5,0.172,0.138,0.302,0.884,1.788,0,4,10,4,0,0,4,,,,,,,,,,,0,000000,,,,,
003491-20211003-111655-000000114,220003491       ,2.4029486834,102.8364740852,14.4773845673,0.00000000,0.00000000,284.9846980618,22.056,1.394,-5.966,0.369,2021-10-03,03:18:00.850017,1633231080,850017,0000,5A4F,1,1,3.180,GPS-3.0,5,0.174,0.141,0.305,0.785,1.410,0,4,10,4,0,0,4,,,,,,,,,,,0,000000,,,,,
003491-20211003-111655-000000115,220003491       ,2.4029550575,102.8364477709,14.3415002823,0.00000000,0.00000000,284.6099392424,20.385,1.019,-5.570,0.311,2021-10-03,03:18:01.349996,1633231081,349996,0000,5A4F,1,1,3.008,GPS-3.0,5,0.176,0.145,0.308,0.928,1.821,0,4,9,4,0,0,4,,,,,,,,,,,0,000000,,,,,
003491-20211003-111655-000000116,220003491       ,2.4029619094,102.8364214701,14.1855306625,0.00000000,0.00000000,284.8373299003,18.391,1.125,-4.983,0.339,2021-10-03,03:18:01.900000,1633231081,900000,0000,5A4F,1,1,3.020,GPS-3.0,5,0.175,0.143,0.308,0.884,1.788,0,4,9,4,0,0,4,,,,,,,,,,,0,000000,,,,,
003491-20211003-111655-000000117,220003491       ,2.4029699434,102.8363939845,14.0592021942,0.00000000,0.00000000,284.9470227384,14.517,1.057,-3.892,0.292,2021-10-03,03:18:02.600148,1633231082,600148,0000,5A4F,1,1,3.182,GPS-3.0,5,0.176,0.144,0.310,0.884,1.788,0,4,10,4,0,0,3,,,,,,,,,,,0,000000,,,,,
003491-20211003-111655-000000118,220003491       ,2.4029783792,102.8363674678,13.8575973511,0.00000000,0.00000000,287.2812262268,12.339,1.342,-3.154,0.236,2021-10-03,03:18:03.500006,1633231083,500006,0000,5A4F,1,1,3.092,GPS-3.0,5,0.178,0.146,0.313,0.884,1.788,0,4,10,4,0,0,3,,,,,,,,,,,0,000000,,,,,
003491-20211003-111655-000000119,220003491       ,2.4029883370,102.8363418202,13.9609069824,0.00000000,0.00000000,292.0081269438,12.470,1.193,-3.252,0.196,2021-10-03,03:18:04.400009,1633231084,400009,0000,5A4F,1,1,3.057,GPS-3.0,5,0.177,0.146,0.311,0.884,1.788,0,4,10,4,0,0,3,,,,,,,,,,,0,000000,,,,,
003491-20211003-111655-000000120,220003491       ,2.4029997110,102.8363172534,13.9691505432,0.00000000,0.00000000,293.6759498561,14.770,1.824,-3.675,0.171,2021-10-03,03:18:05.200137,1633231085,200137,0000,5A4F,1,1,3.008,GPS-3.0,5,0.178,0.147,0.313,0.883,1.787,0,4,10,4,0,0,3,,,,,,,,,,,0,000000,,,,,
003491-20211003-111655-000000121,220003491       ,2.4030109544,102.8362914161,13.8043031693,0.00000000,0.00000000,294.8609603564,17.529,2.199,-4.345,0.264,2021-10-03,03:18:05.900007,1633231085,900007,0000,5A4F,1,1,3.131,GPS-3.0,5,0.179,0.149,0.315,0.883,1.787,0,4,10,4,0,0,3,,,,,,,,,,,0,000000,,,,,
003491-20211003-111655-000000122,220003491       ,2.4030228784,102.8362670102,13.6738147736,0.00000000,0.00000000,294.9520204384,20.703,2.885,-4.975,0.268,2021-10-03,03:18:06.449996,1633231086,449996,0000,5A4F,1,1,3.018,GPS-3.0,5,0.180,0.149,0.316,0.883,1.787,0,4,10,4,0,0,4,,,,,,,,,,,0,000000,,,,,
003491-20211003-111655-000000123,220003491       ,2.4030355788,102.8362407703,13.4743175507,0.00000000,0.00000000,294.0967441505,20.060,2.305,-5.073,0.402,2021-10-03,03:18:07.000011,1633231087,000011,0000,5A4F,1,1,3.239,GPS-3.0,5,0.180,0.150,0.317,0.980,2.154,0,4,10,4,0,0,4,,,,,,,,,,,0,000000,,,,,
003491-20211003-111655-000000124,220003491       ,2.4030473295,102.8362160028,13.4357223511,0.00000000,0.00000000,293.9504688192,22.019,2.825,-5.425,0.259,2021-10-03,03:18:07.499999,1633231087,499999,0000,5A4F,1,1,3.046,GPS-3.0,5,0.181,0.151,0.319,0.883,1.787,0,4,10,4,0,0,4,,,,,,,,,,,0,000000,,,,,
003491-20211003-111655-000000125,220003491       ,2.4030582462,102.8361907768,13.3045320511,0.00000000,0.00000000,294.0907609048,22.411,2.464,-5.717,0.282,2021-10-03,03:18:08.000307,1633231088,000307,0000,5A4F,1,1,3.054,GPS-3.0,5,0.182,0.152,0.320,0.909,1.955,0,4,10,4,0,0,4,,,,,,,,,,,0,000000,,,,,
003491-20211003-111655-000000126,220003491       ,2.4030683307,102.8361652838,13.0590171814,0.00000000,0.00000000,293.5709288674,21.790,2.391,-5.560,0.349,2021-10-03,03:18:08.500000,1633231088,500000,0000,5A4F,1,1,3.046,GPS-3.0,5,0.183,0.154,0.323,0.835,1.632,0,4,10,4,0,0,4,,,,,,,,,,,0,000000,,,,,
003491-20211003-111655-000000127,220003491       ,2.4030791317,102.8361388063,12.8878984451,0.00000000,0.00000000,292.8652337224,22.820,2.273,-5.917,0.321,2021-10-03,03:18:09.000068,1633231089,000068,0000,5A4F,1,1,3.177,GPS-3.0,5,0.184,0.154,0.324,0.921,1.826,0,4,10,4,0,0,4,,,,,,,,,,,0,000000,,,,,
003491-20211003-111655-000000128,220003491       ,2.4030894880,102.8361126857,12.6470108032,0.00000000,0.00000000,291.9863249800,23.044,2.601,-5.849,0.375,2021-10-03,03:18:09.499998,1633231089,499998,0000,5A4F,1,1,3.122,GPS-3.0,5,0.185,0.155,0.325,0.835,1.632,0,4,10,4,0,0,4,,,,,,,,,,,0,000000,,,,,
003491-20211003-111655-000000129,220003491       ,2.4031003577,102.8360854545,12.5449352264,0.00000000,0.00000000,291.8701844434,22.791,2.166,-5.949,0.373,2021-10-03,03:18:10.000009,1633231090,000009,0000,5A4F,1,1,3.258,GPS-3.0,5,0.186,0.156,0.326,0.745,1.409,0,4,10,4,0,0,4,,,,,,,,,,,0,000000,,,,,
003491-20211003-111655-000000130,220003491       ,2.4031118873,102.8360583621,12.4164199829,0.00000000,0.00000000,292.3123708902,23.346,2.787,-5.856,0.337,2021-10-03,03:18:10.500206,1633231090,500206,0000,5A4F,1,1,3.272,GPS-3.0,5,0.187,0.158,0.328,0.866,1.647,0,4,9,4,0,0,4,,,,,,,,,,,0,000000,,,,,
003491-20211003-111655-000000131,220003491       ,2.4031237932,102.8360308295,12.2997217178,0.00000000,0.00000000,292.5133423764,24.622,2.962,-6.164,0.297,2021-10-03,03:18:11.000005,1633231091,000005,0000,5A4F,1,1,3.333,GPS-3.0,5,0.188,0.158,0.330,0.835,1.632,0,4,9,4,0,0,4,,,,,,,,,,,0,000000,,,,,
003491-20211003-111655-000000132,220003491       ,2.4031346639,102.8360058687,12.1196355820,0.00000000,0.00000000,292.2172946570,24.622,2.614,-6.320,0.368,2021-10-03,03:18:11.449995,1633231091,449995,0000,5A4F,1,1,3.025,GPS-3.0,5,0.188,0.159,0.331,0.835,1.632,0,4,9,4,0,0,4,,,,,,,,,,,0,000000,,,,,
003491-20211003-111655-000000133,220003491       ,2.4031452654,102.8359805052,11.9434537888,0.00000000,0.00000000,291.9973625657,24.530,2.670,-6.269,0.428,2021-10-03,03:18:11.900296,1633231091,900296,0000,5A4F,1,1,3.054,GPS-3.0,5,0.189,0.159,0.332,0.835,1.632,0,4,9,4,0,0,4,,,,,,,,,,,0,000000,,,,,
003491-20211003-111655-000000134,220003491       ,2.4031551246,102.8359546191,11.7618827820,0.00000000,0.00000000,291.3674551997,25.160,2.288,-6.604,0.424,2021-10-03,03:18:12.350125,1633231092,350125,0000,5A4F,1,1,3.078,GPS-3.0,5,0.189,0.159,0.332,0.835,1.632,0,4,9,4,0,0,4,,,,,,,,,,,0,000000,,,,,
003491-20211003-111655-000000135,220003491       ,2.4031657782,102.8359281727,11.6997489929,0.00000000,0.00000000,290.9755389451,24.811,1.752,-6.665,0.412,2021-10-03,03:18:12.800001,1633231092,800001,0000,5A4F,1,1,3.168,GPS-3.0,5,0.189,0.158,0.332,0.835,1.631,0,4,9,4,0,0,4,,,,,,,,,,,0,000000,,,,,
003491-20211003-111655-000000136,220003491       ,2.4031756599,102.8359013448,11.5634374619,0.00000000,0.00000000,290.3460687112,25.927,2.344,-6.810,0.396,2021-10-03,03:18:13.249995,1633231093,249995,0000,5A4F,1,1,3.177,GPS-3.0,5,0.189,0.158,0.332,0.921,1.826,0,4,9,4,0,0,4,,,,,,,,,,,0,000000,,,,,
003491-20211003-111655-000000137,220003491       ,2.4031859992,102.8358739306,11.4343090057,0.00000000,0.00000000,290.1209183554,26.442,2.779,-6.799,0.345,2021-10-03,03:18:13.700007,1633231093,700007,0000,5A4F,1,1,3.255,GPS-3.0,5,0.190,0.158,0.332,0.864,1.754,0,4,9,4,0,0,4,,,,,,,,,,,0,000000,,,,,
003491-20211003-111655-000000138,220003491       ,2.4031966180,102.8358470157,11.3606891632,0.00000000,0.00000000,291.5376088723,26.231,2.798,-6.728,0.209,2021-10-03,03:18:14.149995,1633231094,149995,0000,5A4F,1,1,3.215,GPS-3.0,5,0.190,0.158,0.333,0.745,1.409,0,4,9,4,0,0,4,,,,,,,,,,,0,000000,,,,,
003491-20211003-111655-000000139,220003491       ,2.4032080848,102.8358202654,11.3162317276,0.00000000,0.00000000,293.3794376839,24.799,2.778,-6.304,0.170,2021-10-03,03:18:14.600006,1633231094,600006,0000,5A4F,1,1,3.234,GPS-3.0,5,0.190,0.158,0.333,0.921,1.826,0,4,9,4,0,0,4,,,,,,,,,,,0,000000,,,,,
003491-20211003-111655-000000140,220003491       ,2.4032194145,102.8357948307,11.2613344193,0.00000000,0.00000000,293.7874458641,23.498,2.847,-5.873,0.183,2021-10-03,03:18:15.050199,1633231095,050199,0000,5A4F,1,1,3.094,GPS-3.0,5,0.190,0.158,0.333,0.745,1.409,0,4,9,4,0,0,4,,,,,,,,,,,0,000000,,,,,
003491-20211003-111655-000000141,220003491       ,2.4032315299,102.8357681630,11.2539072037,0.00000000,0.00000000,292.3413582131,21.726,2.199,-5.620,0.319,2021-10-03,03:18:15.549996,1633231095,549996,0000,5A4F,1,1,3.255,GPS-3.0,5,0.189,0.156,0.331,0.921,1.826,0,4,9,4,0,0,4,,,,,,,,,,,0,000000,,,,,
003491-20211003-111655-000000142,220003491       ,2.4032415493,102.8357407990,11.2825698853,0.00000000,0.00000000,289.8112375784,20.247,1.586,-5.396,0.277,2021-10-03,03:18:16.100008,1633231096,100008,0000,5A4F,1,1,3.238,GPS-3.0,5,0.187,0.153,0.328,0.745,1.409,0,4,9,4,0,0,4,,,,,,,,,,,0,000000,,,,,
003491-20211003-111655-000000143,220003491       ,2.4032501084,102.8357135100,11.3582143784,0.00000000,0.00000000,285.7711806844,17.336,1.039,-4.702,0.230,2021-10-03,03:18:16.700010,1633231096,700010,0000,5A4F,1,1,3.178,GPS-3.0,5,0.185,0.149,0.324,0.835,1.631,0,4,9,4,0,0,4,,,,,,,,,,,0,000000,,,,,
003491-20211003-111655-000000144,220003491       ,2.4032544978,102.8356866297,11.2731342316,0.00000000,0.00000000,278.8805580006,12.913,0.411,-3.563,0.276,2021-10-03,03:18:17.450045,1633231097,450045,0000,5A4F,1,1,3.026,GPS-3.0,5,0.184,0.147,0.323,0.883,1.786,0,4,9,4,0,0,4,,,,,,,,,,,0,000000,,,,,
003491-20211003-111655-000000145,220003491       ,2.4032558055,102.8356587271,11.2250385284,0.00000000,0.00000000,272.2648367705,11.798,-0.098,-3.276,0.279,2021-10-03,03:18:18.400270,1633231098,400270,0000,5A4F,1,1,3.103,GPS-3.0,5,0.183,0.145,0.320,0.835,1.631,0,4,9,4,0,0,4,,,,,,,,,,,0,000000,,,,,
003491-20211003-111655-000000146,220003491       ,2.4032547838,102.8356310041,11.4204778671,0.00000000,0.00000000,267.1509921766,13.887,-0.310,-3.845,0.077,2021-10-03,03:18:19.249996,1633231099,249996,0000,5A4F,1,1,3.082,GPS-3.0,5,0.177,0.138,0.312,0.835,1.631,0,4,9,4,0,0,4,,,,,,,,,,,0,000000,,,,,
003491-20211003-111655-000000147,220003491       ,2.4032516233,102.8356040231,11.4147386551,0.00000000,0.00000000,262.1509112136,12.944,-0.945,-3.469,0.269,2021-10-03,03:18:20.050044,1633231100,050044,0000,5A4F,1,1,3.018,GPS-3.0,5,0.175,0.135,0.308,0.745,1.408,0,4,9,4,0,0,4,,,,,,,,,,,0,000000,,,,,
003491-20211003-111655-000000148,220003491       ,2.4032432469,102.8355779482,11.4032554626,0.00000000,0.00000000,252.5848761112,11.405,-1.142,-2.955,0.193,2021-10-03,03:18:20.949996,1633231100,949996,0000,5A4F,1,1,3.043,GPS-3.0,5,0.174,0.132,0.304,0.744,1.408,0,4,9,4,0,0,4,,,,,,,,,,,0,000000,,,,,
003491-20211003-111655-000000149,220003491       ,2.4032307585,102.8355531092,11.3550529480,0.00000000,0.00000000,243.0194693861,7.809,-1.105,-1.867,0.223,2021-10-03,03:18:22.100133,1633231102,100133,0000,5A4F,1,1,3.089,GPS-3.0,5,0.173,0.129,0.300,0.841,1.601,0,4,9,4,0,0,4,,,,,,,,,,,0,000000,,,,,
