#0:imgID ,1:camSN   ,2:lat       ,3:lon         ,4:height     ,5:roll       ,6:pitch      ,7:heading     ,8:speed,9:speed_n,10:speed_e,11:speed_d,12:date   ,13:time        ,14:unix_time_sec,15:unix_time_microsec,16:systemStatus,17:filterStatus,18:haveFix,19:extVelocity,20:distancetoprevious,21:releaseMode,22:device_id,23:lat_dev,24:lon_dev,25:hei_dev,26:hdop,27:vdop,28:fs_10,29:gnss_fix_status,30:gps_sat,31:glonass_sat,32:beidu_sat,33:gal_sat,34:sbas_sat,35:custLog0,36:custLog1,37:custLog2,38:custLog3,39:custLog4,40:custLog5,41:custLog6,42:custLog7,43:custLog8,44:custLog9,45:unix_time_sec_fixed,46:unix_time_microsec_fixed,47:pnvgbss_field3,48:pnvgbss_field4,49:pnvgbss_field5,50:pnvgbss_field6,51:pnvgbss_field7
000000001,01932-0007,2.4403358229,102.6910598332,35.4152374268,0,0,93.1813475255 ,4.438  ,-0.032   ,1.232     ,-0.155    ,2021-08-05,02:17:05.750123,1628129825      ,750123               ,0000           ,5A6F           ,1         ,1             ,0.000                ,GPS-3.0       ,5           ,0.086     ,0.101     ,0.218     ,1.416  ,2.112  ,0       ,6                 ,10        ,5             ,0           ,0         ,4          ,           ,           ,           ,           ,           ,           ,           ,           ,           ,           ,0                     ,000000                     ,                 ,                 ,                 ,
000000002,01932-0007,2.4403357728,102.6910875353,35.8205604553,0,0,91.3614436212 ,6.962  ,0.046    ,1.933     ,-0.250    ,2021-08-05,02:17:07.699999,1628129827      ,699999               ,0000           ,5A4F           ,1         ,1             ,3.078                ,GPS-3.0       ,5           ,0.090     ,0.105     ,0.223     ,0.795  ,1.747  ,0       ,4                 ,10        ,5             ,0           ,0         ,4          ,           ,           ,           ,           ,           ,           ,           ,           ,           ,           ,0                     ,000000                     ,                 ,                 ,                 ,
000000003,01932-0007,2.4403368945,102.6911153437,36.1617698669,0,0,87.9331394503 ,7.764  ,0.203    ,2.147     ,-0.212    ,2021-08-05,02:17:09.200001,1628129829      ,200001               ,0000           ,5A4F           ,1         ,1             ,3.092                ,GPS-3.0       ,5           ,0.093     ,0.107     ,0.227     ,0.880  ,2.072  ,0       ,4                 ,10        ,5             ,0           ,0         ,4          ,           ,           ,           ,           ,           ,           ,           ,           ,           ,           ,0                     ,000000                     ,                 ,                 ,                 ,
000000004,01932-0007,2.4403415819,102.6911425416,36.4301834106,0,0,78.6025546289 ,8.218  ,0.607    ,2.200     ,-0.159    ,2021-08-05,02:17:10.549995,1628129830      ,549995               ,0000           ,5A4F           ,1         ,1             ,3.066                ,GPS-3.0       ,5           ,0.096     ,0.109     ,0.231     ,0.880  ,2.072  ,0       ,4                 ,10        ,5             ,0           ,0         ,4          ,           ,           ,           ,           ,           ,           ,           ,           ,           ,           ,0                     ,000000                     ,                 ,                 ,                 ,
000000005,01932-0007,2.4403537792,102.6911672356,36.6563301086,0,0,63.5567612082 ,9.911  ,1.481    ,2.321     ,-0.239    ,2021-08-05,02:17:11.700261,1628129831      ,700261               ,0000           ,5A4F           ,1         ,1             ,3.060                ,GPS-3.0       ,5           ,0.097     ,0.109     ,0.233     ,0.795  ,1.748  ,0       ,4                 ,9         ,5             ,0           ,0         ,4          ,           ,           ,           ,           ,           ,           ,           ,           ,           ,           ,0                     ,000000                     ,                 ,                 ,                 ,
000000006,01932-0007,2.4403704764,102.6911885276,36.8668212891,0,0,51.7369310193 ,10.393 ,1.921    ,2.155     ,-0.244    ,2021-08-05,02:17:12.749995,1628129832      ,749995               ,0000           ,5A4F           ,1         ,1             ,3.007                ,GPS-3.0       ,5           ,0.098     ,0.110     ,0.235     ,0.795  ,1.748  ,0       ,4                 ,10        ,5             ,0           ,0         ,4          ,           ,           ,           ,           ,           ,           ,           ,           ,           ,           ,0                     ,000000                     ,                 ,                 ,                 ,
000000007,01932-0007,2.4403909474,102.6912076401,37.0686988831,0,0,42.7537535248 ,11.279 ,2.372    ,2.047     ,-0.262    ,2021-08-05,02:17:13.800259,1628129833      ,800259               ,0000           ,5A4F           ,1         ,1             ,3.113                ,GPS-3.0       ,5           ,0.099     ,0.112     ,0.239     ,0.880  ,2.072  ,0       ,4                 ,10        ,5             ,0           ,0         ,4          ,           ,           ,           ,           ,           ,           ,           ,           ,           ,           ,0                     ,000000                     ,                 ,                 ,                 ,
000000008,01932-0007,2.4404125530,102.6912246382,37.4931716919,0,0,38.6147954916 ,10.280 ,2.266    ,1.737     ,-0.339    ,2021-08-05,02:17:14.849995,1628129834      ,849995               ,0000           ,5A4F           ,1         ,1             ,3.056                ,GPS-3.0       ,5           ,0.100     ,0.114     ,0.242     ,0.795  ,1.748  ,0       ,4                 ,10        ,5             ,0           ,0         ,4          ,           ,           ,           ,           ,           ,           ,           ,           ,           ,           ,0                     ,000000                     ,                 ,                 ,                 ,
000000009,01932-0007,2.4404345613,102.6912414868,37.7892646790,0,0,36.5736890807 ,10.507 ,2.351    ,1.730     ,-0.315    ,2021-08-05,02:17:15.900253,1628129835      ,900253               ,0000           ,5A4F           ,1         ,1             ,3.081                ,GPS-3.0       ,5           ,0.101     ,0.116     ,0.246     ,0.828  ,1.772  ,0       ,4                 ,10        ,5             ,0           ,0         ,4          ,           ,           ,           ,           ,           ,           ,           ,           ,           ,           ,0                     ,000000                     ,                 ,                 ,                 ,
000000010,01932-0007,2.4404563448,102.6912576761,38.0013618469,0,0,37.0803764190 ,10.376 ,2.337    ,1.687     ,-0.274    ,2021-08-05,02:17:16.949994,1628129836      ,949994               ,0000           ,5A4F           ,1         ,1             ,3.017                ,GPS-3.0       ,5           ,0.104     ,0.120     ,0.251     ,0.929  ,2.192  ,0       ,4                 ,10        ,5             ,0           ,0         ,4          ,           ,           ,           ,           ,           ,           ,           ,           ,           ,           ,0                     ,000000                     ,                 ,                 ,                 ,
000000011,01932-0007,2.4404786985,102.6912735778,38.2306976318,0,0,35.9642039804 ,9.128  ,2.080    ,1.450     ,-0.152    ,2021-08-05,02:17:18.049995,1628129838      ,049995               ,0000           ,5A4F           ,1         ,1             ,3.049                ,GPS-3.0       ,5           ,0.107     ,0.123     ,0.256     ,0.795  ,1.748  ,0       ,4                 ,10        ,5             ,0           ,0         ,4          ,           ,           ,           ,           ,           ,           ,           ,           ,           ,           ,0                     ,000000                     ,                 ,                 ,                 ,
000000012,01932-0007,2.4405022121,102.6912892470,38.4701614380,0,0,35.3463484831 ,9.380  ,2.204    ,1.390     ,-0.212    ,2021-08-05,02:17:19.249996,1628129839      ,249996               ,0000           ,5A4F           ,1         ,1             ,3.141                ,GPS-3.0       ,5           ,0.110     ,0.125     ,0.260     ,0.795  ,1.748  ,0       ,4                 ,10        ,5             ,0           ,0         ,2          ,           ,           ,           ,           ,           ,           ,           ,           ,           ,           ,0                     ,000000                     ,                 ,                 ,                 ,
000000013,01932-0007,2.4405248517,102.6913045752,38.9584388733,0,0,34.0214727842 ,8.624  ,1.988    ,1.336     ,-0.330    ,2021-08-05,02:17:20.450100,1628129840      ,450100               ,0000           ,5A4F           ,1         ,1             ,3.039                ,GPS-3.0       ,5           ,0.113     ,0.128     ,0.264     ,0.795  ,1.748  ,0       ,4                 ,10        ,5             ,0           ,0         ,2          ,           ,           ,           ,           ,           ,           ,           ,           ,           ,           ,0                     ,000000                     ,                 ,                 ,                 ,
000000014,01932-0007,2.4405477362,102.6913199321,39.4986419678,0,0,34.9844406647 ,8.271  ,1.973    ,1.177     ,-0.379    ,2021-08-05,02:17:21.800002,1628129841      ,800002               ,0000           ,5A4F           ,1         ,1             ,3.064                ,GPS-3.0       ,5           ,0.116     ,0.131     ,0.269     ,0.795  ,1.748  ,0       ,4                 ,10        ,5             ,0           ,0         ,2          ,           ,           ,           ,           ,           ,           ,           ,           ,           ,           ,0                     ,000000                     ,                 ,                 ,                 ,
000000015,01932-0007,2.4405701933,102.6913355230,39.8138389587,0,0,36.3961792944 ,8.825  ,1.940    ,1.499     ,-0.267    ,2021-08-05,02:17:23.149997,1628129843      ,149997               ,0000           ,5A4F           ,1         ,1             ,3.039                ,GPS-3.0       ,5           ,0.120     ,0.135     ,0.274     ,0.871  ,1.870  ,0       ,4                 ,10        ,5             ,0           ,0         ,2          ,           ,           ,           ,           ,           ,           ,           ,           ,           ,           ,0                     ,000000                     ,                 ,                 ,                 ,
000000016,01932-0007,2.4405921115,102.6913527663,40.0909843445,0,0,35.4329962629 ,9.502  ,2.149    ,1.532     ,-0.468    ,2021-08-05,02:17:24.400002,1628129844      ,400002               ,0000           ,5A4F           ,1         ,1             ,3.100                ,GPS-3.0       ,5           ,0.124     ,0.137     ,0.278     ,0.795  ,1.749  ,0       ,4                 ,10        ,5             ,0           ,0         ,3          ,           ,           ,           ,           ,           ,           ,           ,           ,           ,           ,0                     ,000000                     ,                 ,                 ,                 ,
000000017,01932-0007,2.4406142324,102.6913697426,40.5907211304,0,0,34.7367984959 ,11.710 ,2.610    ,1.942     ,-0.490    ,2021-08-05,02:17:25.500000,1628129845      ,500000               ,0000           ,5A4F           ,1         ,1             ,3.100                ,GPS-3.0       ,5           ,0.130     ,0.143     ,0.285     ,0.795  ,1.749  ,0       ,4                 ,10        ,5             ,0           ,0         ,3          ,           ,           ,           ,           ,           ,           ,           ,           ,           ,           ,0                     ,000000                     ,                 ,                 ,                 ,
000000018,01932-0007,2.4406366443,102.6913854771,41.2018966675,0,0,33.9750274978 ,13.940 ,3.144    ,2.261     ,-0.663    ,2021-08-05,02:17:26.349996,1628129846      ,349996               ,0000           ,5A4F           ,1         ,1             ,3.044                ,GPS-3.0       ,5           ,0.132     ,0.145     ,0.289     ,0.871  ,1.871  ,0       ,4                 ,9         ,5             ,0           ,0         ,1          ,           ,           ,           ,           ,           ,           ,           ,           ,           ,           ,0                     ,000000                     ,                 ,                 ,                 ,
000000019,01932-0007,2.4406602006,102.6913994704,41.8552246094,0,0,32.6479012515 ,14.951 ,3.498    ,2.238     ,-0.751    ,2021-08-05,02:17:27.100000,1628129847      ,100000               ,0000           ,5A4F           ,1         ,1             ,3.046                ,GPS-3.0       ,5           ,0.133     ,0.146     ,0.291     ,0.871  ,1.871  ,0       ,4                 ,9         ,5             ,0           ,0         ,1          ,           ,           ,           ,           ,           ,           ,           ,           ,           ,           ,0                     ,000000                     ,                 ,                 ,                 ,
000000020,01932-0007,2.4406833260,102.6914139209,42.2140464783,0,0,32.1944381623 ,15.199 ,3.534    ,2.309     ,-0.667    ,2021-08-05,02:17:27.800002,1628129847      ,800002               ,0000           ,5A4F           ,1         ,1             ,3.031                ,GPS-3.0       ,5           ,0.134     ,0.147     ,0.293     ,0.871  ,1.871  ,0       ,4                 ,9         ,5             ,0           ,0         ,1          ,           ,           ,           ,           ,           ,           ,           ,           ,           ,           ,0                     ,000000                     ,                 ,                 ,                 ,
000000021,01932-0007,2.4407066696,102.6914291213,42.5985031128,0,0,32.2205772963 ,14.822 ,3.468    ,2.218     ,-0.609    ,2021-08-05,02:17:28.549996,1628129848      ,549996               ,0000           ,5A4F           ,1         ,1             ,3.097                ,GPS-3.0       ,5           ,0.136     ,0.148     ,0.295     ,0.871  ,1.872  ,0       ,4                 ,9         ,5             ,0           ,0         ,2          ,           ,           ,           ,           ,           ,           ,           ,           ,           ,           ,0                     ,000000                     ,                 ,                 ,                 ,
000000022,01932-0007,2.4407314402,102.6914436907,43.1845932007,0,0,32.3970113278 ,15.509 ,3.625    ,2.328     ,-0.741    ,2021-08-05,02:17:29.300013,1628129849      ,300013               ,0000           ,5A4F           ,1         ,1             ,3.195                ,GPS-3.0       ,5           ,0.138     ,0.150     ,0.297     ,0.871  ,1.872  ,0       ,4                 ,9         ,5             ,0           ,0         ,2          ,           ,           ,           ,           ,           ,           ,           ,           ,           ,           ,0                     ,000000                     ,                 ,                 ,                 ,
000000023,01932-0007,2.4407550323,102.6914601279,43.5596389771,0,0,32.9964048237 ,15.356 ,3.556    ,2.356     ,-0.617    ,2021-08-05,02:17:30.050224,1628129850      ,050224               ,0000           ,5A4F           ,1         ,1             ,3.196                ,GPS-3.0       ,5           ,0.139     ,0.151     ,0.299     ,0.871  ,1.872  ,0       ,4                 ,9         ,5             ,0           ,0         ,2          ,           ,           ,           ,           ,           ,           ,           ,           ,           ,           ,0                     ,000000                     ,                 ,                 ,                 ,
000000024,01932-0007,2.4407784208,102.6914765545,43.8517379761,0,0,33.1676444964 ,15.500 ,3.525    ,2.472     ,-0.564    ,2021-08-05,02:17:30.800002,1628129850      ,800002               ,0000           ,5A4F           ,1         ,1             ,3.177                ,GPS-3.0       ,5           ,0.140     ,0.152     ,0.301     ,0.988  ,2.238  ,0       ,4                 ,9         ,4             ,0           ,0         ,3          ,           ,           ,           ,           ,           ,           ,           ,           ,           ,           ,0                     ,000000                     ,                 ,                 ,                 ,
000000025,01932-0007,2.4408007921,102.6914921769,44.1796493530,0,0,33.2321419727 ,15.554 ,3.593    ,2.400     ,-0.559    ,2021-08-05,02:17:31.500106,1628129851      ,500106               ,0000           ,5A4F           ,1         ,1             ,3.033                ,GPS-3.0       ,5           ,0.142     ,0.154     ,0.304     ,0.871  ,1.872  ,0       ,4                 ,9         ,5             ,0           ,0         ,3          ,           ,           ,           ,           ,           ,           ,           ,           ,           ,           ,0                     ,000000                     ,                 ,                 ,                 ,
000000026,01932-0007,2.4408232400,102.6915075353,44.6186599731,0,0,33.5186137669 ,15.784 ,3.646    ,2.436     ,-0.593    ,2021-08-05,02:17:32.200003,1628129852      ,200003               ,0000           ,5A4F           ,1         ,1             ,3.024                ,GPS-3.0       ,5           ,0.142     ,0.154     ,0.305     ,0.871  ,1.872  ,0       ,4                 ,9         ,5             ,0           ,0         ,2          ,           ,           ,           ,           ,           ,           ,           ,           ,           ,           ,0                     ,000000                     ,                 ,                 ,                 ,
000000027,01932-0007,2.4408463553,102.6915224807,45.1166229248,0,0,33.6234537556 ,15.910 ,3.662    ,2.473     ,-0.613    ,2021-08-05,02:17:32.900000,1628129852      ,900000               ,0000           ,5A4F           ,1         ,1             ,3.060                ,GPS-3.0       ,5           ,0.142     ,0.155     ,0.307     ,0.795  ,1.749  ,0       ,4                 ,9         ,5             ,0           ,0         ,2          ,           ,           ,           ,           ,           ,           ,           ,           ,           ,           ,0                     ,000000                     ,                 ,                 ,                 ,
000000028,01932-0007,2.4408693303,102.6915388385,45.4978370667,0,0,34.0734778445 ,16.269 ,3.733    ,2.548     ,-0.634    ,2021-08-05,02:17:33.600106,1628129853      ,600106               ,0000           ,5A4F           ,1         ,1             ,3.135                ,GPS-3.0       ,5           ,0.141     ,0.155     ,0.308     ,1.308  ,3.710  ,0       ,4                 ,10        ,5             ,0           ,0         ,2          ,           ,           ,           ,           ,           ,           ,           ,           ,           ,           ,0                     ,000000                     ,                 ,                 ,                 ,
000000029,01932-0007,2.4408928353,102.6915550715,45.9779090881,0,0,34.2473881211 ,16.499 ,3.780    ,2.592     ,-0.664    ,2021-08-05,02:17:34.300000,1628129854      ,300000               ,0000           ,5A4F           ,1         ,1             ,3.175                ,GPS-3.0       ,5           ,0.140     ,0.156     ,0.309     ,0.863  ,1.758  ,0       ,4                 ,10        ,5             ,0           ,0         ,2          ,           ,           ,           ,           ,           ,           ,           ,           ,           ,           ,0                     ,000000                     ,                 ,                 ,                 ,
000000030,01932-0007,2.4409151574,102.6915703120,46.5513534546,0,0,34.2704980662 ,16.738 ,3.842    ,2.618     ,-0.762    ,2021-08-05,02:17:34.949996,1628129854      ,949996               ,0000           ,5A4F           ,1         ,1             ,3.005                ,GPS-3.0       ,5           ,0.139     ,0.157     ,0.311     ,0.879  ,2.072  ,0       ,4                 ,10        ,5             ,0           ,0         ,2          ,           ,           ,           ,           ,           ,           ,           ,           ,           ,           ,0                     ,000000                     ,                 ,                 ,                 ,
000000031,01932-0007,2.4409379475,102.6915859831,46.9654998779,0,0,34.0106810853 ,16.903 ,3.838    ,2.704     ,-0.713    ,2021-08-05,02:17:35.600003,1628129855      ,600003               ,0000           ,5A4F           ,1         ,1             ,3.075                ,GPS-3.0       ,5           ,0.138     ,0.158     ,0.312     ,0.795  ,1.749  ,0       ,4                 ,10        ,5             ,0           ,0         ,3          ,           ,           ,           ,           ,           ,           ,           ,           ,           ,           ,0                     ,000000                     ,                 ,                 ,                 ,
000000032,01932-0007,2.4409612334,102.6916018238,47.3891448975,0,0,33.8856305668 ,17.507 ,4.018    ,2.739     ,-0.705    ,2021-08-05,02:17:36.250122,1628129856      ,250122               ,0000           ,5A4F           ,1         ,1             ,3.131                ,GPS-3.0       ,5           ,0.136     ,0.158     ,0.314     ,0.795  ,1.749  ,0       ,4                 ,10        ,5             ,0           ,0         ,4          ,           ,           ,           ,           ,           ,           ,           ,           ,           ,           ,0                     ,000000                     ,                 ,                 ,                 ,
000000033,01932-0007,2.4409849087,102.6916179337,47.7513618469,0,0,33.9020537567 ,17.565 ,4.035    ,2.743     ,-0.629    ,2021-08-05,02:17:36.900241,1628129856      ,900241               ,0000           ,5A4F           ,1         ,1             ,3.183                ,GPS-3.0       ,5           ,0.135     ,0.159     ,0.315     ,0.879  ,2.072  ,0       ,4                 ,10        ,5             ,0           ,0         ,4          ,           ,           ,           ,           ,           ,           ,           ,           ,           ,           ,0                     ,000000                     ,                 ,                 ,                 ,
000000034,01932-0007,2.4410091601,102.6916343105,48.1486473083,0,0,33.8102321086 ,18.200 ,4.256    ,2.729     ,-0.655    ,2021-08-05,02:17:37.549996,1628129857      ,549996               ,0000           ,5A4F           ,1         ,1             ,3.253                ,GPS-3.0       ,5           ,0.134     ,0.159     ,0.316     ,0.795  ,1.749  ,0       ,4                 ,10        ,5             ,0           ,0         ,4          ,           ,           ,           ,           ,           ,           ,           ,           ,           ,           ,0                     ,000000                     ,                 ,                 ,                 ,
000000035,01932-0007,2.4410319247,102.6916496906,48.4841842651,0,0,33.8256034493 ,18.421 ,4.255    ,2.842     ,-0.646    ,2021-08-05,02:17:38.149996,1628129858      ,149996               ,0000           ,5A4F           ,1         ,1             ,3.054                ,GPS-3.0       ,5           ,0.134     ,0.159     ,0.317     ,0.795  ,1.749  ,0       ,4                 ,10        ,5             ,0           ,0         ,4          ,           ,           ,           ,           ,           ,           ,           ,           ,           ,           ,0                     ,000000                     ,                 ,                 ,                 ,
000000036,01932-0007,2.4410552606,102.6916652965,48.8623352051,0,0,33.8027223156 ,18.485 ,4.247    ,2.886     ,-0.645    ,2021-08-05,02:17:38.749995,1628129858      ,749995               ,0000           ,5A4F           ,1         ,1             ,3.121                ,GPS-3.0       ,5           ,0.134     ,0.159     ,0.317     ,0.795  ,1.750  ,0       ,4                 ,10        ,5             ,0           ,0         ,4          ,           ,           ,           ,           ,           ,           ,           ,           ,           ,           ,0                     ,000000                     ,                 ,                 ,                 ,
000000037,01932-0007,2.4410787634,102.6916811838,49.3229675293,0,0,33.8523914513 ,18.676 ,4.204    ,3.040     ,-0.702    ,2021-08-05,02:17:39.350072,1628129859      ,350072               ,0000           ,5A4F           ,1         ,1             ,3.154                ,GPS-3.0       ,5           ,0.134     ,0.159     ,0.318     ,0.795  ,1.750  ,0       ,4                 ,10        ,5             ,0           ,0         ,2          ,           ,           ,           ,           ,           ,           ,           ,           ,           ,           ,0                     ,000000                     ,                 ,                 ,                 ,
000000038,01932-0007,2.4411018829,102.6916966443,49.6957435608,0,0,33.8282945439 ,18.170 ,4.119    ,2.916     ,-0.638    ,2021-08-05,02:17:39.949996,1628129859      ,949996               ,0000           ,5A4F           ,1         ,1             ,3.092                ,GPS-3.0       ,5           ,0.134     ,0.158     ,0.319     ,0.879  ,2.072  ,0       ,4                 ,10        ,5             ,0           ,0         ,2          ,           ,           ,           ,           ,           ,           ,           ,           ,           ,           ,0                     ,000000                     ,                 ,                 ,                 ,
000000039,01932-0007,2.4411246642,102.6917120145,50.1227760315,0,0,33.9685934596 ,17.841 ,4.101    ,2.782     ,-0.659    ,2021-08-05,02:17:40.550240,1628129860      ,550240               ,0000           ,5A4F           ,1         ,1             ,3.055                ,GPS-3.0       ,5           ,0.135     ,0.158     ,0.320     ,0.846  ,1.834  ,0       ,4                 ,10        ,5             ,0           ,0         ,2          ,           ,           ,           ,           ,           ,           ,           ,           ,           ,           ,0                     ,000000                     ,                 ,                 ,                 ,
000000040,01932-0007,2.4411487576,102.6917281726,50.5996170044,0,0,34.2619193486 ,17.657 ,4.032    ,2.792     ,-0.691    ,2021-08-05,02:17:41.200018,1628129861      ,200018               ,0000           ,5A4F           ,1         ,1             ,3.225                ,GPS-3.0       ,5           ,0.136     ,0.158     ,0.322     ,0.879  ,2.072  ,0       ,4                 ,10        ,5             ,0           ,0         ,2          ,           ,           ,           ,           ,           ,           ,           ,           ,           ,           ,0                     ,000000                     ,                 ,                 ,                 ,
000000041,01932-0007,2.4411723783,102.6917442810,51.0399589539,0,0,34.6388569983 ,17.441 ,3.996    ,2.739     ,-0.657    ,2021-08-05,02:17:41.849996,1628129861      ,849996               ,0000           ,5A4F           ,1         ,1             ,3.178                ,GPS-3.0       ,5           ,0.137     ,0.158     ,0.322     ,0.879  ,2.072  ,0       ,4                 ,10        ,5             ,0           ,0         ,2          ,           ,           ,           ,           ,           ,           ,           ,           ,           ,           ,0                     ,000000                     ,                 ,                 ,                 ,
000000042,01932-0007,2.4411960001,102.6917605693,51.4502105713,0,0,34.4870526289 ,17.905 ,4.104    ,2.810     ,-0.679    ,2021-08-05,02:17:42.500000,1628129862      ,500000               ,0000           ,5A4F           ,1         ,1             ,3.190                ,GPS-3.0       ,5           ,0.137     ,0.159     ,0.323     ,0.795  ,1.750  ,0       ,4                 ,10        ,5             ,0           ,0         ,2          ,           ,           ,           ,           ,           ,           ,           ,           ,           ,           ,0                     ,000000                     ,                 ,                 ,                 ,
000000043,01932-0007,2.4412202087,102.6917768684,51.8614425659,0,0,34.1464447554 ,18.229 ,4.207    ,2.818     ,-0.686    ,2021-08-05,02:17:43.149996,1628129863      ,149996               ,0000           ,5A4F           ,1         ,1             ,3.244                ,GPS-3.0       ,5           ,0.138     ,0.159     ,0.324     ,0.795  ,1.750  ,0       ,4                 ,10        ,5             ,0           ,0         ,2          ,           ,           ,           ,           ,           ,           ,           ,           ,           ,           ,0                     ,000000                     ,                 ,                 ,                 ,
000000044,01932-0007,2.4412431100,102.6917920226,52.2740097046,0,0,33.8783325097 ,18.365 ,4.284    ,2.770     ,-0.717    ,2021-08-05,02:17:43.750256,1628129863      ,750256               ,0000           ,5A4F           ,1         ,1             ,3.053                ,GPS-3.0       ,5           ,0.137     ,0.158     ,0.324     ,0.795  ,1.750  ,0       ,4                 ,10        ,5             ,0           ,0         ,4          ,           ,           ,           ,           ,           ,           ,           ,           ,           ,           ,0                     ,000000                     ,                 ,                 ,                 ,
000000045,01932-0007,2.4412662438,102.6918076414,52.6757583618,0,0,34.0999311672 ,18.820 ,4.283    ,2.998     ,-0.725    ,2021-08-05,02:17:44.349996,1628129864      ,349996               ,0000           ,5A4F           ,1         ,1             ,3.103                ,GPS-3.0       ,5           ,0.137     ,0.157     ,0.324     ,0.879  ,2.072  ,0       ,4                 ,10        ,5             ,0           ,0         ,4          ,           ,           ,           ,           ,           ,           ,           ,           ,           ,           ,0                     ,000000                     ,                 ,                 ,                 ,
000000046,01932-0007,2.4412896423,102.6918237787,53.0547676086,0,0,34.3309759762 ,19.319 ,4.427    ,3.033     ,-0.732    ,2021-08-05,02:17:44.949996,1628129864      ,949996               ,0000           ,5A4F           ,1         ,1             ,3.160                ,GPS-3.0       ,5           ,0.137     ,0.155     ,0.323     ,0.795  ,1.750  ,0       ,4                 ,10        ,5             ,0           ,0         ,4          ,           ,           ,           ,           ,           ,           ,           ,           ,           ,           ,0                     ,000000                     ,                 ,                 ,                 ,
000000047,01932-0007,2.4413125154,102.6918391936,53.4592933655,0,0,34.4616682309 ,20.205 ,4.660    ,3.128     ,-0.768    ,2021-08-05,02:17:45.499999,1628129865      ,499999               ,0000           ,5A4F           ,1         ,1             ,3.066                ,GPS-3.0       ,5           ,0.135     ,0.154     ,0.322     ,0.795  ,1.750  ,0       ,4                 ,10        ,5             ,0           ,0         ,4          ,           ,           ,           ,           ,           ,           ,           ,           ,           ,           ,0                     ,000000                     ,                 ,                 ,                 ,
000000048,01932-0007,2.4413363195,102.6918552008,53.8836936951,0,0,34.5404647082 ,21.180 ,4.847    ,3.335     ,-0.778    ,2021-08-05,02:17:46.049996,1628129866      ,049996               ,0000           ,5A4F           ,1         ,1             ,3.189                ,GPS-3.0       ,5           ,0.136     ,0.155     ,0.323     ,0.795  ,1.750  ,0       ,4                 ,10        ,5             ,0           ,0         ,4          ,           ,           ,           ,           ,           ,           ,           ,           ,           ,           ,0                     ,000000                     ,                 ,                 ,                 ,
000000049,01932-0007,2.4413592967,102.6918704939,54.2592201233,0,0,34.2115671940 ,21.650 ,4.979    ,3.373     ,-0.779    ,2021-08-05,02:17:46.549996,1628129866      ,549996               ,0000           ,5A4F           ,1         ,1             ,3.068                ,GPS-3.0       ,5           ,0.131     ,0.150     ,0.318     ,0.795  ,1.750  ,0       ,4                 ,10        ,5             ,0           ,0         ,4          ,           ,           ,           ,           ,           ,           ,           ,           ,           ,           ,0                     ,000000                     ,                 ,                 ,                 ,
000000050,01932-0007,2.4413824802,102.6918858441,54.6546936035,0,0,33.8585591121 ,22.152 ,5.123    ,3.409     ,-0.799    ,2021-08-05,02:17:47.049995,1628129867      ,049995               ,0000           ,5A4F           ,1         ,1             ,3.091                ,GPS-3.0       ,5           ,0.129     ,0.148     ,0.316     ,0.795  ,1.750  ,0       ,4                 ,10        ,5             ,0           ,0         ,4          ,           ,           ,           ,           ,           ,           ,           ,           ,           ,           ,0                     ,000000                     ,                 ,                 ,                 ,
000000051,01932-0007,2.4414058482,102.6919013261,55.0256118774,0,0,33.5643657890 ,21.978 ,5.102    ,3.352     ,-0.745    ,2021-08-05,02:17:47.549995,1628129867      ,549995               ,0000           ,5A4F           ,1         ,1             ,3.116                ,GPS-3.0       ,5           ,0.129     ,0.146     ,0.315     ,0.795  ,1.750  ,0       ,4                 ,10        ,5             ,0           ,0         ,4          ,           ,           ,           ,           ,           ,           ,           ,           ,           ,           ,0                     ,000000                     ,                 ,                 ,                 ,
000000052,01932-0007,2.4414291824,102.6919165145,55.4182281494,0,0,33.5204476727 ,21.915 ,5.045    ,3.406     ,-0.768    ,2021-08-05,02:17:48.049995,1628129868      ,049995               ,0000           ,5A4F           ,1         ,1             ,3.095                ,GPS-3.0       ,5           ,0.129     ,0.144     ,0.315     ,0.795  ,1.750  ,0       ,4                 ,10        ,5             ,0           ,0         ,4          ,           ,           ,           ,           ,           ,           ,           ,           ,           ,           ,0                     ,000000                     ,                 ,                 ,                 ,
000000053,01932-0007,2.4414520633,102.6919317371,55.8394317627,0,0,33.6880058734 ,21.713 ,4.974    ,3.411     ,-0.784    ,2021-08-05,02:17:48.549995,1628129868      ,549995               ,0000           ,5A4F           ,1         ,1             ,3.055                ,GPS-3.0       ,5           ,0.129     ,0.144     ,0.315     ,0.795  ,1.750  ,0       ,4                 ,10        ,5             ,0           ,0         ,4          ,           ,           ,           ,           ,           ,           ,           ,           ,           ,           ,0                     ,000000                     ,                 ,                 ,                 ,
000000054,01932-0007,2.4414766310,102.6919481343,56.2608337402,0,0,33.6755373631 ,21.365 ,4.969    ,3.244     ,-0.777    ,2021-08-05,02:17:49.099999,1628129869      ,099999               ,0000           ,5A4F           ,1         ,1             ,3.283                ,GPS-3.0       ,5           ,0.129     ,0.143     ,0.315     ,0.795  ,1.750  ,0       ,4                 ,10        ,5             ,0           ,0         ,4          ,           ,           ,           ,           ,           ,           ,           ,           ,           ,           ,0                     ,000000                     ,                 ,                 ,                 ,
000000055,01932-0007,2.4415007127,102.6919641347,56.6350746155,0,0,33.9738390449 ,20.640 ,4.621    ,3.393     ,-0.679    ,2021-08-05,02:17:49.649995,1628129869      ,649995               ,0000           ,5A4F           ,1         ,1             ,3.214                ,GPS-3.0       ,5           ,0.128     ,0.143     ,0.315     ,0.795  ,1.750  ,0       ,4                 ,10        ,5             ,0           ,0         ,4          ,           ,           ,           ,           ,           ,           ,           ,           ,           ,           ,0                     ,000000                     ,                 ,                 ,                 ,
000000056,01932-0007,2.4415239018,102.6919801340,57.0577850342,0,0,34.8033928403 ,20.176 ,4.592    ,3.213     ,-0.707    ,2021-08-05,02:17:50.200001,1628129870      ,200001               ,0000           ,5A4F           ,1         ,1             ,3.132                ,GPS-3.0       ,5           ,0.127     ,0.143     ,0.315     ,0.795  ,1.750  ,0       ,4                 ,10        ,5             ,0           ,0         ,4          ,           ,           ,           ,           ,           ,           ,           ,           ,           ,           ,0                     ,000000                     ,                 ,                 ,                 ,
000000057,01932-0007,2.4415462421,102.6919959121,57.4557075500,0,0,35.5531256301 ,19.095 ,4.259    ,3.161     ,-0.672    ,2021-08-05,02:17:50.749995,1628129870      ,749995               ,0000           ,5A4F           ,1         ,1             ,3.040                ,GPS-3.0       ,5           ,0.127     ,0.143     ,0.316     ,0.795  ,1.750  ,0       ,4                 ,10        ,5             ,0           ,0         ,4          ,           ,           ,           ,           ,           ,           ,           ,           ,           ,           ,0                     ,000000                     ,                 ,                 ,                 ,
000000058,01932-0007,2.4415697729,102.6920128697,57.7920379639,0,0,35.4271393757 ,19.226 ,4.381    ,3.054     ,-0.678    ,2021-08-05,02:17:51.349995,1628129871      ,349995               ,0000           ,5A4F           ,1         ,1             ,3.224                ,GPS-3.0       ,5           ,0.127     ,0.144     ,0.317     ,0.795  ,1.750  ,0       ,4                 ,10        ,5             ,0           ,0         ,2          ,           ,           ,           ,           ,           ,           ,           ,           ,           ,           ,0                     ,000000                     ,                 ,                 ,                 ,
000000059,01932-0007,2.4415927538,102.6920286486,58.1175117493,0,0,34.8104142748 ,17.706 ,4.050    ,2.791     ,-0.554    ,2021-08-05,02:17:51.950064,1628129871      ,950064               ,0000           ,5A4F           ,1         ,1             ,3.099                ,GPS-3.0       ,5           ,0.128     ,0.145     ,0.319     ,0.879  ,2.072  ,0       ,4                 ,10        ,5             ,0           ,0         ,2          ,           ,           ,           ,           ,           ,           ,           ,           ,           ,           ,0                     ,000000                     ,                 ,                 ,                 ,
000000060,01932-0007,2.4416153593,102.6920442743,58.4731788635,0,0,34.4284837568 ,16.184 ,3.706    ,2.544     ,-0.661    ,2021-08-05,02:17:52.600187,1628129872      ,600187               ,0000           ,5A4F           ,1         ,1             ,3.055                ,GPS-3.0       ,5           ,0.128     ,0.145     ,0.318     ,0.795  ,1.750  ,0       ,4                 ,10        ,5             ,0           ,0         ,2          ,           ,           ,           ,           ,           ,           ,           ,           ,           ,           ,0                     ,000000                     ,                 ,                 ,                 ,
000000061,01932-0007,2.4416389679,102.6920600991,58.9068908691,0,0,34.1038107146 ,16.934 ,4.156    ,2.204     ,-0.638    ,2021-08-05,02:17:53.250031,1628129873      ,250031               ,0000           ,5A4F           ,1         ,1             ,3.159                ,GPS-3.0       ,5           ,0.127     ,0.144     ,0.318     ,0.795  ,1.750  ,0       ,4                 ,10        ,5             ,0           ,0         ,2          ,           ,           ,           ,           ,           ,           ,           ,           ,           ,           ,0                     ,000000                     ,                 ,                 ,                 ,
000000062,01932-0007,2.4416625992,102.6920758575,59.3133049011,0,0,33.6072866978 ,17.802 ,4.157    ,2.679     ,-0.680    ,2021-08-05,02:17:53.899998,1628129873      ,899998               ,0000           ,5A4F           ,1         ,1             ,3.157                ,GPS-3.0       ,5           ,0.126     ,0.143     ,0.317     ,0.795  ,1.750  ,0       ,4                 ,10        ,5             ,0           ,0         ,2          ,           ,           ,           ,           ,           ,           ,           ,           ,           ,           ,0                     ,000000                     ,                 ,                 ,                 ,
000000063,01932-0007,2.4416854650,102.6920912092,59.6556472778,0,0,33.3451713582 ,18.755 ,4.433    ,2.736     ,-0.665    ,2021-08-05,02:17:54.499999,1628129874      ,499999               ,0000           ,5A4F           ,1         ,1             ,3.062                ,GPS-3.0       ,5           ,0.126     ,0.141     ,0.316     ,0.795  ,1.751  ,0       ,4                 ,10        ,5             ,0           ,0         ,2          ,           ,           ,           ,           ,           ,           ,           ,           ,           ,           ,0                     ,000000                     ,                 ,                 ,                 ,
000000064,01932-0007,2.4417092584,102.6921067251,60.0830421448,0,0,33.2486129739 ,19.225 ,4.471    ,2.920     ,-0.697    ,2021-08-05,02:17:55.099999,1628129875      ,099999               ,0000           ,5A4F           ,1         ,1             ,3.158                ,GPS-3.0       ,5           ,0.126     ,0.142     ,0.316     ,0.879  ,2.072  ,0       ,4                 ,10        ,5             ,0           ,0         ,2          ,           ,           ,           ,           ,           ,           ,           ,           ,           ,           ,0                     ,000000                     ,                 ,                 ,                 ,
000000065,01932-0007,2.4417320211,102.6921213652,60.4943771362,0,0,33.0775303956 ,19.947 ,4.638    ,3.031     ,-0.736    ,2021-08-05,02:17:55.649995,1628129875      ,649995               ,0000           ,5A4F           ,1         ,1             ,3.009                ,GPS-3.0       ,5           ,0.127     ,0.142     ,0.317     ,0.879  ,2.072  ,0       ,4                 ,10        ,5             ,0           ,0         ,4          ,           ,           ,           ,           ,           ,           ,           ,           ,           ,           ,0                     ,000000                     ,                 ,                 ,                 ,
000000066,01932-0007,2.4417554871,102.6921362865,60.8914451599,0,0,33.0783295277 ,20.228 ,4.727    ,3.038     ,-0.745    ,2021-08-05,02:17:56.200001,1628129876      ,200001               ,0000           ,5A4F           ,1         ,1             ,3.091                ,GPS-3.0       ,5           ,0.127     ,0.142     ,0.318     ,0.879  ,2.072  ,0       ,4                 ,10        ,5             ,0           ,0         ,4          ,           ,           ,           ,           ,           ,           ,           ,           ,           ,           ,0                     ,000000                     ,                 ,                 ,                 ,
000000067,01932-0007,2.4417791008,102.6921515510,61.3050193787,0,0,33.4394040631 ,20.348 ,4.715    ,3.116     ,-0.777    ,2021-08-05,02:17:56.749995,1628129876      ,749995               ,0000           ,5A4F           ,1         ,1             ,3.126                ,GPS-3.0       ,5           ,0.128     ,0.143     ,0.318     ,0.879  ,2.072  ,0       ,4                 ,10        ,5             ,0           ,0         ,4          ,           ,           ,           ,           ,           ,           ,           ,           ,           ,           ,0                     ,000000                     ,                 ,                 ,                 ,
000000068,01932-0007,2.4418023490,102.6921668456,61.7298049927,0,0,33.7521925761 ,19.482 ,4.485    ,3.028     ,-0.735    ,2021-08-05,02:17:57.299999,1628129877      ,299999               ,0000           ,5A4F           ,1         ,1             ,3.093                ,GPS-3.0       ,5           ,0.128     ,0.142     ,0.319     ,0.929  ,2.189  ,0       ,4                 ,10        ,5             ,0           ,0         ,4          ,           ,           ,           ,           ,           ,           ,           ,           ,           ,           ,0                     ,000000                     ,                 ,                 ,                 ,
000000069,01932-0007,2.4418258858,102.6921828568,62.1510009766,0,0,34.5416531612 ,18.600 ,4.212    ,2.992     ,-0.675    ,2021-08-05,02:17:57.900228,1628129877      ,900228               ,0000           ,5A4F           ,1         ,1             ,3.164                ,GPS-3.0       ,5           ,0.127     ,0.141     ,0.318     ,0.929  ,2.189  ,0       ,4                 ,10        ,5             ,0           ,0         ,4          ,           ,           ,           ,           ,           ,           ,           ,           ,           ,           ,0                     ,000000                     ,                 ,                 ,                 ,
000000070,01932-0007,2.4418490267,102.6921986915,62.5773620605,0,0,35.3622628239 ,18.440 ,4.171    ,2.973     ,-0.635    ,2021-08-05,02:17:58.499999,1628129878      ,499999               ,0000           ,5A4F           ,1         ,1             ,3.117                ,GPS-3.0       ,5           ,0.125     ,0.139     ,0.312     ,1.030  ,2.074  ,0       ,4                 ,10        ,5             ,0           ,0         ,4          ,           ,           ,           ,           ,           ,           ,           ,           ,           ,           ,0                     ,000000                     ,                 ,                 ,                 ,
000000071,01932-0007,2.4418713676,102.6922150540,63.0044975281,0,0,36.9782036192 ,18.428 ,4.042    ,3.142     ,-0.686    ,2021-08-05,02:17:59.099999,1628129879      ,099999               ,0000           ,5A4F           ,1         ,1             ,3.078                ,GPS-3.0       ,5           ,0.125     ,0.137     ,0.310     ,1.030  ,2.074  ,0       ,4                 ,10        ,5             ,0           ,0         ,4          ,           ,           ,           ,           ,           ,           ,           ,           ,           ,           ,0                     ,000000                     ,                 ,                 ,                 ,
000000072,01932-0007,2.4418934123,102.6922316263,63.4813270569,0,0,39.4490211364 ,18.377 ,3.834    ,3.370     ,-0.741    ,2021-08-05,02:17:59.699999,1628129879      ,699999               ,0000           ,5A4F           ,1         ,1             ,3.066                ,GPS-3.0       ,5           ,0.126     ,0.138     ,0.312     ,0.879  ,2.072  ,0       ,4                 ,10        ,5             ,0           ,0         ,4          ,           ,           ,           ,           ,           ,           ,           ,           ,           ,           ,0                     ,000000                     ,                 ,                 ,                 ,
000000073,01932-0007,2.4419134390,102.6922499212,63.8925170898,0,0,43.6910637997 ,17.395 ,3.501    ,3.330     ,-0.669    ,2021-08-05,02:18:00.300000,1628129880      ,300000               ,0000           ,5A4F           ,1         ,1             ,3.015                ,GPS-3.0       ,5           ,0.127     ,0.139     ,0.313     ,0.879  ,2.072  ,0       ,4                 ,10        ,5             ,0           ,0         ,4          ,           ,           ,           ,           ,           ,           ,           ,           ,           ,           ,0                     ,000000                     ,                 ,                 ,                 ,
000000074,01932-0007,2.4419329641,102.6922711229,64.3198852539,0,0,49.2018106862 ,15.106 ,2.850    ,3.080     ,-0.593    ,2021-08-05,02:18:01.000192,1628129881      ,000192               ,0000           ,5A4F           ,1         ,1             ,3.203                ,GPS-3.0       ,5           ,0.128     ,0.140     ,0.314     ,0.879  ,2.072  ,0       ,4                 ,10        ,5             ,0           ,0         ,4          ,           ,           ,           ,           ,           ,           ,           ,           ,           ,           ,0                     ,000000                     ,                 ,                 ,                 ,
000000075,01932-0007,2.4419480644,102.6922935391,64.7323150635,0,0,57.1476907666 ,13.958 ,1.898    ,3.381     ,-0.569    ,2021-08-05,02:18:01.749996,1628129881      ,749996               ,0000           ,5A4F           ,1         ,1             ,3.003                ,GPS-3.0       ,5           ,0.129     ,0.141     ,0.314     ,0.879  ,2.072  ,0       ,4                 ,10        ,5             ,0           ,0         ,4          ,           ,           ,           ,           ,           ,           ,           ,           ,           ,           ,0                     ,000000                     ,                 ,                 ,                 ,
000000076,01932-0007,2.4419591624,102.6923198015,65.2283401489,0,0,68.1987285229 ,12.008 ,1.060    ,3.163     ,-0.551    ,2021-08-05,02:18:02.650248,1628129882      ,650248               ,0000           ,5A4F           ,1         ,1             ,3.168                ,GPS-3.0       ,5           ,0.130     ,0.142     ,0.315     ,0.795  ,1.751  ,0       ,4                 ,10        ,5             ,0           ,0         ,4          ,           ,           ,           ,           ,           ,           ,           ,           ,           ,           ,0                     ,000000                     ,                 ,                 ,                 ,
000000077,01932-0007,2.4419643665,102.6923465963,65.6721038818,0,0,78.9150426137 ,11.206 ,0.475    ,3.076     ,-0.473    ,2021-08-05,02:18:03.600002,1628129883      ,600002               ,0000           ,5A4F           ,1         ,1             ,3.032                ,GPS-3.0       ,5           ,0.130     ,0.142     ,0.314     ,0.795  ,1.751  ,0       ,4                 ,10        ,5             ,0           ,0         ,4          ,           ,           ,           ,           ,           ,           ,           ,           ,           ,           ,0                     ,000000                     ,                 ,                 ,                 ,
000000078,01932-0007,2.4419653022,102.6923738765,66.0889358521,0,0,88.8121779663 ,11.421 ,-0.175   ,3.168     ,-0.485    ,2021-08-05,02:18:04.600002,1628129884      ,600002               ,0000           ,5A4F           ,1         ,1             ,3.032                ,GPS-3.0       ,5           ,0.130     ,0.142     ,0.315     ,0.795  ,1.751  ,0       ,4                 ,10        ,5             ,0           ,0         ,4          ,           ,           ,           ,           ,           ,           ,           ,           ,           ,           ,0                     ,000000                     ,                 ,                 ,                 ,
000000079,01932-0007,2.4419614031,102.6924017544,66.6164932251,0,0,99.0620242877 ,13.793 ,-0.913   ,3.721     ,-0.631    ,2021-08-05,02:18:05.500000,1628129885      ,500000               ,0000           ,5A4F           ,1         ,1             ,3.127                ,GPS-3.0       ,5           ,0.131     ,0.143     ,0.316     ,0.795  ,1.751  ,0       ,4                 ,10        ,5             ,0           ,0         ,4          ,           ,           ,           ,           ,           ,           ,           ,           ,           ,           ,0                     ,000000                     ,                 ,                 ,                 ,
000000080,01932-0007,2.4419528068,102.6924290307,67.2114486694,0,0,109.5847503268,15.384 ,-1.694   ,3.923     ,-0.752    ,2021-08-05,02:18:06.300228,1628129886      ,300228               ,0000           ,5A4F           ,1         ,1             ,3.177                ,GPS-3.0       ,5           ,0.132     ,0.144     ,0.318     ,0.795  ,1.751  ,0       ,4                 ,10        ,5             ,0           ,0         ,4          ,           ,           ,           ,           ,           ,           ,           ,           ,           ,           ,0                     ,000000                     ,                 ,                 ,                 ,
000000081,01932-0007,2.4419396752,102.6924549510,67.7695312500,0,0,116.6105902656,17.390 ,-2.174   ,4.314     ,-0.840    ,2021-08-05,02:18:07.000010,1628129887      ,000010               ,0000           ,5A4F           ,1         ,1             ,3.229                ,GPS-3.0       ,5           ,0.132     ,0.145     ,0.320     ,0.795  ,1.751  ,0       ,4                 ,10        ,5             ,0           ,0         ,4          ,           ,           ,           ,           ,           ,           ,           ,           ,           ,           ,0                     ,000000                     ,                 ,                 ,                 ,
000000082,01932-0007,2.4419249791,102.6924788226,68.2424240112,0,0,122.0073959364,19.220 ,-2.842   ,4.520     ,-0.840    ,2021-08-05,02:18:07.600002,1628129887      ,600002               ,0000           ,5A4F           ,1         ,1             ,3.115                ,GPS-3.0       ,5           ,0.133     ,0.146     ,0.321     ,0.846  ,1.835  ,0       ,4                 ,10        ,5             ,0           ,0         ,4          ,           ,           ,           ,           ,           ,           ,           ,           ,           ,           ,0                     ,000000                     ,                 ,                 ,                 ,
000000083,01932-0007,2.4419076407,102.6925026018,68.7008285522,0,0,127.1470040038,19.702 ,-3.508   ,4.201     ,-0.779    ,2021-08-05,02:18:08.200041,1628129888      ,200041               ,0000           ,5A4F           ,1         ,1             ,3.270                ,GPS-3.0       ,5           ,0.133     ,0.146     ,0.321     ,0.846  ,1.835  ,0       ,4                 ,10        ,5             ,0           ,0         ,4          ,           ,           ,           ,           ,           ,           ,           ,           ,           ,           ,0                     ,000000                     ,                 ,                 ,                 ,
000000084,01932-0007,2.4418902501,102.6925233709,69.1416702271,0,0,129.6424545982,19.652 ,-3.642   ,4.067     ,-0.736    ,2021-08-05,02:18:08.750058,1628129888      ,750058               ,0000           ,5A4F           ,1         ,1             ,3.010                ,GPS-3.0       ,5           ,0.133     ,0.145     ,0.320     ,1.004  ,2.105  ,0       ,4                 ,10        ,5             ,0           ,0         ,4          ,           ,           ,           ,           ,           ,           ,           ,           ,           ,           ,0                     ,000000                     ,                 ,                 ,                 ,
000000085,01932-0007,2.4418722042,102.6925437333,69.6016769409,0,0,130.7638077354,19.731 ,-3.745   ,4.002     ,-0.718    ,2021-08-05,02:18:09.300085,1628129889      ,300085               ,0000           ,5A4F           ,1         ,1             ,3.024                ,GPS-3.0       ,5           ,0.133     ,0.144     ,0.316     ,0.795  ,1.752  ,0       ,4                 ,10        ,5             ,0           ,0         ,4          ,           ,           ,           ,           ,           ,           ,           ,           ,           ,           ,0                     ,000000                     ,                 ,                 ,                 ,
000000086,01932-0007,2.4418545830,102.6925647118,70.1170425415,0,0,129.7287062270,19.685 ,-3.510   ,4.193     ,-0.766    ,2021-08-05,02:18:09.850103,1628129889      ,850103               ,0000           ,5A4F           ,1         ,1             ,3.045                ,GPS-3.0       ,5           ,0.133     ,0.143     ,0.312     ,0.795  ,1.751  ,0       ,4                 ,10        ,5             ,0           ,0         ,4          ,           ,           ,           ,           ,           ,           ,           ,           ,           ,           ,0                     ,000000                     ,                 ,                 ,                 ,
000000087,01932-0007,2.4418369152,102.6925857920,70.5958023071,0,0,129.5265326276,20.350 ,-3.626   ,4.336     ,-0.803    ,2021-08-05,02:18:10.400134,1628129890      ,400134               ,0000           ,5A4F           ,1         ,1             ,3.057                ,GPS-3.0       ,5           ,0.133     ,0.143     ,0.311     ,0.846  ,1.836  ,0       ,4                 ,10        ,5             ,0           ,0         ,3          ,           ,           ,           ,           ,           ,           ,           ,           ,           ,           ,0                     ,000000                     ,                 ,                 ,                 ,
000000088,01932-0007,2.4418197308,102.6926074789,71.0225830078,0,0,128.6907087185,19.792 ,-3.403   ,4.318     ,-0.710    ,2021-08-05,02:18:10.950150,1628129890      ,950150               ,0000           ,5A4F           ,1         ,1             ,3.075                ,GPS-3.0       ,5           ,0.134     ,0.143     ,0.312     ,0.795  ,1.752  ,0       ,4                 ,10        ,5             ,0           ,0         ,3          ,           ,           ,           ,           ,           ,           ,           ,           ,           ,           ,0                     ,000000                     ,                 ,                 ,                 ,
000000089,01932-0007,2.4418014299,102.6926302051,71.4070510864,0,0,128.3810279415,17.680 ,-3.101   ,3.808     ,-0.552    ,2021-08-05,02:18:11.549996,1628129891      ,549996               ,0000           ,5A4F           ,1         ,1             ,3.243                ,GPS-3.0       ,5           ,0.135     ,0.144     ,0.313     ,0.795  ,1.752  ,0       ,4                 ,10        ,5             ,0           ,0         ,3          ,           ,           ,           ,           ,           ,           ,           ,           ,           ,           ,0                     ,000000                     ,                 ,                 ,                 ,
