#0:imgID ,1:camSN   ,2:lat       ,3:lon         ,4:height     ,5:roll       ,6:pitch       ,7:heading     ,8:speed,9:speed_n,10:speed_e,11:speed_d,12:date   ,13:time        ,14:unix_time_sec,15:unix_time_microsec,16:systemStatus,17:filterStatus,18:haveFix,19:extVelocity,20:distancetoprevious,21:releaseMode,22:device_id,23:lat_dev,24:lon_dev,25:hei_dev,26:hdop,27:vdop,28:fs_10,29:gnss_fix_status,30:gps_sat,31:glonass_sat,32:beidu_sat,33:gal_sat,34:sbas_sat,35:custLog0,36:custLog1,37:custLog2,38:custLog3,39:custLog4,40:custLog5,41:custLog6,42:custLog7,43:custLog8,44:custLog9,45:unix_time_sec_fixed,46:unix_time_microsec_fixed,47:pnvgbss_field3,48:pnvgbss_field4,49:pnvgbss_field5,50:pnvgbss_field6,51:pnvgbss_field7
000000001,01932-0007,2.4114147368,102.7293806877,27.3603878021,0,0,253.3993351886,9.923  ,-0.771   ,-2.646    ,0.355     ,2021-08-05,03:11:05.300005,1628133065      ,300005               ,0000           ,5A4F           ,1         ,1             ,0.000                ,GPS-3.0       ,5           ,0.117     ,0.118     ,0.278     ,0.845  ,2.168  ,0       ,4                 ,11        ,3             ,0           ,0         ,3          ,           ,           ,           ,           ,           ,           ,           ,           ,           ,           ,0                     ,000000                     ,                 ,                 ,                 ,
000000002,01932-0007,2.4114048781,102.7293551756,26.7590332031,0,0,250.8458006655,9.807  ,-1.108   ,-2.488    ,0.455     ,2021-08-05,03:11:06.450002,1628133066      ,450002               ,0000           ,5A4F           ,1         ,1             ,3.039                ,GPS-3.0       ,5           ,0.122     ,0.122     ,0.283     ,0.896  ,2.174  ,0       ,4                 ,11        ,2             ,0           ,0         ,3          ,           ,           ,           ,           ,           ,           ,           ,           ,           ,           ,0                     ,000000                     ,                 ,                 ,                 ,
000000003,01932-0007,2.4113933113,102.7293298075,26.0218238831,0,0,246.6105096442,8.679  ,-1.125   ,-2.132    ,0.481     ,2021-08-05,03:11:07.650018,1628133067      ,650018               ,0000           ,5A4F           ,1         ,1             ,3.098                ,GPS-3.0       ,5           ,0.128     ,0.127     ,0.290     ,0.845  ,2.168  ,0       ,4                 ,11        ,3             ,0           ,0         ,2          ,           ,           ,           ,           ,           ,           ,           ,           ,           ,           ,0                     ,000000                     ,                 ,                 ,                 ,
000000004,01932-0007,2.4113782821,102.7293072042,25.5912036896,0,0,232.7272485711,8.024  ,-1.561   ,-1.591    ,0.395     ,2021-08-05,03:11:08.950074,1628133068      ,950074               ,0000           ,5A4F           ,1         ,1             ,3.016                ,GPS-3.0       ,5           ,0.134     ,0.134     ,0.297     ,0.845  ,2.169  ,0       ,4                 ,11        ,3             ,0           ,0         ,1          ,           ,           ,           ,           ,           ,           ,           ,           ,           ,           ,0                     ,000000                     ,                 ,                 ,                 ,
000000005,01932-0007,2.4113546005,102.7292939403,25.1722908020,0,0,210.7059537058,8.572  ,-2.109   ,-1.106    ,0.430     ,2021-08-05,03:11:10.250010,1628133070      ,250010               ,0000           ,5A4F           ,1         ,1             ,3.018                ,GPS-3.0       ,5           ,0.139     ,0.139     ,0.301     ,0.845  ,2.169  ,0       ,4                 ,11        ,4             ,0           ,0         ,2          ,           ,           ,           ,           ,           ,           ,           ,           ,           ,           ,0                     ,000000                     ,                 ,                 ,                 ,
000000006,01932-0007,2.4113274333,102.7292923808,24.9109230042,0,0,183.1736933879,9.461  ,-2.612   ,0.291     ,0.210     ,2021-08-05,03:11:11.700015,1628133071      ,700015               ,0000           ,5A4F           ,1         ,1             ,3.026                ,GPS-3.0       ,5           ,0.146     ,0.147     ,0.308     ,0.845  ,2.169  ,0       ,4                 ,11        ,4             ,0           ,0         ,2          ,           ,           ,           ,           ,           ,           ,           ,           ,           ,           ,0                     ,000000                     ,                 ,                 ,                 ,
000000007,01932-0007,2.4112997087,102.7292982980,24.6774330139,0,0,172.8458189855,11.514 ,-3.086   ,0.841     ,0.109     ,2021-08-05,03:11:12.750011,1628133072      ,750011               ,0000           ,5A4F           ,1         ,1             ,3.152                ,GPS-3.0       ,5           ,0.150     ,0.151     ,0.314     ,0.845  ,2.169  ,0       ,4                 ,11        ,4             ,0           ,0         ,2          ,           ,           ,           ,           ,           ,           ,           ,           ,           ,           ,0                     ,000000                     ,                 ,                 ,                 ,
000000008,01932-0007,2.4112732166,102.7293048876,24.5244369507,0,0,170.3117914826,12.329 ,-3.291   ,0.949     ,0.053     ,2021-08-05,03:11:13.650012,1628133073      ,650012               ,0000           ,5A4F           ,1         ,1             ,3.035                ,GPS-3.0       ,5           ,0.159     ,0.160     ,0.323     ,0.878  ,2.175  ,0       ,4                 ,11        ,4             ,0           ,0         ,2          ,           ,           ,           ,           ,           ,           ,           ,           ,           ,           ,0                     ,000000                     ,                 ,                 ,                 ,
000000009,01932-0007,2.4112455640,102.7293058177,24.0950927734,0,0,169.7022244200,13.149 ,-3.594   ,0.653     ,0.154     ,2021-08-05,03:11:14.450002,1628133074      ,450002               ,0000           ,5A4F           ,1         ,1             ,3.077                ,GPS-3.0       ,5           ,0.158     ,0.158     ,0.323     ,0.918  ,2.869  ,0       ,4                 ,11        ,4             ,0           ,0         ,2          ,           ,           ,           ,           ,           ,           ,           ,           ,           ,           ,0                     ,000000                     ,                 ,                 ,                 ,
000000010,01932-0007,2.4112178693,102.7293109899,23.9798717499,0,0,169.7036314389,13.331 ,-3.625   ,0.758     ,0.096     ,2021-08-05,03:11:15.300040,1628133075      ,300040               ,0000           ,5A4F           ,1         ,1             ,3.133                ,GPS-3.0       ,5           ,0.161     ,0.161     ,0.327     ,1.393  ,3.933  ,0       ,4                 ,10        ,3             ,0           ,0         ,2          ,           ,           ,           ,           ,           ,           ,           ,           ,           ,           ,0                     ,000000                     ,                 ,                 ,                 ,
000000011,01932-0007,2.4111910387,102.7293170527,23.9298038483,0,0,167.3866673479,13.043 ,-3.563   ,0.654     ,0.182     ,2021-08-05,03:11:16.100005,1628133076      ,100005               ,0000           ,5A4F           ,1         ,1             ,3.059                ,GPS-3.0       ,5           ,0.164     ,0.164     ,0.331     ,1.087  ,2.973  ,0       ,4                 ,10        ,3             ,0           ,0         ,2          ,           ,           ,           ,           ,           ,           ,           ,           ,           ,           ,0                     ,000000                     ,                 ,                 ,                 ,
000000012,01932-0007,2.4111638144,102.7293234021,23.8072204590,0,0,167.8960218751,12.096 ,-3.259   ,0.816     ,0.272     ,2021-08-05,03:11:16.950230,1628133076      ,950230               ,0000           ,5A4F           ,1         ,1             ,3.108                ,GPS-3.0       ,5           ,0.168     ,0.167     ,0.336     ,0.987  ,2.960  ,0       ,4                 ,11        ,4             ,0           ,0         ,1          ,           ,           ,           ,           ,           ,           ,           ,           ,           ,           ,0                     ,000000                     ,                 ,                 ,                 ,
000000013,01932-0007,2.4111370140,102.7293296928,23.7195968628,0,0,166.8150624767,8.015  ,-2.168   ,0.506     ,0.129     ,2021-08-05,03:11:17.950235,1628133077      ,950235               ,0000           ,5A4F           ,1         ,1             ,3.061                ,GPS-3.0       ,5           ,0.169     ,0.166     ,0.338     ,1.263  ,3.218  ,0       ,4                 ,10        ,4             ,0           ,0         ,1          ,           ,           ,           ,           ,           ,           ,           ,           ,           ,           ,0                     ,000000                     ,                 ,                 ,                 ,
000000014,01932-0007,2.4111104020,102.7293351324,23.8259258270,0,0,166.7393703203,5.065  ,-1.363   ,0.348     ,0.079     ,2021-08-05,03:11:19.700018,1628133079      ,700018               ,0000           ,5A4F           ,1         ,1             ,3.020                ,GPS-3.0       ,5           ,0.170     ,0.164     ,0.340     ,1.016  ,2.920  ,0       ,4                 ,11        ,4             ,0           ,0         ,2          ,           ,           ,           ,           ,           ,           ,           ,           ,           ,           ,0                     ,000000                     ,                 ,                 ,                 ,
000000015,01932-0007,2.4110835166,102.7293410535,23.5696811676,0,0,166.9760227147,5.243  ,-1.420   ,0.323     ,0.298     ,2021-08-05,03:11:22.049996,1628133082      ,049996               ,0000           ,5A4F           ,1         ,1             ,3.061                ,GPS-3.0       ,5           ,0.172     ,0.163     ,0.343     ,1.016  ,2.921  ,0       ,4                 ,11        ,4             ,0           ,0         ,2          ,           ,           ,           ,           ,           ,           ,           ,           ,           ,           ,0                     ,000000                     ,                 ,                 ,                 ,
000000016,01932-0007,2.4110569610,102.7293464006,23.2682380676,0,0,167.9147502538,4.003  ,-1.085   ,0.242     ,0.173     ,2021-08-05,03:11:24.349996,1628133084      ,349996               ,0000           ,5A4F           ,1         ,1             ,3.012                ,GPS-3.0       ,5           ,0.174     ,0.156     ,0.342     ,1.050  ,2.961  ,0       ,4                 ,11        ,4             ,0           ,0         ,3          ,           ,           ,           ,           ,           ,           ,           ,           ,           ,           ,0                     ,000000                     ,                 ,                 ,                 ,
000000017,01932-0007,2.4110298419,102.7293515576,23.0906696320,0,0,167.0727245329,7.357  ,-1.989   ,0.470     ,0.226     ,2021-08-05,03:11:26.300247,1628133086      ,300247               ,0000           ,5A4F           ,1         ,1             ,3.069                ,GPS-3.0       ,5           ,0.172     ,0.148     ,0.337     ,0.947  ,2.919  ,0       ,4                 ,11        ,4             ,0           ,0         ,3          ,           ,           ,           ,           ,           ,           ,           ,           ,           ,           ,0                     ,000000                     ,                 ,                 ,                 ,
000000018,01932-0007,2.4110036058,102.7293586542,22.8743782043,0,0,164.4479511368,9.445  ,-2.502   ,0.790     ,0.201     ,2021-08-05,03:11:27.550015,1628133087      ,550015               ,0000           ,5A4F           ,1         ,1             ,3.022                ,GPS-3.0       ,5           ,0.173     ,0.145     ,0.336     ,0.947  ,2.920  ,0       ,4                 ,11        ,4             ,0           ,0         ,3          ,           ,           ,           ,           ,           ,           ,           ,           ,           ,           ,0                     ,000000                     ,                 ,                 ,                 ,
000000019,01932-0007,2.4109778388,102.7293668340,22.6839351654,0,0,161.7466796219,10.426 ,-2.722   ,0.989     ,0.107     ,2021-08-05,03:11:28.600001,1628133088      ,600001               ,0000           ,5A4F           ,1         ,1             ,3.006                ,GPS-3.0       ,5           ,0.173     ,0.146     ,0.337     ,0.918  ,2.872  ,0       ,4                 ,11        ,4             ,0           ,0         ,3          ,           ,           ,           ,           ,           ,           ,           ,           ,           ,           ,0                     ,000000                     ,                 ,                 ,                 ,
000000020,01932-0007,2.4109517436,102.7293761816,22.5106887817,0,0,158.9482281756,9.660  ,-2.489   ,1.002     ,0.126     ,2021-08-05,03:11:29.650173,1628133089      ,650173               ,0000           ,5A4F           ,1         ,1             ,3.082                ,GPS-3.0       ,5           ,0.173     ,0.146     ,0.338     ,0.893  ,2.175  ,0       ,4                 ,10        ,4             ,0           ,0         ,3          ,           ,           ,           ,           ,           ,           ,           ,           ,           ,           ,0                     ,000000                     ,                 ,                 ,                 ,
000000021,01932-0007,2.4109266799,102.7293863334,22.4479465485,0,0,157.4200143299,7.377  ,-1.904   ,0.759     ,0.076     ,2021-08-05,03:11:30.900000,1628133090      ,900000               ,0000           ,5A4F           ,1         ,1             ,3.007                ,GPS-3.0       ,5           ,0.172     ,0.147     ,0.339     ,0.846  ,2.171  ,0       ,4                 ,10        ,4             ,0           ,0         ,3          ,           ,           ,           ,           ,           ,           ,           ,           ,           ,           ,0                     ,000000                     ,                 ,                 ,                 ,
000000022,01932-0007,2.4109013167,102.7293962044,22.4278984070,0,0,158.0660682631,5.117  ,-1.326   ,0.512     ,0.035     ,2021-08-05,03:11:32.849996,1628133092      ,849996               ,0000           ,5A4F           ,1         ,1             ,3.026                ,GPS-3.0       ,5           ,0.172     ,0.147     ,0.341     ,0.894  ,2.175  ,0       ,4                 ,9         ,4             ,0           ,0         ,3          ,           ,           ,           ,           ,           ,           ,           ,           ,           ,           ,0                     ,000000                     ,                 ,                 ,                 ,
000000023,01932-0007,2.4108761344,102.7294060376,22.3306884766,0,0,157.6633466493,5.653  ,-1.474   ,0.540     ,0.041     ,2021-08-05,03:11:34.800002,1628133094      ,800002               ,0000           ,5A4F           ,1         ,1             ,3.006                ,GPS-3.0       ,5           ,0.173     ,0.148     ,0.345     ,0.894  ,2.175  ,0       ,4                 ,9         ,4             ,0           ,0         ,3          ,           ,           ,           ,           ,           ,           ,           ,           ,           ,           ,0                     ,000000                     ,                 ,                 ,                 ,
000000024,01932-0007,2.4108509885,102.7294165352,22.2621765137,0,0,156.2000879026,4.432  ,-1.128   ,0.494     ,0.020     ,2021-08-05,03:11:36.849997,1628133096      ,849997               ,0000           ,5A4F           ,1         ,1             ,3.030                ,GPS-3.0       ,5           ,0.174     ,0.149     ,0.349     ,0.847  ,2.172  ,0       ,4                 ,8         ,4             ,0           ,0         ,3          ,           ,           ,           ,           ,           ,           ,           ,           ,           ,           ,0                     ,000000                     ,                 ,                 ,                 ,
000000025,01932-0007,2.4108257072,102.7294267175,23.1798076630,0,0,156.2662587753,3.130  ,-0.739   ,0.458     ,-0.025    ,2021-08-05,03:12:04.850040,1628133124      ,850040               ,0000           ,5A4F           ,1         ,1             ,3.030                ,GPS-3.0       ,5           ,0.185     ,0.169     ,0.389     ,0.848  ,2.175  ,0       ,4                 ,9         ,4             ,0           ,0         ,4          ,           ,           ,           ,           ,           ,           ,           ,           ,           ,           ,0                     ,000000                     ,                 ,                 ,                 ,
000000026,01932-0007,2.4108013154,102.7294385252,23.1897640228,0,0,152.6530887044,6.915  ,-1.662   ,0.963     ,0.357     ,2021-08-05,03:12:06.500222,1628133126      ,500222               ,0000           ,5A4F           ,1         ,1             ,3.013                ,GPS-3.0       ,5           ,0.182     ,0.169     ,0.388     ,0.848  ,2.175  ,0       ,4                 ,9         ,4             ,0           ,0         ,4          ,           ,           ,           ,           ,           ,           ,           ,           ,           ,           ,0                     ,000000                     ,                 ,                 ,                 ,
000000027,01932-0007,2.4107782411,102.7294528717,23.1204757690,0,0,146.4933235825,9.510  ,-2.150   ,1.535     ,0.078     ,2021-08-05,03:12:07.700000,1628133127      ,700000               ,0000           ,5A4F           ,1         ,1             ,3.020                ,GPS-3.0       ,5           ,0.181     ,0.170     ,0.390     ,0.896  ,2.179  ,0       ,4                 ,9         ,4             ,0           ,0         ,4          ,           ,           ,           ,           ,           ,           ,           ,           ,           ,           ,0                     ,000000                     ,                 ,                 ,                 ,
000000028,01932-0007,2.4107564494,102.7294694734,23.0181427002,0,0,138.4359816451,8.916  ,-1.669   ,1.830     ,0.052     ,2021-08-05,03:12:08.800002,1628133128      ,800002               ,0000           ,5A4F           ,1         ,1             ,3.045                ,GPS-3.0       ,5           ,0.179     ,0.169     ,0.389     ,0.849  ,2.175  ,0       ,4                 ,9         ,4             ,0           ,0         ,4          ,           ,           ,           ,           ,           ,           ,           ,           ,           ,           ,0                     ,000000                     ,                 ,                 ,                 ,
000000029,01932-0007,2.4107407303,102.7294923085,23.0074920654,0,0,122.5934808087,8.361  ,-1.075   ,2.059     ,0.027     ,2021-08-05,03:12:10.049995,1628133130      ,049995               ,0000           ,5A4F           ,1         ,1             ,3.081                ,GPS-3.0       ,5           ,0.170     ,0.167     ,0.386     ,0.912  ,2.186  ,0       ,4                 ,9         ,4             ,0           ,0         ,4          ,           ,           ,           ,           ,           ,           ,           ,           ,           ,           ,0                     ,000000                     ,                 ,                 ,                 ,
000000030,01932-0007,2.4107313588,102.7295181417,23.0542068481,0,0,109.5511936074,7.596  ,-0.510   ,2.047     ,-0.021    ,2021-08-05,03:12:11.449995,1628133131      ,449995               ,0000           ,5A4F           ,1         ,1             ,3.053                ,GPS-3.0       ,5           ,0.166     ,0.166     ,0.384     ,0.849  ,2.175  ,0       ,4                 ,9         ,4             ,0           ,0         ,4          ,           ,           ,           ,           ,           ,           ,           ,           ,           ,           ,0                     ,000000                     ,                 ,                 ,                 ,
000000031,01932-0007,2.4107264029,102.7295450426,22.9988384247,0,0,101.5095747654,6.884  ,-0.479   ,1.851     ,0.020     ,2021-08-05,03:12:13.000009,1628133133      ,000009               ,0000           ,5A4F           ,1         ,1             ,3.039                ,GPS-3.0       ,5           ,0.165     ,0.166     ,0.384     ,0.849  ,2.176  ,0       ,4                 ,9         ,4             ,0           ,0         ,4          ,           ,           ,           ,           ,           ,           ,           ,           ,           ,           ,0                     ,000000                     ,                 ,                 ,                 ,
000000032,01932-0007,2.4107195021,102.7295719912,22.9652290344,0,0,101.7824749737,7.127  ,-0.182   ,1.971     ,-0.027    ,2021-08-05,03:12:14.650041,1628133134      ,650041               ,0000           ,5A4F           ,1         ,1             ,3.091                ,GPS-3.0       ,5           ,0.162     ,0.164     ,0.381     ,0.849  ,2.176  ,0       ,4                 ,9         ,4             ,0           ,0         ,4          ,           ,           ,           ,           ,           ,           ,           ,           ,           ,           ,0                     ,000000                     ,                 ,                 ,                 ,
000000033,01932-0007,2.4107160731,102.7295995312,23.0081748962,0,0,95.0018593167 ,7.542  ,-0.017   ,2.095     ,-0.008    ,2021-08-05,03:12:16.249996,1628133136      ,249996               ,0000           ,5A4F           ,1         ,1             ,3.083                ,GPS-3.0       ,5           ,0.161     ,0.163     ,0.380     ,0.849  ,2.176  ,0       ,4                 ,10        ,4             ,0           ,0         ,4          ,           ,           ,           ,           ,           ,           ,           ,           ,           ,           ,0                     ,000000                     ,                 ,                 ,                 ,
000000034,01932-0007,2.4107156912,102.7296273563,22.9781761169,0,0,89.5934013432 ,6.527  ,-0.013   ,1.813     ,0.042     ,2021-08-05,03:12:17.800002,1628133137      ,800002               ,0000           ,5A4F           ,1         ,1             ,3.092                ,GPS-3.0       ,5           ,0.158     ,0.161     ,0.376     ,0.920  ,2.879  ,0       ,4                 ,10        ,4             ,0           ,0         ,4          ,           ,           ,           ,           ,           ,           ,           ,           ,           ,           ,0                     ,000000                     ,                 ,                 ,                 ,
000000035,01932-0007,2.4107166386,102.7296545797,23.0858821869,0,0,85.6570198905 ,2.757  ,0.225    ,0.732     ,0.019     ,2021-08-05,03:12:20.349996,1628133140      ,349996               ,0000           ,5A4F           ,1         ,1             ,3.026                ,GPS-3.0       ,5           ,0.149     ,0.153     ,0.361     ,0.920  ,2.879  ,0       ,4                 ,10        ,4             ,0           ,0         ,4          ,           ,           ,           ,           ,           ,           ,           ,           ,           ,           ,0                     ,000000                     ,                 ,                 ,                 ,
000000036,01932-0007,2.4107202114,102.7296815147,23.2631263733,0,0,80.8504859980 ,3.271  ,0.157    ,0.895     ,-0.044    ,2021-08-05,03:12:23.899999,1628133143      ,899999               ,0000           ,5A4F           ,1         ,1             ,3.019                ,GPS-3.0       ,5           ,0.146     ,0.152     ,0.357     ,0.921  ,2.880  ,0       ,4                 ,10        ,4             ,0           ,0         ,3          ,           ,           ,           ,           ,           ,           ,           ,           ,           ,           ,0                     ,000000                     ,                 ,                 ,                 ,
000000037,01932-0007,2.4107236273,102.7297084974,23.3316936493,0,0,79.3734985711 ,1.746  ,0.133    ,0.466     ,-0.002    ,2021-08-05,03:12:29.249996,1628133149      ,249996               ,0000           ,5A4F           ,1         ,1             ,3.022                ,GPS-3.0       ,5           ,0.130     ,0.142     ,0.332     ,0.921  ,2.881  ,0       ,4                 ,10        ,5             ,0           ,0         ,3          ,           ,           ,           ,           ,           ,           ,           ,           ,           ,           ,0                     ,000000                     ,                 ,                 ,                 ,
000000038,01932-0007,2.4107258222,102.7297357733,23.3365592957,0,0,83.9166398787 ,5.001  ,0.204    ,1.374     ,-0.016    ,2021-08-05,03:12:33.049996,1628133153      ,049996               ,0000           ,5A4F           ,1         ,1             ,3.040                ,GPS-3.0       ,5           ,0.125     ,0.139     ,0.320     ,0.921  ,2.881  ,0       ,4                 ,10        ,5             ,0           ,0         ,2          ,           ,           ,           ,           ,           ,           ,           ,           ,           ,           ,0                     ,000000                     ,                 ,                 ,                 ,
000000039,01932-0007,2.4107285093,102.7297632355,23.1414184570,0,0,85.0031658813 ,6.678  ,0.394    ,1.813     ,0.056     ,2021-08-05,03:12:34.900229,1628133154      ,900229               ,0000           ,5A4F           ,1         ,1             ,3.066                ,GPS-3.0       ,5           ,0.127     ,0.141     ,0.314     ,0.921  ,2.882  ,0       ,4                 ,10        ,5             ,0           ,0         ,2          ,           ,           ,           ,           ,           ,           ,           ,           ,           ,           ,0                     ,000000                     ,                 ,                 ,                 ,
000000040,01932-0007,2.4107313277,102.7297900931,23.1257476807,0,0,83.5143963781 ,7.386  ,0.139    ,2.047     ,-0.022    ,2021-08-05,03:12:36.500000,1628133156      ,500000               ,0000           ,5A4F           ,1         ,1             ,3.000                ,GPS-3.0       ,5           ,0.131     ,0.144     ,0.314     ,0.921  ,2.882  ,0       ,4                 ,10        ,5             ,0           ,0         ,2          ,           ,           ,           ,           ,           ,           ,           ,           ,           ,           ,0                     ,000000                     ,                 ,                 ,                 ,
000000041,01932-0007,2.4107340143,102.7298170614,22.8636455536,0,0,82.1307298258 ,7.535  ,0.249    ,2.078     ,0.184     ,2021-08-05,03:12:37.949995,1628133157      ,949995               ,0000           ,5A4F           ,1         ,1             ,3.011                ,GPS-3.0       ,5           ,0.137     ,0.149     ,0.321     ,0.921  ,2.882  ,0       ,4                 ,10        ,4             ,0           ,0         ,2          ,           ,           ,           ,           ,           ,           ,           ,           ,           ,           ,0                     ,000000                     ,                 ,                 ,                 ,
000000042,01932-0007,2.4107385786,102.7298439293,23.0366935730,0,0,79.6620057617 ,6.722  ,0.140    ,1.862     ,-0.013    ,2021-08-05,03:12:39.499999,1628133159      ,499999               ,0000           ,5A4F           ,1         ,1             ,3.028                ,GPS-3.0       ,5           ,0.145     ,0.157     ,0.330     ,0.921  ,2.882  ,0       ,4                 ,10        ,4             ,0           ,0         ,0          ,           ,           ,           ,           ,           ,           ,           ,           ,           ,           ,0                     ,000000                     ,                 ,                 ,                 ,
000000043,01932-0007,2.4107434615,102.7298710040,23.0015373230,0,0,80.9973965369 ,7.440  ,0.403    ,2.027     ,0.006     ,2021-08-05,03:12:41.099999,1628133161      ,099999               ,0000           ,5A4F           ,1         ,1             ,3.057                ,GPS-3.0       ,5           ,0.165     ,0.175     ,0.346     ,0.921  ,2.882  ,0       ,4                 ,10        ,4             ,0           ,0         ,0          ,           ,           ,           ,           ,           ,           ,           ,           ,           ,           ,0                     ,000000                     ,                 ,                 ,                 ,
000000044,01932-0007,2.4107444185,102.7298986904,22.8195877075,0,0,84.4062688195 ,7.538  ,0.127    ,2.090     ,0.041     ,2021-08-05,03:12:42.600096,1628133162      ,600096               ,0000           ,5A4F           ,1         ,1             ,3.078                ,GPS-3.0       ,5           ,0.172     ,0.180     ,0.355     ,0.921  ,2.883  ,0       ,4                 ,10        ,4             ,0           ,0         ,2          ,           ,           ,           ,           ,           ,           ,           ,           ,           ,           ,0                     ,000000                     ,                 ,                 ,                 ,
000000045,01932-0007,2.4107461564,102.7299260089,22.6695365906,0,0,86.3305721653 ,8.098  ,0.084    ,2.248     ,0.073     ,2021-08-05,03:12:43.949996,1628133163      ,949996               ,0000           ,5A4F           ,1         ,1             ,3.041                ,GPS-3.0       ,5           ,0.175     ,0.183     ,0.360     ,0.921  ,2.883  ,0       ,4                 ,10        ,4             ,0           ,0         ,2          ,           ,           ,           ,           ,           ,           ,           ,           ,           ,           ,0                     ,000000                     ,                 ,                 ,                 ,
000000046,01932-0007,2.4107466199,102.7299534712,22.5800933838,0,0,89.7432488634 ,7.737  ,-0.113   ,2.146     ,0.128     ,2021-08-05,03:12:45.400002,1628133165      ,400002               ,0000           ,5A4F           ,1         ,1             ,3.051                ,GPS-3.0       ,5           ,0.181     ,0.188     ,0.368     ,0.921  ,2.883  ,0       ,4                 ,10        ,4             ,0           ,0         ,3          ,           ,           ,           ,           ,           ,           ,           ,           ,           ,           ,0                     ,000000                     ,                 ,                 ,                 ,
000000047,01932-0007,2.4107461927,102.7299810978,22.4742317200,0,0,92.5402523096 ,8.224  ,0.301    ,2.264     ,0.116     ,2021-08-05,03:12:46.800002,1628133166      ,800002               ,0000           ,5A4F           ,1         ,1             ,3.070                ,GPS-3.0       ,5           ,0.185     ,0.192     ,0.374     ,0.922  ,2.883  ,0       ,4                 ,10        ,4             ,0           ,0         ,3          ,           ,           ,           ,           ,           ,           ,           ,           ,           ,           ,0                     ,000000                     ,                 ,                 ,                 ,
000000048,01932-0007,2.4107457607,102.7300085018,22.5222911835,0,0,94.6538953294 ,9.073  ,-0.245   ,2.508     ,-0.004    ,2021-08-05,03:12:48.100000,1628133168      ,100000               ,0000           ,5A4F           ,1         ,1             ,3.045                ,GPS-3.0       ,5           ,0.187     ,0.193     ,0.377     ,1.255  ,3.760  ,0       ,4                 ,10        ,4             ,0           ,0         ,2          ,           ,           ,           ,           ,           ,           ,           ,           ,           ,           ,0                     ,000000                     ,                 ,                 ,                 ,
000000049,01932-0007,2.4107418796,102.7300363508,22.3340206146,0,0,96.7746963875 ,9.537  ,-0.308   ,2.631     ,0.131     ,2021-08-05,03:12:49.300000,1628133169      ,300000               ,0000           ,5A4F           ,1         ,1             ,3.124                ,GPS-3.0       ,5           ,0.193     ,0.198     ,0.384     ,0.922  ,2.883  ,0       ,4                 ,10        ,4             ,0           ,0         ,2          ,           ,           ,           ,           ,           ,           ,           ,           ,           ,           ,0                     ,000000                     ,                 ,                 ,                 ,
000000050,01932-0007,2.4107362754,102.7300630697,21.9899635315,0,0,97.9270107722 ,10.445 ,-0.263   ,2.890     ,0.282     ,2021-08-05,03:12:50.349996,1628133170      ,349996               ,0000           ,5A2F           ,1         ,1             ,3.033                ,GPS-3.0       ,5           ,0.195     ,0.201     ,0.389     ,1.111  ,2.282  ,0       ,2                 ,9         ,4             ,0           ,0         ,0          ,           ,           ,           ,           ,           ,           ,           ,           ,           ,           ,0                     ,000000                     ,                 ,                 ,                 ,
000000051,01932-0007,2.4107313794,102.7300900953,21.8008193970,0,0,98.3958349568 ,10.443 ,-0.087   ,2.900     ,0.201     ,2021-08-05,03:12:51.349996,1628133171      ,349996               ,0000           ,5A4F           ,1         ,1             ,3.051                ,GPS-3.0       ,5           ,0.197     ,0.202     ,0.392     ,0.922  ,2.884  ,0       ,4                 ,10        ,4             ,0           ,0         ,1          ,           ,           ,           ,           ,           ,           ,           ,           ,           ,           ,0                     ,000000                     ,                 ,                 ,                 ,
000000052,01932-0007,2.4107258137,102.7301176730,21.6903953552,0,0,98.9333025426 ,10.838 ,-0.817   ,2.898     ,0.119     ,2021-08-05,03:12:52.400120,1628133172      ,400120               ,0000           ,5A4F           ,1         ,1             ,3.126                ,GPS-3.0       ,5           ,0.202     ,0.206     ,0.398     ,0.922  ,2.884  ,0       ,4                 ,10        ,4             ,0           ,0         ,0          ,           ,           ,           ,           ,           ,           ,           ,           ,           ,           ,0                     ,000000                     ,                 ,                 ,                 ,
000000053,01932-0007,2.4107202506,102.7301450412,21.5976371765,0,0,100.2811174319,10.476 ,-0.368   ,2.887     ,0.119     ,2021-08-05,03:12:53.500270,1628133173      ,500270               ,0000           ,5A4F           ,1         ,1             ,3.103                ,GPS-3.0       ,5           ,0.211     ,0.214     ,0.407     ,0.922  ,2.884  ,0       ,4                 ,10        ,4             ,0           ,0         ,0          ,           ,           ,           ,           ,           ,           ,           ,           ,           ,           ,0                     ,000000                     ,                 ,                 ,                 ,
000000054,01932-0007,2.4107147446,102.7301727064,21.2798500061,0,0,100.4750128420,11.934 ,-0.512   ,3.275     ,0.149     ,2021-08-05,03:12:54.500267,1628133174      ,500267               ,0000           ,5A4F           ,1         ,1             ,3.134                ,GPS-3.0       ,5           ,0.212     ,0.215     ,0.410     ,0.922  ,2.884  ,0       ,4                 ,10        ,4             ,0           ,0         ,0          ,           ,           ,           ,           ,           ,           ,           ,           ,           ,           ,0                     ,000000                     ,                 ,                 ,                 ,
000000055,01932-0007,2.4107076735,102.7301997310,21.2610111237,0,0,101.0090858238,12.055 ,-0.848   ,3.239     ,0.127     ,2021-08-05,03:12:55.449995,1628133175      ,449995               ,0000           ,5A4F           ,1         ,1             ,3.104                ,GPS-3.0       ,5           ,0.214     ,0.216     ,0.413     ,0.922  ,2.884  ,0       ,4                 ,10        ,4             ,0           ,0         ,0          ,           ,           ,           ,           ,           ,           ,           ,           ,           ,           ,0                     ,000000                     ,                 ,                 ,                 ,
000000056,01932-0007,2.4107026227,102.7302266580,21.2075443268,0,0,100.5372563559,11.925 ,-0.683   ,3.241     ,0.075     ,2021-08-05,03:12:56.400227,1628133176      ,400227               ,0000           ,5A4F           ,1         ,1             ,3.044                ,GPS-3.0       ,5           ,0.217     ,0.219     ,0.418     ,0.922  ,2.884  ,0       ,4                 ,9         ,4             ,0           ,0         ,1          ,           ,           ,           ,           ,           ,           ,           ,           ,           ,           ,0                     ,000000                     ,                 ,                 ,                 ,
000000057,01932-0007,2.4106985022,102.7302542934,21.0966224670,0,0,99.5481220207 ,12.120 ,-0.232   ,3.359     ,0.218     ,2021-08-05,03:12:57.300130,1628133177      ,300130               ,0000           ,5A4F           ,1         ,1             ,3.104                ,GPS-3.0       ,5           ,0.221     ,0.223     ,0.423     ,0.922  ,2.884  ,0       ,4                 ,9         ,4             ,0           ,0         ,1          ,           ,           ,           ,           ,           ,           ,           ,           ,           ,           ,0                     ,000000                     ,                 ,                 ,                 ,
000000058,01932-0007,2.4106927309,102.7302811448,20.8321952820,0,0,99.3713703854 ,13.066 ,-0.987   ,3.493     ,0.217     ,2021-08-05,03:12:58.200053,1628133178      ,200053               ,0000           ,5A4F           ,1         ,1             ,3.051                ,GPS-3.0       ,5           ,0.225     ,0.226     ,0.428     ,0.922  ,2.884  ,0       ,4                 ,9         ,4             ,0           ,0         ,2          ,           ,           ,           ,           ,           ,           ,           ,           ,           ,           ,0                     ,000000                     ,                 ,                 ,                 ,
000000059,01932-0007,2.4106887925,102.7303084626,20.6966133118,0,0,98.3794015217 ,11.891 ,-0.738   ,3.220     ,0.169     ,2021-08-05,03:12:59.100000,1628133179      ,100000               ,0000           ,5A4F           ,1         ,1             ,3.066                ,GPS-3.0       ,5           ,0.226     ,0.229     ,0.431     ,0.922  ,2.884  ,0       ,4                 ,9         ,4             ,0           ,0         ,2          ,           ,           ,           ,           ,           ,           ,           ,           ,           ,           ,0                     ,000000                     ,                 ,                 ,                 ,
000000060,01932-0007,2.4106869470,102.7303356615,20.4754276276,0,0,97.5171037993 ,12.001 ,-0.660   ,3.268     ,0.349     ,2021-08-05,03:13:00.000010,1628133180      ,000010               ,0000           ,5A4F           ,1         ,1             ,3.029                ,GPS-3.0       ,5           ,0.227     ,0.231     ,0.435     ,0.922  ,2.884  ,0       ,4                 ,9         ,4             ,0           ,0         ,2          ,           ,           ,           ,           ,           ,           ,           ,           ,           ,           ,0                     ,000000                     ,                 ,                 ,                 ,
000000061,01932-0007,2.4106838597,102.7303639861,20.3198432922,0,0,97.5193850825 ,13.307 ,-0.912   ,3.582     ,0.154     ,2021-08-05,03:13:00.850264,1628133180      ,850264               ,0000           ,5A4F           ,1         ,1             ,3.165                ,GPS-3.0       ,5           ,0.224     ,0.232     ,0.437     ,0.922  ,2.885  ,0       ,4                 ,8         ,4             ,0           ,0         ,2          ,           ,           ,           ,           ,           ,           ,           ,           ,           ,           ,0                     ,000000                     ,                 ,                 ,                 ,
000000062,01932-0007,2.4106810257,102.7303912852,20.1134014130,0,0,97.3103949543 ,13.463 ,-0.112   ,3.738     ,0.221     ,2021-08-05,03:13:01.650099,1628133181      ,650099               ,0000           ,5A4F           ,1         ,1             ,3.049                ,GPS-3.0       ,5           ,0.224     ,0.234     ,0.440     ,1.102  ,2.975  ,0       ,4                 ,8         ,4             ,0           ,0         ,3          ,           ,           ,           ,           ,           ,           ,           ,           ,           ,           ,0                     ,000000                     ,                 ,                 ,                 ,
000000063,01932-0007,2.4106775494,102.7304192158,19.7804412842,0,0,98.7578896243 ,13.476 ,-0.884   ,3.637     ,0.329     ,2021-08-05,03:13:02.500000,1628133182      ,500000               ,0000           ,5A4F           ,1         ,1             ,3.127                ,GPS-3.0       ,5           ,0.227     ,0.237     ,0.444     ,0.922  ,2.885  ,0       ,4                 ,9         ,4             ,0           ,0         ,3          ,           ,           ,           ,           ,           ,           ,           ,           ,           ,           ,0                     ,000000                     ,                 ,                 ,                 ,
000000064,01932-0007,2.4106718171,102.7304458545,19.5191574097,0,0,103.7617545122,12.744 ,-0.802   ,3.448     ,0.316     ,2021-08-05,03:13:03.300259,1628133183      ,300259               ,0000           ,5A4F           ,1         ,1             ,3.027                ,GPS-3.0       ,5           ,0.229     ,0.240     ,0.448     ,0.922  ,2.885  ,0       ,4                 ,9         ,4             ,0           ,0         ,3          ,           ,           ,           ,           ,           ,           ,           ,           ,           ,           ,0                     ,000000                     ,                 ,                 ,                 ,
000000065,01932-0007,2.4106617770,102.7304723121,19.1870746613,0,0,112.3207328630,13.109 ,-1.113   ,3.467     ,0.255     ,2021-08-05,03:13:04.149996,1628133184      ,149996               ,0000           ,5A4F           ,1         ,1             ,3.144                ,GPS-3.0       ,5           ,0.231     ,0.241     ,0.451     ,0.922  ,2.885  ,0       ,4                 ,9         ,4             ,0           ,0         ,3          ,           ,           ,           ,           ,           ,           ,           ,           ,           ,           ,0                     ,000000                     ,                 ,                 ,                 ,
000000066,01932-0007,2.4106467469,102.7304958685,19.1633930206,0,0,124.8793538786,13.010 ,-2.124   ,2.924     ,0.136     ,2021-08-05,03:13:05.000019,1628133185      ,000019               ,0000           ,5A4F           ,1         ,1             ,3.105                ,GPS-3.0       ,5           ,0.231     ,0.242     ,0.454     ,0.922  ,2.885  ,0       ,4                 ,9         ,4             ,0           ,0         ,3          ,           ,           ,           ,           ,           ,           ,           ,           ,           ,           ,0                     ,000000                     ,                 ,                 ,                 ,
000000067,01932-0007,2.4106276984,102.7305155078,19.0042610168,0,0,135.6986740522,12.832 ,-2.314   ,2.711     ,0.276     ,2021-08-05,03:13:05.850009,1628133185      ,850009               ,0000           ,5A4F           ,1         ,1             ,3.041                ,GPS-3.0       ,5           ,0.231     ,0.242     ,0.456     ,0.922  ,2.885  ,0       ,4                 ,9         ,4             ,0           ,0         ,3          ,           ,           ,           ,           ,           ,           ,           ,           ,           ,           ,0                     ,000000                     ,                 ,                 ,                 ,
000000068,01932-0007,2.4106059150,102.7305325665,19.1318054199,0,0,142.7879596182,12.337 ,-2.430   ,2.416     ,0.239     ,2021-08-05,03:13:06.700000,1628133186      ,700000               ,0000           ,5A4F           ,1         ,1             ,3.075                ,GPS-3.0       ,5           ,0.225     ,0.238     ,0.453     ,0.922  ,2.885  ,0       ,4                 ,9         ,4             ,0           ,0         ,2          ,           ,           ,           ,           ,           ,           ,           ,           ,           ,           ,0                     ,000000                     ,                 ,                 ,                 ,
000000069,01932-0007,2.4105818568,102.7305476299,18.9468479156,0,0,147.4975253151,13.085 ,-3.160   ,1.796     ,0.141     ,2021-08-05,03:13:07.550119,1628133187      ,550119               ,0000           ,5A4F           ,1         ,1             ,3.155                ,GPS-3.0       ,5           ,0.225     ,0.238     ,0.455     ,0.922  ,2.885  ,0       ,4                 ,9         ,4             ,0           ,0         ,2          ,           ,           ,           ,           ,           ,           ,           ,           ,           ,           ,0                     ,000000                     ,                 ,                 ,                 ,
000000070,01932-0007,2.4105583874,102.7305613883,18.8243274689,0,0,151.9237611048,12.757 ,-3.271   ,1.362     ,0.250     ,2021-08-05,03:13:08.400002,1628133188      ,400002               ,0000           ,5A4F           ,1         ,1             ,3.024                ,GPS-3.0       ,5           ,0.222     ,0.236     ,0.454     ,0.987  ,2.970  ,0       ,4                 ,9         ,4             ,0           ,0         ,2          ,           ,           ,           ,           ,           ,           ,           ,           ,           ,           ,0                     ,000000                     ,                 ,                 ,                 ,
000000071,01932-0007,2.4105351141,102.7305752540,18.9758148193,0,0,151.7182270523,12.523 ,-3.067   ,1.642     ,0.081     ,2021-08-05,03:13:09.249995,1628133189      ,249995               ,0000           ,5A4F           ,1         ,1             ,3.012                ,GPS-3.0       ,5           ,0.221     ,0.233     ,0.453     ,1.059  ,2.903  ,0       ,4                 ,9         ,4             ,0           ,0         ,2          ,           ,           ,           ,           ,           ,           ,           ,           ,           ,           ,0                     ,000000                     ,                 ,                 ,                 ,
000000072,01932-0007,2.4105112419,102.7305883302,18.9861488342,0,0,152.5817815294,12.591 ,-3.062   ,1.691     ,0.114     ,2021-08-05,03:13:10.100230,1628133190      ,100230               ,0000           ,5A4F           ,1         ,1             ,3.026                ,GPS-3.0       ,5           ,0.218     ,0.234     ,0.455     ,0.922  ,2.886  ,0       ,4                 ,9         ,4             ,0           ,0         ,2          ,           ,           ,           ,           ,           ,           ,           ,           ,           ,           ,0                     ,000000                     ,                 ,                 ,                 ,
000000073,01932-0007,2.4104861185,102.7306017460,18.9561500549,0,0,153.3682641520,12.531 ,-3.002   ,1.762     ,0.117     ,2021-08-05,03:13:11.000162,1628133191      ,000162               ,0000           ,5A4F           ,1         ,1             ,3.166                ,GPS-3.0       ,5           ,0.215     ,0.233     ,0.454     ,0.923  ,2.886  ,0       ,4                 ,9         ,4             ,0           ,0         ,3          ,           ,           ,           ,           ,           ,           ,           ,           ,           ,           ,0                     ,000000                     ,                 ,                 ,                 ,
000000074,01932-0007,2.4104611946,102.7306141929,18.8653125763,0,0,154.8195290865,13.095 ,-3.279   ,1.576     ,0.105     ,2021-08-05,03:13:11.849995,1628133191      ,849995               ,0000           ,5A4F           ,1         ,1             ,3.097                ,GPS-3.0       ,5           ,0.212     ,0.229     ,0.453     ,0.923  ,2.886  ,0       ,4                 ,10        ,4             ,0           ,0         ,3          ,           ,           ,           ,           ,           ,           ,           ,           ,           ,           ,0                     ,000000                     ,                 ,                 ,                 ,
000000075,01932-0007,2.4104365479,102.7306260315,18.8491306305,0,0,155.8614061425,12.742 ,-3.096   ,1.716     ,0.054     ,2021-08-05,03:13:12.699999,1628133192      ,699999               ,0000           ,5A4F           ,1         ,1             ,3.040                ,GPS-3.0       ,5           ,0.208     ,0.227     ,0.452     ,0.923  ,2.886  ,0       ,4                 ,10        ,4             ,0           ,0         ,3          ,           ,           ,           ,           ,           ,           ,           ,           ,           ,           ,0                     ,000000                     ,                 ,                 ,                 ,
000000076,01932-0007,2.4104119088,102.7306379528,18.7548389435,0,0,155.2141774167,11.931 ,-3.061   ,1.271     ,0.101     ,2021-08-05,03:13:13.550251,1628133193      ,550251               ,0000           ,5A4F           ,1         ,1             ,3.043                ,GPS-3.0       ,5           ,0.207     ,0.225     ,0.451     ,0.923  ,2.886  ,0       ,4                 ,10        ,4             ,0           ,0         ,3          ,           ,           ,           ,           ,           ,           ,           ,           ,           ,           ,0                     ,000000                     ,                 ,                 ,                 ,
000000077,01932-0007,2.4103874768,102.7306512210,18.8686103821,0,0,153.7078474972,10.481 ,-2.666   ,1.171     ,0.032     ,2021-08-05,03:13:14.500000,1628133194      ,500000               ,0000           ,5A4F           ,1         ,1             ,3.091                ,GPS-3.0       ,5           ,0.207     ,0.225     ,0.451     ,0.923  ,2.886  ,0       ,4                 ,10        ,5             ,0           ,0         ,2          ,           ,           ,           ,           ,           ,           ,           ,           ,           ,           ,0                     ,000000                     ,                 ,                 ,                 ,
000000078,01932-0007,2.4103633982,102.7306642003,18.9551181793,0,0,153.1458185511,2.896  ,-0.749   ,0.293     ,-0.002    ,2021-08-05,03:13:16.149996,1628133196      ,149996               ,0000           ,5A4F           ,1         ,1             ,3.041                ,GPS-3.0       ,5           ,0.207     ,0.223     ,0.453     ,0.951  ,2.943  ,0       ,4                 ,10        ,5             ,0           ,0         ,3          ,           ,           ,           ,           ,           ,           ,           ,           ,           ,           ,0                     ,000000                     ,                 ,                 ,                 ,
000000079,01932-0007,2.4103443483,102.7306838570,20.9840373993,0,0,152.5759212271,6.147  ,-1.492   ,0.831     ,0.044     ,2021-08-05,03:13:33.549996,1628133213      ,549996               ,0000           ,5A4F           ,1         ,1             ,3.042                ,GPS-3.0       ,5           ,0.128     ,0.167     ,0.396     ,0.951  ,2.946  ,0       ,4                 ,10        ,5             ,0           ,0         ,2          ,           ,           ,           ,           ,           ,           ,           ,           ,           ,           ,0                     ,000000                     ,                 ,                 ,                 ,
000000080,01932-0007,2.4103204527,102.7306966523,21.0248184204,0,0,151.5813364010,5.860  ,-1.489   ,0.658     ,0.028     ,2021-08-05,03:13:35.050027,1628133215      ,050027               ,0000           ,5A4F           ,1         ,1             ,3.013                ,GPS-3.0       ,5           ,0.129     ,0.168     ,0.398     ,0.924  ,2.888  ,0       ,4                 ,10        ,5             ,0           ,0         ,2          ,           ,           ,           ,           ,           ,           ,           ,           ,           ,           ,0                     ,000000                     ,                 ,                 ,                 ,
000000081,01932-0007,2.4102975201,102.7307109938,21.5106258392,0,0,151.6821773139,6.568  ,-1.516   ,1.015     ,0.007     ,2021-08-05,03:13:43.149995,1628133223      ,149995               ,0000           ,5A4F           ,1         ,1             ,3.007                ,GPS-3.0       ,5           ,0.123     ,0.165     ,0.393     ,0.924  ,2.889  ,0       ,4                 ,10        ,5             ,0           ,0         ,3          ,           ,           ,           ,           ,           ,           ,           ,           ,           ,           ,0                     ,000000                     ,                 ,                 ,                 ,
000000082,01932-0007,2.4102729804,102.7307243237,21.4694824219,0,0,150.8790700109,10.750 ,-2.672   ,1.333     ,-0.043    ,2021-08-05,03:13:44.600001,1628133224      ,600001               ,0000           ,5A4F           ,1         ,1             ,3.105                ,GPS-3.0       ,5           ,0.125     ,0.166     ,0.395     ,0.924  ,2.889  ,0       ,4                 ,10        ,5             ,0           ,0         ,4          ,           ,           ,           ,           ,           ,           ,           ,           ,           ,           ,0                     ,000000                     ,                 ,                 ,                 ,
000000083,01932-0007,2.4102495007,102.7307379950,21.5610046387,0,0,151.1241098775,13.489 ,-3.313   ,1.750     ,-0.013    ,2021-08-05,03:13:45.449996,1628133225      ,449996               ,0000           ,5A4F           ,1         ,1             ,3.020                ,GPS-3.0       ,5           ,0.124     ,0.166     ,0.395     ,0.924  ,2.889  ,0       ,4                 ,10        ,5             ,0           ,0         ,4          ,           ,           ,           ,           ,           ,           ,           ,           ,           ,           ,0                     ,000000                     ,                 ,                 ,                 ,
000000084,01932-0007,2.4102255555,102.7307507161,21.5311660767,0,0,152.4600402377,9.667  ,-2.241   ,1.480     ,0.042     ,2021-08-05,03:13:46.349996,1628133226      ,349996               ,0000           ,5A4F           ,1         ,1             ,3.014                ,GPS-3.0       ,5           ,0.128     ,0.168     ,0.398     ,0.924  ,2.889  ,0       ,4                 ,10        ,5             ,0           ,0         ,4          ,           ,           ,           ,           ,           ,           ,           ,           ,           ,           ,0                     ,000000                     ,                 ,                 ,                 ,
000000085,01932-0007,2.4102007266,102.7307639273,21.5344009399,0,0,153.3877984930,9.241  ,-2.237   ,1.259     ,0.106     ,2021-08-05,03:13:47.600002,1628133227      ,600002               ,0000           ,5A4F           ,1         ,1             ,3.127                ,GPS-3.0       ,5           ,0.131     ,0.170     ,0.400     ,0.924  ,2.889  ,0       ,4                 ,10        ,5             ,0           ,0         ,4          ,           ,           ,           ,           ,           ,           ,           ,           ,           ,           ,0                     ,000000                     ,                 ,                 ,                 ,
000000086,01932-0007,2.4101763926,102.7307769119,21.6189270020,0,0,154.3089314649,8.981  ,-2.255   ,1.067     ,-0.184    ,2021-08-05,03:13:48.949996,1628133228      ,949996               ,0000           ,5A4F           ,1         ,1             ,3.066                ,GPS-3.0       ,5           ,0.133     ,0.171     ,0.401     ,0.924  ,2.889  ,0       ,4                 ,10        ,5             ,0           ,0         ,4          ,           ,           ,           ,           ,           ,           ,           ,           ,           ,           ,0                     ,000000                     ,                 ,                 ,                 ,
000000087,01932-0007,2.4101517906,102.7307890227,21.6017570496,0,0,155.2168958320,9.676  ,-2.397   ,1.215     ,0.014     ,2021-08-05,03:13:50.149997,1628133230      ,149997               ,0000           ,5A4F           ,1         ,1             ,3.049                ,GPS-3.0       ,5           ,0.139     ,0.174     ,0.407     ,0.924  ,2.889  ,0       ,4                 ,10        ,5             ,0           ,0         ,4          ,           ,           ,           ,           ,           ,           ,           ,           ,           ,           ,0                     ,000000                     ,                 ,                 ,                 ,
000000088,01932-0007,2.4101264181,102.7307992200,21.4417190552,0,0,155.8521717267,8.724  ,-2.201   ,1.015     ,0.077     ,2021-08-05,03:13:51.400002,1628133231      ,400002               ,0000           ,5A4F           ,1         ,1             ,3.040                ,GPS-3.0       ,5           ,0.141     ,0.176     ,0.408     ,0.924  ,2.890  ,0       ,4                 ,10        ,5             ,0           ,0         ,1          ,           ,           ,           ,           ,           ,           ,           ,           ,           ,           ,0                     ,000000                     ,                 ,                 ,                 ,
000000089,01932-0007,2.4101003903,102.7308092270,21.2234668732,0,0,158.1147401912,8.498  ,-2.275   ,0.629     ,0.168     ,2021-08-05,03:13:52.700000,1628133232      ,700000               ,0000           ,5A4F           ,1         ,1             ,3.100                ,GPS-3.0       ,5           ,0.141     ,0.176     ,0.408     ,0.924  ,2.890  ,0       ,4                 ,10        ,5             ,0           ,0         ,1          ,           ,           ,           ,           ,           ,           ,           ,           ,           ,           ,0                     ,000000                     ,                 ,                 ,                 ,
