#0:imgID ,1:camSN   ,2:lat       ,3:lon         ,4:height     ,5:roll       ,6:pitch      ,7:heading     ,8:speed,9:speed_n,10:speed_e,11:speed_d,12:date   ,13:time        ,14:unix_time_sec,15:unix_time_microsec,16:systemStatus,17:filterStatus,18:haveFix,19:extVelocity,20:distancetoprevious,21:releaseMode,22:device_id,23:lat_dev,24:lon_dev,25:hei_dev,26:hdop,27:vdop,28:fs_10,29:gnss_fix_status,30:gps_sat,31:glonass_sat,32:beidu_sat,33:gal_sat,34:sbas_sat,35:custLog0,36:custLog1,37:custLog2,38:custLog3,39:custLog4,40:custLog5,41:custLog6,42:custLog7,43:custLog8,44:custLog9,45:unix_time_sec_fixed,46:unix_time_microsec_fixed,47:pnvgbss_field3,48:pnvgbss_field4,49:pnvgbss_field5,50:pnvgbss_field6,51:pnvgbss_field7
000000001,01932-0007,2.4019128654,102.7288649306,23.7229957581,0,0,8.0977612894  ,9.215  ,2.556    ,0.136     ,-0.084    ,2021-08-05,03:33:46.249996,1628134426      ,249996               ,0000           ,5A2F           ,1         ,1             ,0.000                ,GPS-3.0       ,5           ,0.215     ,0.213     ,0.440     ,0.739  ,1.484  ,0       ,2                 ,11        ,4             ,0           ,0         ,4          ,           ,           ,           ,           ,           ,           ,           ,           ,           ,           ,0                     ,000000                     ,                 ,                 ,                 ,
000000002,01932-0007,2.4019396420,102.7288599691,23.8440914154,0,0,348.3932236745,10.715 ,2.778    ,-1.069    ,-0.096    ,2021-08-05,03:33:47.450003,1628134427      ,450003               ,0000           ,5A2F           ,1         ,1             ,3.028                ,GPS-3.0       ,5           ,0.215     ,0.213     ,0.441     ,0.708  ,1.572  ,0       ,2                 ,11        ,4             ,0           ,0         ,4          ,           ,           ,           ,           ,           ,           ,           ,           ,           ,           ,0                     ,000000                     ,                 ,                 ,                 ,
000000003,01932-0007,2.4019619830,102.7288432766,23.9084377289,0,0,322.2364951536,10.618 ,1.888    ,-2.266    ,-0.088    ,2021-08-05,03:33:48.450043,1628134428      ,450043               ,0000           ,5A2F           ,1         ,1             ,3.100                ,GPS-3.0       ,5           ,0.216     ,0.214     ,0.442     ,0.905  ,2.280  ,0       ,2                 ,11        ,4             ,0           ,0         ,4          ,           ,           ,           ,           ,           ,           ,           ,           ,           ,           ,0                     ,000000                     ,                 ,                 ,                 ,
000000004,01932-0007,2.4019728475,102.7288183594,24.0577621460,0,0,292.9540261816,12.232 ,0.809    ,-3.300    ,-0.077    ,2021-08-05,03:33:49.500000,1628134429      ,500000               ,0000           ,5A2F           ,1         ,1             ,3.020                ,GPS-3.0       ,5           ,0.217     ,0.215     ,0.444     ,0.735  ,1.577  ,0       ,2                 ,11        ,4             ,0           ,0         ,4          ,           ,           ,           ,           ,           ,           ,           ,           ,           ,           ,0                     ,000000                     ,                 ,                 ,                 ,
000000005,01932-0007,2.4019737777,102.7287910450,24.0860881805,0,0,273.2448323126,14.548 ,-0.129   ,-4.039    ,0.006     ,2021-08-05,03:33:50.299999,1628134430      ,299999               ,0000           ,5A2F           ,1         ,1             ,3.036                ,GPS-3.0       ,5           ,0.218     ,0.216     ,0.445     ,0.674  ,1.382  ,0       ,2                 ,11        ,4             ,0           ,0         ,4          ,           ,           ,           ,           ,           ,           ,           ,           ,           ,           ,0                     ,000000                     ,                 ,                 ,                 ,
000000006,01932-0007,2.4019703496,102.7287641634,24.0372219086,0,0,263.3854815665,15.762 ,-0.768   ,-4.311    ,0.032     ,2021-08-05,03:33:51.049996,1628134431      ,049996               ,0000           ,5A2F           ,1         ,1             ,3.011                ,GPS-3.0       ,5           ,0.219     ,0.217     ,0.447     ,0.722  ,1.532  ,0       ,2                 ,11        ,4             ,0           ,0         ,4          ,           ,           ,           ,           ,           ,           ,           ,           ,           ,           ,0                     ,000000                     ,                 ,                 ,                 ,
000000007,01932-0007,2.4019653007,102.7287366067,24.1452789307,0,0,259.9084781468,17.130 ,-1.207   ,-4.603    ,-0.017    ,2021-08-05,03:33:51.749996,1628134431      ,749996               ,0000           ,5A2F           ,1         ,1             ,3.113                ,GPS-3.0       ,5           ,0.220     ,0.218     ,0.448     ,0.752  ,1.763  ,0       ,2                 ,11        ,4             ,0           ,0         ,4          ,           ,           ,           ,           ,           ,           ,           ,           ,           ,           ,0                     ,000000                     ,                 ,                 ,                 ,
000000008,01932-0007,2.4019580989,102.7287097888,24.1829414368,0,0,256.6794652356,17.750 ,-1.452   ,-4.712    ,-0.020    ,2021-08-05,03:33:52.400003,1628134432      ,400003               ,0000           ,5A2F           ,1         ,1             ,3.085                ,GPS-3.0       ,5           ,0.221     ,0.218     ,0.449     ,0.722  ,1.533  ,0       ,2                 ,11        ,4             ,0           ,0         ,3          ,           ,           ,           ,           ,           ,           ,           ,           ,           ,           ,0                     ,000000                     ,                 ,                 ,                 ,
000000009,01932-0007,2.4019495321,102.7286837913,24.1177654266,0,0,253.5573584452,18.504 ,-1.787   ,-4.820    ,0.033     ,2021-08-05,03:33:53.000230,1628134433      ,000230               ,0000           ,5A2F           ,1         ,1             ,3.041                ,GPS-3.0       ,5           ,0.221     ,0.219     ,0.450     ,0.763  ,1.673  ,0       ,2                 ,11        ,4             ,0           ,0         ,3          ,           ,           ,           ,           ,           ,           ,           ,           ,           ,           ,0                     ,000000                     ,                 ,                 ,                 ,
000000010,01932-0007,2.4019395354,102.7286579356,24.0188159943,0,0,251.1213031758,18.522 ,-1.986   ,-4.746    ,0.101     ,2021-08-05,03:33:53.600003,1628134433      ,600003               ,0000           ,5A2F           ,1         ,1             ,3.080                ,GPS-3.0       ,5           ,0.222     ,0.219     ,0.451     ,0.674  ,1.382  ,0       ,2                 ,11        ,4             ,0           ,0         ,3          ,           ,           ,           ,           ,           ,           ,           ,           ,           ,           ,0                     ,000000                     ,                 ,                 ,                 ,
000000011,01932-0007,2.4019286441,102.7286325844,23.9589004517,0,0,249.2787913453,18.612 ,-2.124   ,-4.714    ,0.122     ,2021-08-05,03:33:54.200003,1628134434      ,200003               ,0000           ,5A2F           ,1         ,1             ,3.066                ,GPS-3.0       ,5           ,0.222     ,0.220     ,0.452     ,0.674  ,1.382  ,0       ,2                 ,11        ,4             ,0           ,0         ,3          ,           ,           ,           ,           ,           ,           ,           ,           ,           ,           ,0                     ,000000                     ,                 ,                 ,                 ,
000000012,01932-0007,2.4019189538,102.7286071876,23.9840373993,0,0,249.2839276476,18.678 ,-1.897   ,-4.829    ,0.073     ,2021-08-05,03:33:54.800108,1628134434      ,800108               ,0000           ,5A2F           ,1         ,1             ,3.020                ,GPS-3.0       ,5           ,0.222     ,0.221     ,0.453     ,0.739  ,1.485  ,0       ,2                 ,11        ,4             ,0           ,0         ,3          ,           ,           ,           ,           ,           ,           ,           ,           ,           ,           ,0                     ,000000                     ,                 ,                 ,                 ,
000000013,01932-0007,2.4019088256,102.7285812356,24.0343971252,0,0,249.6028974818,18.650 ,-1.918   ,-4.812    ,0.015     ,2021-08-05,03:33:55.400003,1628134435      ,400003               ,0000           ,5A2F           ,1         ,1             ,3.095                ,GPS-3.0       ,5           ,0.223     ,0.221     ,0.454     ,0.722  ,1.533  ,0       ,2                 ,11        ,4             ,0           ,0         ,3          ,           ,           ,           ,           ,           ,           ,           ,           ,           ,           ,0                     ,000000                     ,                 ,                 ,                 ,
000000014,01932-0007,2.4018986122,102.7285557985,24.0343437195,0,0,250.3942978406,18.322 ,-1.783   ,-4.767    ,0.022     ,2021-08-05,03:33:56.000016,1628134436      ,000016               ,0000           ,5A2F           ,1         ,1             ,3.046                ,GPS-3.0       ,5           ,0.224     ,0.222     ,0.455     ,0.674  ,1.382  ,0       ,2                 ,11        ,4             ,0           ,0         ,3          ,           ,           ,           ,           ,           ,           ,           ,           ,           ,           ,0                     ,000000                     ,                 ,                 ,                 ,
000000015,01932-0007,2.4018899625,102.7285298505,23.9692077637,0,0,252.1942439322,18.412 ,-1.732   ,-4.812    ,0.088     ,2021-08-05,03:33:56.600002,1628134436      ,600002               ,0000           ,5A2F           ,1         ,1             ,3.039                ,GPS-3.0       ,5           ,0.225     ,0.223     ,0.456     ,0.722  ,1.533  ,0       ,2                 ,11        ,4             ,0           ,0         ,2          ,           ,           ,           ,           ,           ,           ,           ,           ,           ,           ,0                     ,000000                     ,                 ,                 ,                 ,
000000016,01932-0007,2.4018825653,102.7285030991,23.9066734314,0,0,253.9939168162,19.447 ,-1.624   ,-5.152    ,0.126     ,2021-08-05,03:33:57.200003,1628134437      ,200003               ,0000           ,5A2F           ,1         ,1             ,3.084                ,GPS-3.0       ,5           ,0.225     ,0.223     ,0.457     ,0.722  ,1.533  ,0       ,2                 ,11        ,4             ,0           ,0         ,2          ,           ,           ,           ,           ,           ,           ,           ,           ,           ,           ,0                     ,000000                     ,                 ,                 ,                 ,
000000017,01932-0007,2.4018749645,102.7284746331,23.9067573547,0,0,255.8713992152,20.069 ,-1.419   ,-5.391    ,0.146     ,2021-08-05,03:33:57.800194,1628134437      ,800194               ,0000           ,5A2F           ,1         ,1             ,3.273                ,GPS-3.0       ,5           ,0.226     ,0.224     ,0.458     ,0.722  ,1.533  ,0       ,2                 ,11        ,4             ,0           ,0         ,2          ,           ,           ,           ,           ,           ,           ,           ,           ,           ,           ,0                     ,000000                     ,                 ,                 ,                 ,
000000018,01932-0007,2.4018686215,102.7284475341,23.8212032318,0,0,257.7518595768,20.411 ,-1.278   ,-5.524    ,0.181     ,2021-08-05,03:33:58.350258,1628134438      ,350258               ,0000           ,5A2F           ,1         ,1             ,3.092                ,GPS-3.0       ,5           ,0.227     ,0.224     ,0.459     ,0.735  ,1.578  ,0       ,2                 ,11        ,4             ,0           ,0         ,2          ,           ,           ,           ,           ,           ,           ,           ,           ,           ,           ,0                     ,000000                     ,                 ,                 ,                 ,
000000019,01932-0007,2.4018629256,102.7284199545,23.8236923218,0,0,259.8084295359,20.724 ,-1.084   ,-5.654    ,0.165     ,2021-08-05,03:33:58.900015,1628134438      ,900015               ,0000           ,5A2F           ,1         ,1             ,3.129                ,GPS-3.0       ,5           ,0.227     ,0.224     ,0.460     ,0.734  ,1.474  ,0       ,2                 ,11        ,4             ,0           ,0         ,2          ,           ,           ,           ,           ,           ,           ,           ,           ,           ,           ,0                     ,000000                     ,                 ,                 ,                 ,
000000020,01932-0007,2.4018575690,102.7283920050,23.8034896851,0,0,261.9051336865,20.941 ,-1.029   ,-5.725    ,0.133     ,2021-08-05,03:33:59.449996,1628134439      ,449996               ,0000           ,5A2F           ,1         ,1             ,3.162                ,GPS-3.0       ,5           ,0.228     ,0.225     ,0.461     ,0.857  ,1.692  ,0       ,2                 ,11        ,4             ,0           ,0         ,2          ,           ,           ,           ,           ,           ,           ,           ,           ,           ,           ,0                     ,000000                     ,                 ,                 ,                 ,
000000021,01932-0007,2.4018539528,102.7283630527,23.7167854309,0,0,263.9853634209,21.392 ,-0.590   ,-5.913    ,0.148     ,2021-08-05,03:34:00.000010,1628134440      ,000010               ,0000           ,5A2F           ,1         ,1             ,3.242                ,GPS-3.0       ,5           ,0.228     ,0.225     ,0.462     ,0.722  ,1.533  ,0       ,2                 ,11        ,4             ,0           ,0         ,2          ,           ,           ,           ,           ,           ,           ,           ,           ,           ,           ,0                     ,000000                     ,                 ,                 ,                 ,
000000022,01932-0007,2.4018511238,102.7283340622,23.6989212036,0,0,266.0562221357,21.275 ,-0.420   ,-5.895    ,0.132     ,2021-08-05,03:34:00.549996,1628134440      ,549996               ,0000           ,5A2F           ,1         ,1             ,3.236                ,GPS-3.0       ,5           ,0.228     ,0.226     ,0.462     ,0.769  ,1.651  ,0       ,2                 ,11        ,4             ,0           ,0         ,3          ,           ,           ,           ,           ,           ,           ,           ,           ,           ,           ,0                     ,000000                     ,                 ,                 ,                 ,
000000023,01932-0007,2.4018492938,102.7283070816,23.5330467224,0,0,267.2972401872,21.459 ,-0.368   ,-5.950    ,0.224     ,2021-08-05,03:34:01.050091,1628134441      ,050091               ,0000           ,5A2F           ,1         ,1             ,3.004                ,GPS-3.0       ,5           ,0.229     ,0.227     ,0.463     ,1.027  ,2.023  ,0       ,2                 ,11        ,4             ,0           ,0         ,3          ,           ,           ,           ,           ,           ,           ,           ,           ,           ,           ,0                     ,000000                     ,                 ,                 ,                 ,
000000024,01932-0007,2.4018478606,102.7282791017,23.4305572510,0,0,267.7084175752,21.736 ,-0.190   ,-6.035    ,0.253     ,2021-08-05,03:34:01.549996,1628134441      ,549996               ,0000           ,5A2F           ,1         ,1             ,3.113                ,GPS-3.0       ,5           ,0.230     ,0.227     ,0.464     ,0.857  ,1.692  ,0       ,2                 ,11        ,4             ,0           ,0         ,4          ,           ,           ,           ,           ,           ,           ,           ,           ,           ,           ,0                     ,000000                     ,                 ,                 ,                 ,
000000025,01932-0007,2.4018474511,102.7282507690,23.3112792969,0,0,268.5253355207,22.988 ,-0.035   ,-6.385    ,0.234     ,2021-08-05,03:34:02.050116,1628134442      ,050116               ,0000           ,5A2F           ,1         ,1             ,3.148                ,GPS-3.0       ,5           ,0.230     ,0.227     ,0.465     ,0.769  ,1.650  ,0       ,2                 ,11        ,4             ,0           ,0         ,4          ,           ,           ,           ,           ,           ,           ,           ,           ,           ,           ,0                     ,000000                     ,                 ,                 ,                 ,
000000026,01932-0007,2.4018476346,102.7282227595,23.1326675415,0,0,269.2971468969,22.724 ,0.025    ,-6.312    ,0.290     ,2021-08-05,03:34:02.549995,1628134442      ,549995               ,0000           ,5A2F           ,1         ,1             ,3.112                ,GPS-3.0       ,5           ,0.231     ,0.228     ,0.466     ,0.819  ,1.792  ,0       ,2                 ,11        ,4             ,0           ,0         ,2          ,           ,           ,           ,           ,           ,           ,           ,           ,           ,           ,0                     ,000000                     ,                 ,                 ,                 ,
000000027,01932-0007,2.4018480075,102.7281939641,23.0011081696,0,0,269.7056468508,23.445 ,-0.005   ,-6.513    ,0.312     ,2021-08-05,03:34:03.050132,1628134443      ,050132               ,0000           ,5A2F           ,1         ,1             ,3.199                ,GPS-3.0       ,5           ,0.231     ,0.228     ,0.466     ,0.769  ,1.651  ,0       ,2                 ,11        ,4             ,0           ,0         ,2          ,           ,           ,           ,           ,           ,           ,           ,           ,           ,           ,0                     ,000000                     ,                 ,                 ,                 ,
000000028,01932-0007,2.4018478507,102.7281653790,22.8214702606,0,0,268.9868377425,23.047 ,-0.052   ,-6.402    ,0.356     ,2021-08-05,03:34:03.549995,1628134443      ,549995               ,0000           ,5A2F           ,1         ,1             ,3.176                ,GPS-3.0       ,5           ,0.231     ,0.228     ,0.467     ,0.793  ,1.899  ,0       ,2                 ,11        ,4             ,0           ,0         ,0          ,           ,           ,           ,           ,           ,           ,           ,           ,           ,           ,0                     ,000000                     ,                 ,                 ,                 ,
000000029,01932-0007,2.4018472650,102.7281361923,22.6797866821,0,0,268.5282861624,23.439 ,-0.190   ,-6.508    ,0.327     ,2021-08-05,03:34:04.050170,1628134444      ,050170               ,0000           ,5A2F           ,1         ,1             ,3.243                ,GPS-3.0       ,5           ,0.232     ,0.229     ,0.468     ,0.887  ,1.821  ,0       ,2                 ,11        ,4             ,0           ,0         ,0          ,           ,           ,           ,           ,           ,           ,           ,           ,           ,           ,0                     ,000000                     ,                 ,                 ,                 ,
000000030,01932-0007,2.4018455967,102.7281063856,22.6785469055,0,0,268.4320351366,23.618 ,-0.329   ,-6.552    ,0.214     ,2021-08-05,03:34:04.549996,1628134444      ,549996               ,0000           ,5A2F           ,1         ,1             ,3.317                ,GPS-3.0       ,5           ,0.233     ,0.229     ,0.469     ,0.843  ,2.020  ,0       ,2                 ,11        ,4             ,0           ,0         ,1          ,           ,           ,           ,           ,           ,           ,           ,           ,           ,           ,0                     ,000000                     ,                 ,                 ,                 ,
000000031,01932-0007,2.4018451269,102.7280785358,22.5438480377,0,0,269.0384739726,24.358 ,-0.150   ,-6.764    ,0.187     ,2021-08-05,03:34:05.000011,1628134445      ,000011               ,0000           ,5A2F           ,1         ,1             ,3.094                ,GPS-3.0       ,5           ,0.233     ,0.230     ,0.469     ,0.819  ,1.792  ,0       ,2                 ,11        ,4             ,0           ,0         ,1          ,           ,           ,           ,           ,           ,           ,           ,           ,           ,           ,0                     ,000000                     ,                 ,                 ,                 ,
000000032,01932-0007,2.4018443805,102.7280508935,22.4967193604,0,0,269.2644439511,24.976 ,-0.046   ,-6.938    ,0.129     ,2021-08-05,03:34:05.449996,1628134445      ,449996               ,0000           ,5A2F           ,1         ,1             ,3.072                ,GPS-3.0       ,5           ,0.234     ,0.230     ,0.470     ,0.819  ,1.792  ,0       ,2                 ,11        ,4             ,0           ,0         ,1          ,           ,           ,           ,           ,           ,           ,           ,           ,           ,           ,0                     ,000000                     ,                 ,                 ,                 ,
000000033,01932-0007,2.4018439902,102.7280226950,22.3887996674,0,0,269.7194438329,24.974 ,-0.133   ,-6.936    ,0.205     ,2021-08-05,03:34:05.900000,1628134445      ,900000               ,0000           ,5A2F           ,1         ,1             ,3.133                ,GPS-3.0       ,5           ,0.234     ,0.230     ,0.471     ,0.749  ,1.584  ,0       ,2                 ,11        ,4             ,0           ,0         ,1          ,           ,           ,           ,           ,           ,           ,           ,           ,           ,           ,0                     ,000000                     ,                 ,                 ,                 ,
000000034,01932-0007,2.4018440089,102.7279943531,22.2605762482,0,0,270.1241462016,25.367 ,0.033    ,-7.046    ,0.267     ,2021-08-05,03:34:06.349996,1628134446      ,349996               ,0000           ,5A2F           ,1         ,1             ,3.149                ,GPS-3.0       ,5           ,0.235     ,0.231     ,0.472     ,0.769  ,1.651  ,0       ,2                 ,11        ,4             ,0           ,0         ,2          ,           ,           ,           ,           ,           ,           ,           ,           ,           ,           ,0                     ,000000                     ,                 ,                 ,                 ,
000000035,01932-0007,2.4018441374,102.7279660524,22.1113224030,0,0,270.3839119561,25.017 ,0.064    ,-6.949    ,0.316     ,2021-08-05,03:34:06.800003,1628134446      ,800003               ,0000           ,5A2F           ,1         ,1             ,3.144                ,GPS-3.0       ,5           ,0.237     ,0.233     ,0.474     ,0.722  ,1.534  ,0       ,2                 ,11        ,4             ,0           ,0         ,2          ,           ,           ,           ,           ,           ,           ,           ,           ,           ,           ,0                     ,000000                     ,                 ,                 ,                 ,
000000036,01932-0007,2.4018430953,102.7279380129,22.0251541138,0,0,270.4951074358,25.206 ,0.059    ,-7.002    ,0.246     ,2021-08-05,03:34:07.249996,1628134447      ,249996               ,0000           ,5A2F           ,1         ,1             ,3.117                ,GPS-3.0       ,5           ,0.238     ,0.234     ,0.475     ,0.722  ,1.534  ,0       ,2                 ,11        ,4             ,0           ,0         ,3          ,           ,           ,           ,           ,           ,           ,           ,           ,           ,           ,0                     ,000000                     ,                 ,                 ,                 ,
000000037,01932-0007,2.4018429193,102.7279088884,21.8101577759,0,0,270.6082973307,25.746 ,0.045    ,-7.151    ,0.316     ,2021-08-05,03:34:07.700000,1628134447      ,700000               ,0000           ,5A2F           ,1         ,1             ,3.236                ,GPS-3.0       ,5           ,0.238     ,0.234     ,0.475     ,0.722  ,1.534  ,0       ,2                 ,11        ,4             ,0           ,0         ,3          ,           ,           ,           ,           ,           ,           ,           ,           ,           ,           ,0                     ,000000                     ,                 ,                 ,                 ,
000000038,01932-0007,2.4018436958,102.7278794493,21.6712894440,0,0,270.2691647781,26.398 ,0.050    ,-7.333    ,0.358     ,2021-08-05,03:34:08.149996,1628134448      ,149996               ,0000           ,5A2F           ,1         ,1             ,3.272                ,GPS-3.0       ,5           ,0.238     ,0.235     ,0.476     ,0.722  ,1.534  ,0       ,2                 ,11        ,4             ,0           ,0         ,3          ,           ,           ,           ,           ,           ,           ,           ,           ,           ,           ,0                     ,000000                     ,                 ,                 ,                 ,
000000039,01932-0007,2.4018443161,102.7278503469,21.4853324890,0,0,270.5998825377,26.505 ,0.072    ,-7.362    ,0.390     ,2021-08-05,03:34:08.600003,1628134448      ,600003               ,0000           ,5A2F           ,1         ,1             ,3.234                ,GPS-3.0       ,5           ,0.240     ,0.236     ,0.478     ,0.722  ,1.535  ,0       ,2                 ,11        ,4             ,0           ,0         ,3          ,           ,           ,           ,           ,           ,           ,           ,           ,           ,           ,0                     ,000000                     ,                 ,                 ,                 ,
000000040,01932-0007,2.4018440270,102.7278204366,21.2304592133,0,0,270.3832289372,26.780 ,-0.045   ,-7.439    ,0.445     ,2021-08-05,03:34:09.049997,1628134449      ,049997               ,0000           ,5A2F           ,1         ,1             ,3.323                ,GPS-3.0       ,5           ,0.241     ,0.238     ,0.479     ,0.722  ,1.535  ,0       ,2                 ,11        ,4             ,0           ,0         ,3          ,           ,           ,           ,           ,           ,           ,           ,           ,           ,           ,0                     ,000000                     ,                 ,                 ,                 ,
000000041,01932-0007,2.4018445214,102.7277921267,21.0367622375,0,0,270.1057866531,27.181 ,-0.086   ,-7.550    ,0.456     ,2021-08-05,03:34:09.449996,1628134449      ,449996               ,0000           ,5A2F           ,1         ,1             ,3.146                ,GPS-3.0       ,5           ,0.241     ,0.238     ,0.480     ,0.722  ,1.535  ,0       ,2                 ,11        ,4             ,0           ,0         ,4          ,           ,           ,           ,           ,           ,           ,           ,           ,           ,           ,0                     ,000000                     ,                 ,                 ,                 ,
000000042,01932-0007,2.4018449332,102.7277647588,20.8965740204,0,0,269.8677682209,27.351 ,-0.071   ,-7.597    ,0.452     ,2021-08-05,03:34:09.850165,1628134449      ,850165               ,0000           ,5A2F           ,1         ,1             ,3.041                ,GPS-3.0       ,5           ,0.241     ,0.238     ,0.480     ,0.790  ,1.540  ,0       ,2                 ,11        ,4             ,0           ,0         ,4          ,           ,           ,           ,           ,           ,           ,           ,           ,           ,           ,0                     ,000000                     ,                 ,                 ,                 ,
000000043,01932-0007,2.4018449728,102.7277375087,20.7521266937,0,0,269.6470165069,27.347 ,-0.041   ,-7.596    ,0.431     ,2021-08-05,03:34:10.249996,1628134450      ,249996               ,0000           ,5A2F           ,1         ,1             ,3.027                ,GPS-3.0       ,5           ,0.242     ,0.238     ,0.481     ,0.790  ,1.540  ,0       ,2                 ,11        ,4             ,0           ,0         ,4          ,           ,           ,           ,           ,           ,           ,           ,           ,           ,           ,0                     ,000000                     ,                 ,                 ,                 ,
000000044,01932-0007,2.4018439737,102.7277103315,20.7272624969,0,0,269.1548603961,27.473 ,-0.126   ,-7.630    ,0.382     ,2021-08-05,03:34:10.650034,1628134450      ,650034               ,0000           ,5A2F           ,1         ,1             ,3.021                ,GPS-3.0       ,5           ,0.242     ,0.238     ,0.481     ,0.722  ,1.535  ,0       ,2                 ,11        ,4             ,0           ,0         ,4          ,           ,           ,           ,           ,           ,           ,           ,           ,           ,           ,0                     ,000000                     ,                 ,                 ,                 ,
000000045,01932-0007,2.4018434594,102.7276799358,20.6933994293,0,0,269.3431004096,27.235 ,-0.313   ,-7.559    ,0.373     ,2021-08-05,03:34:11.099999,1628134451      ,099999               ,0000           ,5A2F           ,1         ,1             ,3.377                ,GPS-3.0       ,5           ,0.243     ,0.239     ,0.482     ,0.722  ,1.535  ,0       ,2                 ,11        ,4             ,0           ,0         ,4          ,           ,           ,           ,           ,           ,           ,           ,           ,           ,           ,0                     ,000000                     ,                 ,                 ,                 ,
000000046,01932-0007,2.4018430009,102.7276526221,20.5107307434,0,0,269.2850164809,27.535 ,-0.238   ,-7.645    ,0.413     ,2021-08-05,03:34:11.499999,1628134451      ,499999               ,0000           ,5A2F           ,1         ,1             ,3.035                ,GPS-3.0       ,5           ,0.243     ,0.239     ,0.482     ,0.769  ,1.651  ,0       ,2                 ,11        ,4             ,0           ,0         ,3          ,           ,           ,           ,           ,           ,           ,           ,           ,           ,           ,0                     ,000000                     ,                 ,                 ,                 ,
000000047,01932-0007,2.4018426829,102.7276253987,20.3573150635,0,0,269.2825029713,27.684 ,-0.072   ,-7.690    ,0.384     ,2021-08-05,03:34:11.899999,1628134451      ,899999               ,0000           ,5A2F           ,1         ,1             ,3.025                ,GPS-3.0       ,5           ,0.243     ,0.239     ,0.482     ,0.904  ,2.275  ,0       ,2                 ,11        ,4             ,0           ,0         ,3          ,           ,           ,           ,           ,           ,           ,           ,           ,           ,           ,0                     ,000000                     ,                 ,                 ,                 ,
000000048,01932-0007,2.4018412503,102.7275975353,20.3653087616,0,0,268.9168692847,27.542 ,-0.372   ,-7.641    ,0.359     ,2021-08-05,03:34:12.300200,1628134452      ,300200               ,0000           ,5A2F           ,1         ,1             ,3.100                ,GPS-3.0       ,5           ,0.243     ,0.239     ,0.483     ,0.818  ,1.767  ,0       ,2                 ,11        ,4             ,0           ,0         ,3          ,           ,           ,           ,           ,           ,           ,           ,           ,           ,           ,0                     ,000000                     ,                 ,                 ,                 ,
000000049,01932-0007,2.4018401195,102.7275701004,20.3206729889,0,0,268.5955225446,27.698 ,-0.322   ,-7.687    ,0.286     ,2021-08-05,03:34:12.699999,1628134452      ,699999               ,0000           ,5A2F           ,1         ,1             ,3.051                ,GPS-3.0       ,5           ,0.244     ,0.240     ,0.483     ,0.722  ,1.535  ,0       ,2                 ,11        ,4             ,0           ,0         ,3          ,           ,           ,           ,           ,           ,           ,           ,           ,           ,           ,0                     ,000000                     ,                 ,                 ,                 ,
000000050,01932-0007,2.4018392470,102.7275430568,20.3154354095,0,0,268.4244126455,27.115 ,-0.343   ,-7.524    ,0.181     ,2021-08-05,03:34:13.100031,1628134453      ,100031               ,0000           ,5A2F           ,1         ,1             ,3.006                ,GPS-3.0       ,5           ,0.244     ,0.240     ,0.483     ,0.722  ,1.535  ,0       ,2                 ,11        ,4             ,0           ,0         ,3          ,           ,           ,           ,           ,           ,           ,           ,           ,           ,           ,0                     ,000000                     ,                 ,                 ,                 ,
000000051,01932-0007,2.4018384253,102.7275133237,20.3957939148,0,0,268.4168174751,25.619 ,-0.182   ,-7.114    ,0.078     ,2021-08-05,03:34:13.549995,1628134453      ,549995               ,0000           ,5A2F           ,1         ,1             ,3.305                ,GPS-3.0       ,5           ,0.244     ,0.240     ,0.483     ,0.722  ,1.535  ,0       ,2                 ,11        ,4             ,0           ,0         ,4          ,           ,           ,           ,           ,           ,           ,           ,           ,           ,           ,0                     ,000000                     ,                 ,                 ,                 ,
000000052,01932-0007,2.4018376243,102.7274852378,20.2958965302,0,0,268.5285047285,24.927 ,-0.132   ,-6.923    ,0.149     ,2021-08-05,03:34:14.000010,1628134454      ,000010               ,0000           ,5A2F           ,1         ,1             ,3.122                ,GPS-3.0       ,5           ,0.244     ,0.240     ,0.484     ,0.722  ,1.535  ,0       ,2                 ,11        ,4             ,0           ,0         ,4          ,           ,           ,           ,           ,           ,           ,           ,           ,           ,           ,0                     ,000000                     ,                 ,                 ,                 ,
000000053,01932-0007,2.4018366504,102.7274575151,20.2748413086,0,0,267.9711066507,24.485 ,-0.277   ,-6.796    ,0.157     ,2021-08-05,03:34:14.449996,1628134454      ,449996               ,0000           ,5A2F           ,1         ,1             ,3.082                ,GPS-3.0       ,5           ,0.244     ,0.240     ,0.484     ,0.722  ,1.535  ,0       ,2                 ,11        ,4             ,0           ,0         ,3          ,           ,           ,           ,           ,           ,           ,           ,           ,           ,           ,0                     ,000000                     ,                 ,                 ,                 ,
000000054,01932-0007,2.4018352691,102.7274275654,20.1301422119,0,0,267.1215950425,23.926 ,-0.399   ,-6.634    ,0.221     ,2021-08-05,03:34:14.949996,1628134454      ,949996               ,0000           ,5A2F           ,1         ,1             ,3.331                ,GPS-3.0       ,5           ,0.245     ,0.240     ,0.485     ,0.722  ,1.535  ,0       ,2                 ,11        ,4             ,0           ,0         ,3          ,           ,           ,           ,           ,           ,           ,           ,           ,           ,           ,0                     ,000000                     ,                 ,                 ,                 ,
000000055,01932-0007,2.4018333054,102.7273978499,20.0241241455,0,0,266.3659575542,23.770 ,-0.354   ,-6.593    ,0.271     ,2021-08-05,03:34:15.449996,1628134455      ,449996               ,0000           ,5A2F           ,1         ,1             ,3.309                ,GPS-3.0       ,5           ,0.245     ,0.241     ,0.486     ,0.748  ,1.586  ,0       ,2                 ,10        ,4             ,0           ,0         ,3          ,           ,           ,           ,           ,           ,           ,           ,           ,           ,           ,0                     ,000000                     ,                 ,                 ,                 ,
000000056,01932-0007,2.4018315581,102.7273681445,20.0119628906,0,0,265.7874405315,23.600 ,-0.389   ,-6.544    ,0.240     ,2021-08-05,03:34:15.949996,1628134455      ,949996               ,0000           ,5A2F           ,1         ,1             ,3.306                ,GPS-3.0       ,5           ,0.245     ,0.241     ,0.486     ,0.752  ,1.764  ,0       ,2                 ,10        ,4             ,0           ,0         ,3          ,           ,           ,           ,           ,           ,           ,           ,           ,           ,           ,0                     ,000000                     ,                 ,                 ,                 ,
000000057,01932-0007,2.4018296620,102.7273389602,19.9454517365,0,0,266.9164708013,23.698 ,-0.314   ,-6.575    ,0.187     ,2021-08-05,03:34:16.450011,1628134456      ,450011               ,0000           ,5A2F           ,1         ,1             ,3.249                ,GPS-3.0       ,5           ,0.245     ,0.241     ,0.486     ,0.695  ,1.419  ,0       ,2                 ,11        ,4             ,0           ,0         ,4          ,           ,           ,           ,           ,           ,           ,           ,           ,           ,           ,0                     ,000000                     ,                 ,                 ,                 ,
000000058,01932-0007,2.4018285634,102.7273099055,19.8432941437,0,0,269.1332223568,23.647 ,-0.101   ,-6.568    ,0.175     ,2021-08-05,03:34:16.949995,1628134456      ,949995               ,0000           ,5A2F           ,1         ,1             ,3.230                ,GPS-3.0       ,5           ,0.245     ,0.241     ,0.487     ,0.726  ,1.455  ,0       ,2                 ,11        ,4             ,0           ,0         ,4          ,           ,           ,           ,           ,           ,           ,           ,           ,           ,           ,0                     ,000000                     ,                 ,                 ,                 ,
000000059,01932-0007,2.4018293976,102.7272808048,19.8442993164,0,0,272.5936147564,23.670 ,0.491    ,-6.557    ,0.142     ,2021-08-05,03:34:17.450029,1628134457      ,450029               ,0000           ,5A2F           ,1         ,1             ,3.234                ,GPS-3.0       ,5           ,0.246     ,0.241     ,0.487     ,0.695  ,1.419  ,0       ,2                 ,11        ,4             ,0           ,0         ,3          ,           ,           ,           ,           ,           ,           ,           ,           ,           ,           ,0                     ,000000                     ,                 ,                 ,                 ,
000000060,01932-0007,2.4018321440,102.7272521537,19.8296051025,0,0,276.6455561796,23.516 ,0.773    ,-6.486    ,0.086     ,2021-08-05,03:34:17.949996,1628134457      ,949996               ,0000           ,5A2F           ,1         ,1             ,3.198                ,GPS-3.0       ,5           ,0.246     ,0.241     ,0.487     ,0.695  ,1.419  ,0       ,2                 ,11        ,4             ,0           ,0         ,3          ,           ,           ,           ,           ,           ,           ,           ,           ,           ,           ,0                     ,000000                     ,                 ,                 ,                 ,
000000061,01932-0007,2.4018364400,102.7272237491,19.8033370972,0,0,280.1608633001,23.348 ,1.058    ,-6.399    ,0.107     ,2021-08-05,03:34:18.450095,1628134458      ,450095               ,0000           ,5A2F           ,1         ,1             ,3.192                ,GPS-3.0       ,5           ,0.246     ,0.241     ,0.488     ,0.695  ,1.419  ,0       ,2                 ,11        ,4             ,0           ,0         ,3          ,           ,           ,           ,           ,           ,           ,           ,           ,           ,           ,0                     ,000000                     ,                 ,                 ,                 ,
000000062,01932-0007,2.4018423162,102.7271956687,19.7608489990,0,0,283.1847792910,22.945 ,1.503    ,-6.194    ,0.127     ,2021-08-05,03:34:18.949996,1628134458      ,949996               ,0000           ,5A2F           ,1         ,1             ,3.187                ,GPS-3.0       ,5           ,0.247     ,0.241     ,0.488     ,0.695  ,1.419  ,0       ,2                 ,11        ,4             ,0           ,0         ,3          ,           ,           ,           ,           ,           ,           ,           ,           ,           ,           ,0                     ,000000                     ,                 ,                 ,                 ,
000000063,01932-0007,2.4018494378,102.7271680622,19.7420310974,0,0,285.2983676693,22.727 ,1.590    ,-6.110    ,0.126     ,2021-08-05,03:34:19.450098,1628134459      ,450098               ,0000           ,5A2F           ,1         ,1             ,3.168                ,GPS-3.0       ,5           ,0.247     ,0.241     ,0.489     ,0.695  ,1.419  ,0       ,2                 ,11        ,4             ,0           ,0         ,3          ,           ,           ,           ,           ,           ,           ,           ,           ,           ,           ,0                     ,000000                     ,                 ,                 ,                 ,
000000064,01932-0007,2.4018571465,102.7271406689,19.7248630524,0,0,286.0481585156,22.452 ,1.662    ,-6.011    ,0.125     ,2021-08-05,03:34:19.949996,1628134459      ,949996               ,0000           ,5A2F           ,1         ,1             ,3.162                ,GPS-3.0       ,5           ,0.247     ,0.241     ,0.489     ,0.722  ,1.536  ,0       ,2                 ,11        ,4             ,0           ,0         ,3          ,           ,           ,           ,           ,           ,           ,           ,           ,           ,           ,0                     ,000000                     ,                 ,                 ,                 ,
000000065,01932-0007,2.4018650468,102.7271133159,19.7145462036,0,0,286.2296776230,22.517 ,1.675    ,-6.026    ,0.101     ,2021-08-05,03:34:20.450148,1628134460      ,450148               ,0000           ,5A2F           ,1         ,1             ,3.163                ,GPS-3.0       ,5           ,0.247     ,0.242     ,0.490     ,0.695  ,1.419  ,0       ,2                 ,11        ,4             ,0           ,0         ,3          ,           ,           ,           ,           ,           ,           ,           ,           ,           ,           ,0                     ,000000                     ,                 ,                 ,                 ,
000000066,01932-0007,2.4018734937,102.7270863389,19.6652927399,0,0,287.0040571503,21.873 ,1.822    ,-5.796    ,0.121     ,2021-08-05,03:34:20.949995,1628134460      ,949995               ,0000           ,5A2F           ,1         ,1             ,3.141                ,GPS-3.0       ,5           ,0.248     ,0.242     ,0.490     ,0.695  ,1.419  ,0       ,2                 ,11        ,4             ,0           ,0         ,3          ,           ,           ,           ,           ,           ,           ,           ,           ,           ,           ,0                     ,000000                     ,                 ,                 ,                 ,
000000067,01932-0007,2.4018817069,102.7270602328,19.6659183502,0,0,287.6339098748,21.180 ,1.793    ,-5.603    ,0.080     ,2021-08-05,03:34:21.450173,1628134461      ,450173               ,0000           ,5A2F           ,1         ,1             ,3.041                ,GPS-3.0       ,5           ,0.248     ,0.242     ,0.490     ,0.695  ,1.419  ,0       ,2                 ,10        ,4             ,0           ,0         ,4          ,           ,           ,           ,           ,           ,           ,           ,           ,           ,           ,0                     ,000000                     ,                 ,                 ,                 ,
000000068,01932-0007,2.4018902176,102.7270335552,19.7031612396,0,0,287.6803005197,19.028 ,1.479    ,-5.074    ,0.085     ,2021-08-05,03:34:22.000246,1628134462      ,000246               ,0000           ,5A2F           ,1         ,1             ,3.111                ,GPS-3.0       ,5           ,0.248     ,0.241     ,0.490     ,0.695  ,1.419  ,0       ,2                 ,10        ,4             ,0           ,0         ,4          ,           ,           ,           ,           ,           ,           ,           ,           ,           ,           ,0                     ,000000                     ,                 ,                 ,                 ,
000000069,01932-0007,2.4018986313,102.7270069496,19.7081947327,0,0,286.9055385017,18.172 ,1.583    ,-4.793    ,0.059     ,2021-08-05,03:34:22.600002,1628134462      ,600002               ,0000           ,5A2F           ,1         ,1             ,3.100                ,GPS-3.0       ,5           ,0.248     ,0.241     ,0.491     ,0.695  ,1.419  ,0       ,2                 ,10        ,4             ,0           ,0         ,4          ,           ,           ,           ,           ,           ,           ,           ,           ,           ,           ,0                     ,000000                     ,                 ,                 ,                 ,
000000070,01932-0007,2.4019066009,102.7269797554,19.6534957886,0,0,285.8110416684,13.943 ,1.106    ,-3.712    ,0.105     ,2021-08-05,03:34:23.300000,1628134463      ,300000               ,0000           ,5A2F           ,1         ,1             ,3.148                ,GPS-3.0       ,5           ,0.248     ,0.241     ,0.491     ,0.721  ,1.563  ,0       ,2                 ,10        ,4             ,0           ,0         ,4          ,           ,           ,           ,           ,           ,           ,           ,           ,           ,           ,0                     ,000000                     ,                 ,                 ,                 ,
000000071,01932-0007,2.4019136812,102.7269532338,19.6082019806,0,0,284.1273453964,8.046  ,0.589    ,-2.156    ,0.102     ,2021-08-05,03:34:24.350169,1628134464      ,350169               ,0000           ,5A2F           ,1         ,1             ,3.050                ,GPS-3.0       ,5           ,0.249     ,0.241     ,0.492     ,0.775  ,1.527  ,0       ,2                 ,10        ,4             ,0           ,0         ,4          ,           ,           ,           ,           ,           ,           ,           ,           ,           ,           ,0                     ,000000                     ,                 ,                 ,                 ,
000000072,01932-0007,2.4019186059,102.7269266397,19.6968536377,0,0,277.9773337847,3.478  ,-0.030   ,-0.966    ,0.051     ,2021-08-05,03:34:26.350236,1628134466      ,350236               ,0000           ,5A2F           ,1         ,1             ,3.005                ,GPS-3.0       ,5           ,0.250     ,0.241     ,0.493     ,0.745  ,1.421  ,0       ,2                 ,10        ,4             ,0           ,0         ,4          ,           ,           ,           ,           ,           ,           ,           ,           ,           ,           ,0                     ,000000                     ,                 ,                 ,                 ,
000000073,01932-0007,2.4019137759,102.7268995538,19.8783607483,0,0,262.1957172546,4.572  ,-0.338   ,-1.224    ,0.029     ,2021-08-05,03:34:28.849996,1628134468      ,849996               ,0000           ,5A2F           ,1         ,1             ,3.057                ,GPS-3.0       ,5           ,0.251     ,0.241     ,0.494     ,0.695  ,1.419  ,0       ,2                 ,10        ,4             ,0           ,0         ,4          ,           ,           ,           ,           ,           ,           ,           ,           ,           ,           ,0                     ,000000                     ,                 ,                 ,                 ,
000000074,01932-0007,2.4019079386,102.7268731718,21.0484638214,0,0,262.6076596238,2.732  ,-0.137   ,-0.746    ,0.028     ,2021-08-05,03:34:41.900000,1628134481      ,900000               ,0000           ,5A2F           ,1         ,1             ,3.002                ,GPS-3.0       ,5           ,0.258     ,0.244     ,0.503     ,0.695  ,1.420  ,0       ,2                 ,10        ,4             ,0           ,0         ,4          ,           ,           ,           ,           ,           ,           ,           ,           ,           ,           ,0                     ,000000                     ,                 ,                 ,                 ,
000000075,01932-0007,2.4019042566,102.7268463171,21.0675582886,0,0,262.8793918697,4.440  ,-0.125   ,-1.227    ,0.075     ,2021-08-05,03:34:44.700000,1628134484      ,700000               ,0000           ,5A2F           ,1         ,1             ,3.011                ,GPS-3.0       ,5           ,0.258     ,0.244     ,0.505     ,0.819  ,1.798  ,0       ,2                 ,10        ,4             ,0           ,0         ,4          ,           ,           ,           ,           ,           ,           ,           ,           ,           ,           ,0                     ,000000                     ,                 ,                 ,                 ,
000000076,01932-0007,2.4019046361,102.7268191505,21.0150661469,0,0,267.8260880742,4.765  ,0.072    ,-1.322    ,0.087     ,2021-08-05,03:34:47.249995,1628134487      ,249995               ,0000           ,5A2F           ,1         ,1             ,3.018                ,GPS-3.0       ,5           ,0.259     ,0.244     ,0.507     ,0.726  ,1.457  ,0       ,2                 ,10        ,4             ,0           ,0         ,4          ,           ,           ,           ,           ,           ,           ,           ,           ,           ,           ,0                     ,000000                     ,                 ,                 ,                 ,
000000077,01932-0007,2.4019062445,102.7267917844,21.0217533112,0,0,273.0498167514,3.346  ,0.053    ,-0.928    ,0.057     ,2021-08-05,03:34:50.000220,1628134490      ,000220               ,0000           ,5A2F           ,1         ,1             ,3.046                ,GPS-3.0       ,5           ,0.259     ,0.245     ,0.509     ,0.695  ,1.420  ,0       ,2                 ,10        ,4             ,0           ,0         ,4          ,           ,           ,           ,           ,           ,           ,           ,           ,           ,           ,0                     ,000000                     ,                 ,                 ,                 ,
