#0:imgID ,1:camSN   ,2:lat       ,3:lon         ,4:height     ,5:roll       ,6:pitch       ,7:heading     ,8:speed,9:speed_n,10:speed_e,11:speed_d,12:date   ,13:time        ,14:unix_time_sec,15:unix_time_microsec,16:systemStatus,17:filterStatus,18:haveFix,19:extVelocity,20:distancetoprevious,21:releaseMode,22:device_id,23:lat_dev,24:lon_dev,25:hei_dev,26:hdop,27:vdop,28:fs_10,29:gnss_fix_status,30:gps_sat,31:glonass_sat,32:beidu_sat,33:gal_sat,34:sbas_sat,35:custLog0,36:custLog1,37:custLog2,38:custLog3,39:custLog4,40:custLog5,41:custLog6,42:custLog7,43:custLog8,44:custLog9,45:unix_time_sec_fixed,46:unix_time_microsec_fixed,47:pnvgbss_field3,48:pnvgbss_field4,49:pnvgbss_field5,50:pnvgbss_field6,51:pnvgbss_field7
000000001,01932-0007,2.4123065012,102.7268266247,27.1298160553,0,0,70.7760116137 ,4.480  ,0.377    ,1.186     ,0.074     ,2021-08-05,02:59:22.650256,1628132362      ,650256               ,0000           ,5A4F           ,1         ,1             ,0.000                ,GPS-3.0       ,5           ,0.201     ,0.183     ,0.394     ,0.804  ,2.036  ,0       ,4                 ,10        ,4             ,0           ,0         ,3          ,           ,           ,           ,           ,           ,           ,           ,           ,           ,           ,0                     ,000000                     ,                 ,                 ,                 ,
000000002,01932-0007,2.4123070349,102.7268536824,27.3573417664,0,0,87.7281313224 ,2.156  ,-0.154   ,0.579     ,0.046     ,2021-08-05,02:59:26.200003,1628132366      ,200003               ,0000           ,5A4F           ,1         ,1             ,3.007                ,GPS-3.0       ,5           ,0.205     ,0.186     ,0.402     ,1.086  ,2.558  ,0       ,4                 ,10        ,4             ,0           ,0         ,3          ,           ,           ,           ,           ,           ,           ,           ,           ,           ,           ,0                     ,000000                     ,                 ,                 ,                 ,
000000003,01932-0007,2.4122859951,102.7268706663,26.2470340729,0,0,132.5008341243,3.173  ,-0.787   ,0.398     ,0.234     ,2021-08-05,02:59:41.600004,1628132381      ,600004               ,0000           ,5A4F           ,1         ,1             ,3.006                ,GPS-3.0       ,5           ,0.221     ,0.195     ,0.432     ,1.302  ,4.136  ,0       ,4                 ,9         ,4             ,0           ,0         ,3          ,           ,           ,           ,           ,           ,           ,           ,           ,           ,           ,0                     ,000000                     ,                 ,                 ,                 ,
000000004,01932-0007,2.4122625314,102.7268845257,25.7116451263,0,0,155.0299398940,3.124  ,-0.766   ,0.408     ,0.182     ,2021-08-05,02:59:44.849996,1628132384      ,849996               ,0000           ,5A4F           ,1         ,1             ,3.029                ,GPS-3.0       ,5           ,0.227     ,0.201     ,0.441     ,1.358  ,4.139  ,0       ,4                 ,9         ,4             ,0           ,0         ,1          ,           ,           ,           ,           ,           ,           ,           ,           ,           ,           ,0                     ,000000                     ,                 ,                 ,                 ,
000000005,01932-0007,2.4122403218,102.7268999976,26.4881439209,0,0,150.4450524703,4.512  ,-1.033   ,0.709     ,-0.146    ,2021-08-05,02:59:48.250096,1628132388      ,250096               ,0000           ,5A4F           ,1         ,1             ,3.009                ,GPS-3.0       ,5           ,0.232     ,0.207     ,0.449     ,0.830  ,1.768  ,0       ,4                 ,9         ,4             ,0           ,0         ,2          ,           ,           ,           ,           ,           ,           ,           ,           ,           ,           ,0                     ,000000                     ,                 ,                 ,                 ,
000000006,01932-0007,2.4122185716,102.7269164230,26.5022029877,0,0,142.4475976315,7.313  ,-1.556   ,1.306     ,-0.034    ,2021-08-05,02:59:50.000010,1628132390      ,000010               ,0000           ,5A4F           ,1         ,1             ,3.030                ,GPS-3.0       ,5           ,0.237     ,0.213     ,0.456     ,1.066  ,2.648  ,0       ,4                 ,9         ,4             ,0           ,0         ,1          ,           ,           ,           ,           ,           ,           ,           ,           ,           ,           ,0                     ,000000                     ,                 ,                 ,                 ,
000000007,01932-0007,2.4121947384,102.7269313511,26.5001831055,0,0,147.0523335850,9.060  ,-2.077   ,1.421     ,0.017     ,2021-08-05,02:59:51.299999,1628132391      ,299999               ,0000           ,5A4F           ,1         ,1             ,3.126                ,GPS-3.0       ,5           ,0.240     ,0.216     ,0.460     ,0.733  ,1.709  ,0       ,4                 ,9         ,4             ,0           ,0         ,0          ,           ,           ,           ,           ,           ,           ,           ,           ,           ,           ,0                     ,000000                     ,                 ,                 ,                 ,
000000008,01932-0007,2.4121731409,102.7269483877,26.3491325378,0,0,143.3605480367,10.244 ,-2.281   ,1.702     ,0.054     ,2021-08-05,02:59:52.400002,1628132392      ,400002               ,0000           ,5A4F           ,1         ,1             ,3.058                ,GPS-3.0       ,5           ,0.245     ,0.222     ,0.466     ,1.669  ,4.412  ,0       ,4                 ,9         ,4             ,0           ,0         ,0          ,           ,           ,           ,           ,           ,           ,           ,           ,           ,           ,0                     ,000000                     ,                 ,                 ,                 ,
000000009,01932-0007,2.4121490365,102.7269612829,26.2616634369,0,0,144.6668763570,9.404  ,-2.201   ,1.407     ,0.028     ,2021-08-05,02:59:53.500000,1628132393      ,500000               ,0000           ,5A4F           ,1         ,1             ,3.039                ,GPS-3.0       ,5           ,0.247     ,0.224     ,0.469     ,0.806  ,2.043  ,0       ,4                 ,9         ,4             ,0           ,0         ,0          ,           ,           ,           ,           ,           ,           ,           ,           ,           ,           ,0                     ,000000                     ,                 ,                 ,                 ,
000000010,01932-0007,2.4121251240,102.7269747231,26.1999702454,0,0,140.2360233594,3.956  ,-1.003   ,0.449     ,0.016     ,2021-08-05,02:59:55.100000,1628132395      ,100000               ,0000           ,5A4F           ,1         ,1             ,3.050                ,GPS-3.0       ,5           ,0.253     ,0.230     ,0.476     ,0.885  ,2.648  ,0       ,4                 ,9         ,4             ,0           ,0         ,0          ,           ,           ,           ,           ,           ,           ,           ,           ,           ,           ,0                     ,000000                     ,                 ,                 ,                 ,
000000011,01932-0007,2.4121051893,102.7269929462,26.8914203644,0,0,134.7015483956,0.071  ,0.014    ,0.014     ,0.020     ,2021-08-05,03:00:06.300002,1628132406      ,300002               ,0000           ,5A4F           ,1         ,1             ,3.002                ,GPS-3.0       ,5           ,0.260     ,0.239     ,0.494     ,1.108  ,2.689  ,0       ,4                 ,9         ,4             ,0           ,0         ,3          ,           ,           ,           ,           ,           ,           ,           ,           ,           ,           ,0                     ,000000                     ,                 ,                 ,                 ,
000000012,01932-0007,2.4120886342,102.7270149281,27.0176982880,0,0,122.9842495915,4.881  ,-0.638   ,1.196     ,0.085     ,2021-08-05,03:00:12.150219,1628132412      ,150219               ,0000           ,5A4F           ,1         ,1             ,3.058                ,GPS-3.0       ,5           ,0.262     ,0.242     ,0.502     ,1.190  ,2.678  ,0       ,4                 ,9         ,4             ,0           ,0         ,3          ,           ,           ,           ,           ,           ,           ,           ,           ,           ,           ,0                     ,000000                     ,                 ,                 ,                 ,
000000013,01932-0007,2.4120784685,102.7270405244,26.2611370087,0,0,112.5430555205,5.070  ,-0.442   ,1.337     ,0.340     ,2021-08-05,03:00:14.200003,1628132414      ,200003               ,0000           ,5A4F           ,1         ,1             ,3.060                ,GPS-3.0       ,5           ,0.263     ,0.243     ,0.505     ,0.734  ,1.709  ,0       ,4                 ,9         ,4             ,0           ,0         ,3          ,           ,           ,           ,           ,           ,           ,           ,           ,           ,           ,0                     ,000000                     ,                 ,                 ,                 ,
000000014,01932-0007,2.4120699876,102.7270665565,25.8919506073,0,0,106.5166908233,6.631  ,-0.475   ,1.779     ,0.228     ,2021-08-05,03:00:16.000010,1628132416      ,000010               ,0000           ,5A4F           ,1         ,1             ,3.042                ,GPS-3.0       ,5           ,0.264     ,0.244     ,0.507     ,0.777  ,1.870  ,0       ,4                 ,9         ,4             ,0           ,0         ,3          ,           ,           ,           ,           ,           ,           ,           ,           ,           ,           ,0                     ,000000                     ,                 ,                 ,                 ,
000000015,01932-0007,2.4120641006,102.7270933910,25.7468338013,0,0,101.1036702834,8.106  ,-0.374   ,2.220     ,0.145     ,2021-08-05,03:00:17.449996,1628132417      ,449996               ,0000           ,5A4F           ,1         ,1             ,3.052                ,GPS-3.0       ,5           ,0.265     ,0.245     ,0.510     ,0.734  ,1.709  ,0       ,4                 ,9         ,4             ,0           ,0         ,1          ,           ,           ,           ,           ,           ,           ,           ,           ,           ,           ,0                     ,000000                     ,                 ,                 ,                 ,
000000016,01932-0007,2.4120606256,102.7271210324,25.5751934052,0,0,97.2620986867 ,8.805  ,-0.265   ,2.431     ,0.160     ,2021-08-05,03:00:18.800003,1628132418      ,800003               ,0000           ,5A4F           ,1         ,1             ,3.095                ,GPS-3.0       ,5           ,0.269     ,0.250     ,0.515     ,0.819  ,2.222  ,0       ,4                 ,8         ,4             ,0           ,0         ,0          ,           ,           ,           ,           ,           ,           ,           ,           ,           ,           ,0                     ,000000                     ,                 ,                 ,                 ,
000000017,01932-0007,2.4120583546,102.7271488517,25.5126686096,0,0,93.9706032049 ,10.851 ,-0.199   ,3.007     ,0.112     ,2021-08-05,03:00:19.950109,1628132419      ,950109               ,0000           ,5A4F           ,1         ,1             ,3.101                ,GPS-3.0       ,5           ,0.275     ,0.256     ,0.520     ,0.765  ,1.992  ,0       ,4                 ,9         ,4             ,0           ,0         ,0          ,           ,           ,           ,           ,           ,           ,           ,           ,           ,           ,0                     ,000000                     ,                 ,                 ,                 ,
000000018,01932-0007,2.4120551896,102.7271768476,25.2246665955,0,0,91.9611888718 ,11.021 ,-0.214   ,3.054     ,0.208     ,2021-08-05,03:00:21.050214,1628132421      ,050214               ,0000           ,5A4F           ,1         ,1             ,3.130                ,GPS-3.0       ,5           ,0.275     ,0.256     ,0.522     ,0.734  ,1.709  ,0       ,4                 ,8         ,4             ,0           ,0         ,1          ,           ,           ,           ,           ,           ,           ,           ,           ,           ,           ,0                     ,000000                     ,                 ,                 ,                 ,
000000019,01932-0007,2.4120534862,102.7272046547,24.7702217102,0,0,91.7568569326 ,13.323 ,-0.205   ,3.695     ,0.320     ,2021-08-05,03:00:21.900000,1628132421      ,900000               ,0000           ,5A4F           ,1         ,1             ,3.095                ,GPS-3.0       ,5           ,0.275     ,0.255     ,0.523     ,0.734  ,1.709  ,0       ,4                 ,9         ,4             ,0           ,0         ,1          ,           ,           ,           ,           ,           ,           ,           ,           ,           ,           ,0                     ,000000                     ,                 ,                 ,                 ,
000000020,01932-0007,2.4120506004,102.7272332730,24.4755229950,0,0,92.5927628040 ,14.634 ,-0.238   ,4.058     ,0.337     ,2021-08-05,03:00:22.699999,1628132422      ,699999               ,0000           ,5A4F           ,1         ,1             ,3.196                ,GPS-3.0       ,5           ,0.276     ,0.256     ,0.525     ,0.734  ,1.709  ,0       ,4                 ,9         ,4             ,0           ,0         ,1          ,           ,           ,           ,           ,           ,           ,           ,           ,           ,           ,0                     ,000000                     ,                 ,                 ,                 ,
000000021,01932-0007,2.4120493422,102.7272610001,24.2363910675,0,0,91.7689873486 ,14.944 ,-0.178   ,4.147     ,0.348     ,2021-08-05,03:00:23.449995,1628132423      ,449995               ,0000           ,5A4F           ,1         ,1             ,3.084                ,GPS-3.0       ,5           ,0.276     ,0.257     ,0.526     ,0.734  ,1.709  ,0       ,4                 ,9         ,4             ,0           ,0         ,1          ,           ,           ,           ,           ,           ,           ,           ,           ,           ,           ,0                     ,000000                     ,                 ,                 ,                 ,
000000022,01932-0007,2.4120468496,102.7272879568,23.9885101318,0,0,91.6579967746 ,15.447 ,-0.238   ,4.284     ,0.378     ,2021-08-05,03:00:24.149997,1628132424      ,149997               ,0000           ,5A4F           ,1         ,1             ,3.008                ,GPS-3.0       ,5           ,0.276     ,0.258     ,0.527     ,0.734  ,1.709  ,0       ,4                 ,9         ,4             ,0           ,0         ,1          ,           ,           ,           ,           ,           ,           ,           ,           ,           ,           ,0                     ,000000                     ,                 ,                 ,                 ,
000000023,01932-0007,2.4120442822,102.7273149217,23.6127395630,0,0,92.0939745795 ,15.652 ,-0.367   ,4.332     ,0.430     ,2021-08-05,03:00:24.850056,1628132424      ,850056               ,0000           ,5A4F           ,1         ,1             ,3.009                ,GPS-3.0       ,5           ,0.276     ,0.258     ,0.527     ,0.734  ,1.709  ,0       ,4                 ,9         ,4             ,0           ,0         ,1          ,           ,           ,           ,           ,           ,           ,           ,           ,           ,           ,0                     ,000000                     ,                 ,                 ,                 ,
000000024,01932-0007,2.4120425656,102.7273421885,23.4982357025,0,0,90.9268045333 ,15.422 ,-0.231   ,4.278     ,0.343     ,2021-08-05,03:00:25.549995,1628132425      ,549995               ,0000           ,5A4F           ,1         ,1             ,3.035                ,GPS-3.0       ,5           ,0.277     ,0.259     ,0.529     ,0.734  ,1.709  ,0       ,4                 ,9         ,4             ,0           ,0         ,2          ,           ,           ,           ,           ,           ,           ,           ,           ,           ,           ,0                     ,000000                     ,                 ,                 ,                 ,
000000025,01932-0007,2.4120423110,102.7273696697,23.3307323456,0,0,90.6625240238 ,15.088 ,-0.180   ,4.187     ,0.315     ,2021-08-05,03:00:26.249996,1628132426      ,249996               ,0000           ,5A4F           ,1         ,1             ,3.053                ,GPS-3.0       ,5           ,0.279     ,0.260     ,0.531     ,0.807  ,2.050  ,0       ,4                 ,9         ,4             ,0           ,0         ,3          ,           ,           ,           ,           ,           ,           ,           ,           ,           ,           ,0                     ,000000                     ,                 ,                 ,                 ,
000000026,01932-0007,2.4120395661,102.7273982602,23.1582889557,0,0,91.8071749362 ,14.430 ,-0.267   ,3.999     ,0.281     ,2021-08-05,03:00:27.000011,1628132427      ,000011               ,0000           ,5A4F           ,1         ,1             ,3.191                ,GPS-3.0       ,5           ,0.280     ,0.260     ,0.533     ,0.808  ,2.051  ,0       ,4                 ,9         ,4             ,0           ,0         ,3          ,           ,           ,           ,           ,           ,           ,           ,           ,           ,           ,0                     ,000000                     ,                 ,                 ,                 ,
000000027,01932-0007,2.4120378139,102.7274252334,22.9508380890,0,0,91.7252673077 ,14.154 ,-0.254   ,3.923     ,0.295     ,2021-08-05,03:00:27.749998,1628132427      ,749998               ,0000           ,5A4F           ,1         ,1             ,3.003                ,GPS-3.0       ,5           ,0.284     ,0.264     ,0.537     ,0.808  ,2.051  ,0       ,4                 ,9         ,4             ,0           ,0         ,3          ,           ,           ,           ,           ,           ,           ,           ,           ,           ,           ,0                     ,000000                     ,                 ,                 ,                 ,
000000028,01932-0007,2.4120346291,102.7274534333,22.7815971375,0,0,91.9859141566 ,13.928 ,-0.314   ,3.856     ,0.290     ,2021-08-05,03:00:28.549996,1628132428      ,549996               ,0000           ,5A4F           ,1         ,1             ,3.153                ,GPS-3.0       ,5           ,0.287     ,0.267     ,0.541     ,0.808  ,2.051  ,0       ,4                 ,9         ,4             ,0           ,0         ,1          ,           ,           ,           ,           ,           ,           ,           ,           ,           ,           ,0                     ,000000                     ,                 ,                 ,                 ,
000000029,01932-0007,2.4120359567,102.7274810990,22.4566574097,0,0,90.3019173564 ,12.963 ,-0.029   ,3.601     ,0.362     ,2021-08-05,03:00:29.400154,1628132429      ,400154               ,0000           ,5A4F           ,1         ,1             ,3.077                ,GPS-3.0       ,5           ,0.288     ,0.268     ,0.543     ,0.734  ,1.709  ,0       ,4                 ,9         ,4             ,0           ,0         ,0          ,           ,           ,           ,           ,           ,           ,           ,           ,           ,           ,0                     ,000000                     ,                 ,                 ,                 ,
000000030,01932-0007,2.4120358893,102.7275091027,22.2903041840,0,0,88.4278705425 ,12.468 ,0.038    ,3.463     ,0.343     ,2021-08-05,03:00:30.249996,1628132430      ,249996               ,0000           ,5A4F           ,1         ,1             ,3.111                ,GPS-3.0       ,5           ,0.289     ,0.270     ,0.545     ,0.808  ,2.051  ,0       ,4                 ,9         ,4             ,0           ,0         ,1          ,           ,           ,           ,           ,           ,           ,           ,           ,           ,           ,0                     ,000000                     ,                 ,                 ,                 ,
000000031,01932-0007,2.4120352487,102.7275372301,21.8958721161,0,0,86.4901117240 ,12.519 ,0.104    ,3.476     ,0.402     ,2021-08-05,03:00:31.200006,1628132431      ,200006               ,0000           ,5A4F           ,1         ,1             ,3.126                ,GPS-3.0       ,5           ,0.287     ,0.270     ,0.545     ,0.734  ,1.709  ,0       ,4                 ,9         ,4             ,0           ,0         ,1          ,           ,           ,           ,           ,           ,           ,           ,           ,           ,           ,0                     ,000000                     ,                 ,                 ,                 ,
000000032,01932-0007,2.4120345855,102.7275655958,21.7725124359,0,0,86.1605892475 ,13.432 ,0.203    ,3.725     ,0.329     ,2021-08-05,03:00:32.000012,1628132432      ,000012               ,0000           ,5A4F           ,1         ,1             ,3.152                ,GPS-3.0       ,5           ,0.282     ,0.267     ,0.543     ,0.846  ,1.811  ,0       ,4                 ,9         ,4             ,0           ,0         ,1          ,           ,           ,           ,           ,           ,           ,           ,           ,           ,           ,0                     ,000000                     ,                 ,                 ,                 ,
000000033,01932-0007,2.4120342484,102.7275934458,21.8387622833,0,0,86.3967020569 ,14.134 ,0.155    ,3.923     ,0.213     ,2021-08-05,03:00:32.750041,1628132432      ,750041               ,0000           ,5A4F           ,1         ,1             ,3.094                ,GPS-3.0       ,5           ,0.277     ,0.264     ,0.541     ,0.846  ,1.811  ,0       ,4                 ,9         ,3             ,0           ,0         ,3          ,           ,           ,           ,           ,           ,           ,           ,           ,           ,           ,0                     ,000000                     ,                 ,                 ,                 ,
000000034,01932-0007,2.4120340467,102.7276218589,21.9078388214,0,0,87.1818596227 ,14.576 ,0.100    ,4.048     ,0.140     ,2021-08-05,03:00:33.500016,1628132433      ,500016               ,0000           ,5A4F           ,1         ,1             ,3.157                ,GPS-3.0       ,5           ,0.274     ,0.261     ,0.539     ,0.734  ,1.709  ,0       ,4                 ,9         ,4             ,0           ,0         ,3          ,           ,           ,           ,           ,           ,           ,           ,           ,           ,           ,0                     ,000000                     ,                 ,                 ,                 ,
000000035,01932-0007,2.4120340484,102.7276490830,21.9309730530,0,0,87.6507042979 ,15.225 ,0.122    ,4.227     ,0.122     ,2021-08-05,03:00:34.200014,1628132434      ,200014               ,0000           ,5A4F           ,1         ,1             ,3.025                ,GPS-3.0       ,5           ,0.272     ,0.258     ,0.537     ,0.734  ,1.709  ,0       ,4                 ,9         ,4             ,0           ,0         ,3          ,           ,           ,           ,           ,           ,           ,           ,           ,           ,           ,0                     ,000000                     ,                 ,                 ,                 ,
000000036,01932-0007,2.4120332661,102.7276779104,21.8559265137,0,0,88.6033381022 ,16.020 ,0.068    ,4.450     ,0.169     ,2021-08-05,03:00:34.900002,1628132434      ,900002               ,0000           ,5A4F           ,1         ,1             ,3.204                ,GPS-3.0       ,5           ,0.268     ,0.254     ,0.536     ,0.796  ,1.719  ,0       ,4                 ,9         ,4             ,0           ,0         ,3          ,           ,           ,           ,           ,           ,           ,           ,           ,           ,           ,0                     ,000000                     ,                 ,                 ,                 ,
000000037,01932-0007,2.4120336153,102.7277061005,21.7405986786,0,0,88.5585593820 ,17.052 ,0.181    ,4.733     ,0.200     ,2021-08-05,03:00:35.549997,1628132435      ,549997               ,0000           ,5A4F           ,1         ,1             ,3.132                ,GPS-3.0       ,5           ,0.266     ,0.250     ,0.534     ,0.734  ,1.709  ,0       ,4                 ,9         ,4             ,0           ,0         ,4          ,           ,           ,           ,           ,           ,           ,           ,           ,           ,           ,0                     ,000000                     ,                 ,                 ,                 ,
000000038,01932-0007,2.4120337183,102.7277338134,21.7266864777,0,0,88.3418238193 ,18.067 ,0.174    ,5.016     ,0.167     ,2021-08-05,03:00:36.149996,1628132436      ,149996               ,0000           ,5A4F           ,1         ,1             ,3.079                ,GPS-3.0       ,5           ,0.263     ,0.247     ,0.533     ,0.734  ,1.709  ,0       ,4                 ,9         ,4             ,0           ,0         ,4          ,           ,           ,           ,           ,           ,           ,           ,           ,           ,           ,0                     ,000000                     ,                 ,                 ,                 ,
000000039,01932-0007,2.4120333188,102.7277628791,21.7738075256,0,0,87.9904037563 ,18.585 ,0.139    ,5.161     ,0.127     ,2021-08-05,03:00:36.750069,1628132436      ,750069               ,0000           ,5A4F           ,1         ,1             ,3.229                ,GPS-3.0       ,5           ,0.260     ,0.244     ,0.530     ,0.846  ,1.811  ,0       ,4                 ,9         ,4             ,0           ,0         ,4          ,           ,           ,           ,           ,           ,           ,           ,           ,           ,           ,0                     ,000000                     ,                 ,                 ,                 ,
000000040,01932-0007,2.4120333821,102.7277898832,21.8113002777,0,0,87.5265041381 ,18.862 ,0.189    ,5.236     ,0.103     ,2021-08-05,03:00:37.300130,1628132437      ,300130               ,0000           ,5A4F           ,1         ,1             ,3.000                ,GPS-3.0       ,5           ,0.255     ,0.241     ,0.529     ,0.846  ,1.811  ,0       ,4                 ,9         ,4             ,0           ,0         ,4          ,           ,           ,           ,           ,           ,           ,           ,           ,           ,           ,0                     ,000000                     ,                 ,                 ,                 ,
000000041,01932-0007,2.4120335822,102.7278172106,21.8757095337,0,0,87.1221637694 ,18.759 ,0.280    ,5.203     ,0.101     ,2021-08-05,03:00:37.850182,1628132437      ,850182               ,0000           ,5A4F           ,1         ,1             ,3.036                ,GPS-3.0       ,5           ,0.251     ,0.237     ,0.525     ,0.772  ,1.714  ,0       ,4                 ,9         ,4             ,0           ,0         ,4          ,           ,           ,           ,           ,           ,           ,           ,           ,           ,           ,0                     ,000000                     ,                 ,                 ,                 ,
000000042,01932-0007,2.4120348206,102.7278461539,21.9195461273,0,0,86.7155694383 ,18.582 ,0.235    ,5.156     ,0.058     ,2021-08-05,03:00:38.449995,1628132438      ,449995               ,0000           ,5A4F           ,1         ,1             ,3.218                ,GPS-3.0       ,5           ,0.249     ,0.235     ,0.522     ,0.734  ,1.709  ,0       ,4                 ,9         ,4             ,0           ,0         ,4          ,           ,           ,           ,           ,           ,           ,           ,           ,           ,           ,0                     ,000000                     ,                 ,                 ,                 ,
000000043,01932-0007,2.4120350737,102.7278742116,22.0330295563,0,0,86.5456958034 ,18.195 ,0.226    ,5.049     ,0.068     ,2021-08-05,03:00:39.000010,1628132439      ,000010               ,0000           ,5A4F           ,1         ,1             ,3.117                ,GPS-3.0       ,5           ,0.244     ,0.225     ,0.511     ,0.734  ,1.709  ,0       ,4                 ,9         ,4             ,0           ,0         ,4          ,           ,           ,           ,           ,           ,           ,           ,           ,           ,           ,0                     ,000000                     ,                 ,                 ,                 ,
000000044,01932-0007,2.4120346797,102.7279022875,22.2507801056,0,0,86.5906521086 ,18.417 ,0.275    ,5.108     ,0.033     ,2021-08-05,03:00:39.549995,1628132439      ,549995               ,0000           ,5A4F           ,1         ,1             ,3.119                ,GPS-3.0       ,5           ,0.237     ,0.216     ,0.497     ,0.734  ,1.709  ,0       ,4                 ,9         ,4             ,0           ,0         ,4          ,           ,           ,           ,           ,           ,           ,           ,           ,           ,           ,0                     ,000000                     ,                 ,                 ,                 ,
000000045,01932-0007,2.4120346715,102.7279295827,22.3829593658,0,0,86.9226539437 ,18.551 ,0.252    ,5.147     ,0.037     ,2021-08-05,03:00:40.099999,1628132440      ,099999               ,0000           ,5A4F           ,1         ,1             ,3.032                ,GPS-3.0       ,5           ,0.231     ,0.208     ,0.486     ,0.734  ,1.709  ,0       ,4                 ,9         ,4             ,0           ,0         ,4          ,           ,           ,           ,           ,           ,           ,           ,           ,           ,           ,0                     ,000000                     ,                 ,                 ,                 ,
000000046,01932-0007,2.4120346411,102.7279587779,22.4594688416,0,0,87.6059050872 ,18.396 ,0.230    ,5.105     ,0.081     ,2021-08-05,03:00:40.699999,1628132440      ,699999               ,0000           ,5A4F           ,1         ,1             ,3.243                ,GPS-3.0       ,5           ,0.226     ,0.203     ,0.479     ,0.734  ,1.709  ,0       ,4                 ,9         ,4             ,0           ,0         ,4          ,           ,           ,           ,           ,           ,           ,           ,           ,           ,           ,0                     ,000000                     ,                 ,                 ,                 ,
000000047,01932-0007,2.4120345278,102.7279881465,22.5917510986,0,0,88.9358795224 ,18.399 ,0.067    ,5.110     ,0.061     ,2021-08-05,03:00:41.300171,1628132441      ,300171               ,0000           ,5A4F           ,1         ,1             ,3.263                ,GPS-3.0       ,5           ,0.221     ,0.196     ,0.469     ,0.734  ,1.709  ,0       ,4                 ,9         ,4             ,0           ,0         ,4          ,           ,           ,           ,           ,           ,           ,           ,           ,           ,           ,0                     ,000000                     ,                 ,                 ,                 ,
000000048,01932-0007,2.4120345405,102.7280160430,22.5499057770,0,0,90.8166062613 ,18.285 ,-0.056   ,5.079     ,0.109     ,2021-08-05,03:00:41.900001,1628132441      ,900001               ,0000           ,5A4F           ,1         ,1             ,3.099                ,GPS-3.0       ,5           ,0.221     ,0.195     ,0.469     ,0.734  ,1.709  ,0       ,4                 ,9         ,4             ,0           ,0         ,4          ,           ,           ,           ,           ,           ,           ,           ,           ,           ,           ,0                     ,000000                     ,                 ,                 ,                 ,
000000049,01932-0007,2.4120335643,102.7280436241,22.5725536346,0,0,93.3168789692 ,18.090 ,-0.259   ,5.018     ,0.092     ,2021-08-05,03:00:42.499999,1628132442      ,499999               ,0000           ,5A4F           ,1         ,1             ,3.066                ,GPS-3.0       ,5           ,0.219     ,0.194     ,0.468     ,0.887  ,2.668  ,0       ,4                 ,9         ,4             ,0           ,0         ,4          ,           ,           ,           ,           ,           ,           ,           ,           ,           ,           ,0                     ,000000                     ,                 ,                 ,                 ,
000000050,01932-0007,2.4120305797,102.7280716818,22.7380905151,0,0,96.3096561277 ,18.716 ,-0.560   ,5.169     ,-0.049    ,2021-08-05,03:00:43.100004,1628132443      ,100004               ,0000           ,5A4F           ,1         ,1             ,3.135                ,GPS-3.0       ,5           ,0.218     ,0.193     ,0.468     ,0.887  ,2.668  ,0       ,4                 ,9         ,4             ,0           ,0         ,4          ,           ,           ,           ,           ,           ,           ,           ,           ,           ,           ,0                     ,000000                     ,                 ,                 ,                 ,
000000051,01932-0007,2.4120271511,102.7280997427,22.7862548828,0,0,99.9691553717 ,19.091 ,-0.759   ,5.248     ,-0.042    ,2021-08-05,03:00:43.700002,1628132443      ,700002               ,0000           ,5A4F           ,1         ,1             ,3.141                ,GPS-3.0       ,5           ,0.218     ,0.193     ,0.469     ,0.734  ,1.709  ,0       ,4                 ,9         ,4             ,0           ,0         ,4          ,           ,           ,           ,           ,           ,           ,           ,           ,           ,           ,0                     ,000000                     ,                 ,                 ,                 ,
000000052,01932-0007,2.4120214809,102.7281280412,22.8426761627,0,0,104.4743276577,19.363 ,-1.283   ,5.223     ,-0.022    ,2021-08-05,03:00:44.300206,1628132444      ,300206               ,0000           ,5A4F           ,1         ,1             ,3.206                ,GPS-3.0       ,5           ,0.218     ,0.193     ,0.469     ,0.734  ,1.709  ,0       ,4                 ,9         ,4             ,0           ,0         ,4          ,           ,           ,           ,           ,           ,           ,           ,           ,           ,           ,0                     ,000000                     ,                 ,                 ,                 ,
000000053,01932-0007,2.4120130294,102.7281541075,22.8500556946,0,0,109.2940847965,19.891 ,-1.786   ,5.229     ,-0.005    ,2021-08-05,03:00:44.850254,1628132444      ,850254               ,0000           ,5A4F           ,1         ,1             ,3.045                ,GPS-3.0       ,5           ,0.218     ,0.193     ,0.470     ,0.734  ,1.709  ,0       ,4                 ,9         ,4             ,0           ,0         ,4          ,           ,           ,           ,           ,           ,           ,           ,           ,           ,           ,0                     ,000000                     ,                 ,                 ,                 ,
000000054,01932-0007,2.4120026634,102.7281794383,22.8416233063,0,0,114.1979693752,20.025 ,-2.301   ,5.064     ,0.027     ,2021-08-05,03:00:45.400043,1628132445      ,400043               ,0000           ,5A4F           ,1         ,1             ,3.041                ,GPS-3.0       ,5           ,0.218     ,0.194     ,0.471     ,0.809  ,2.055  ,0       ,4                 ,9         ,4             ,0           ,0         ,4          ,           ,           ,           ,           ,           ,           ,           ,           ,           ,           ,0                     ,000000                     ,                 ,                 ,                 ,
000000055,01932-0007,2.4119899777,102.7282045222,22.8352813721,0,0,118.9514190375,20.115 ,-2.723   ,4.879     ,0.044     ,2021-08-05,03:00:45.949996,1628132445      ,949996               ,0000           ,5A4F           ,1         ,1             ,3.123                ,GPS-3.0       ,5           ,0.218     ,0.194     ,0.471     ,0.809  ,2.055  ,0       ,4                 ,9         ,4             ,0           ,0         ,4          ,           ,           ,           ,           ,           ,           ,           ,           ,           ,           ,0                     ,000000                     ,                 ,                 ,                 ,
000000056,01932-0007,2.4119753612,102.7282287783,22.8042049408,0,0,122.2595118790,20.337 ,-3.048   ,4.756     ,0.059     ,2021-08-05,03:00:46.500001,1628132446      ,500001               ,0000           ,5A4F           ,1         ,1             ,3.147                ,GPS-3.0       ,5           ,0.218     ,0.194     ,0.472     ,0.809  ,2.056  ,0       ,4                 ,9         ,4             ,0           ,0         ,4          ,           ,           ,           ,           ,           ,           ,           ,           ,           ,           ,0                     ,000000                     ,                 ,                 ,                 ,
000000057,01932-0007,2.4119596498,102.7282528396,22.7437992096,0,0,124.4847055483,20.649 ,-3.287   ,4.701     ,0.071     ,2021-08-05,03:00:47.049999,1628132447      ,049999               ,0000           ,5A4F           ,1         ,1             ,3.193                ,GPS-3.0       ,5           ,0.220     ,0.195     ,0.473     ,0.849  ,2.068  ,0       ,4                 ,9         ,4             ,0           ,0         ,4          ,           ,           ,           ,           ,           ,           ,           ,           ,           ,           ,0                     ,000000                     ,                 ,                 ,                 ,
000000058,01932-0007,2.4119436740,102.7282773178,22.5809803009,0,0,126.2462796372,20.673 ,-3.343   ,4.669     ,0.170     ,2021-08-05,03:00:47.600007,1628132447      ,600007               ,0000           ,5A4F           ,1         ,1             ,3.248                ,GPS-3.0       ,5           ,0.220     ,0.195     ,0.474     ,0.928  ,2.679  ,0       ,4                 ,8         ,4             ,0           ,0         ,4          ,           ,           ,           ,           ,           ,           ,           ,           ,           ,           ,0                     ,000000                     ,                 ,                 ,                 ,
000000059,01932-0007,2.4119265481,102.7283011761,22.5153884888,0,0,127.3694222839,20.883 ,-3.446   ,4.666     ,0.170     ,2021-08-05,03:00:48.150000,1628132448      ,150000               ,0000           ,5A4F           ,1         ,1             ,3.264                ,GPS-3.0       ,5           ,0.221     ,0.195     ,0.474     ,0.809  ,2.056  ,0       ,4                 ,8         ,4             ,0           ,0         ,4          ,           ,           ,           ,           ,           ,           ,           ,           ,           ,           ,0                     ,000000                     ,                 ,                 ,                 ,
000000060,01932-0007,2.4119087956,102.7283244111,22.4422054291,0,0,127.7584152175,21.074 ,-3.582   ,4.630     ,0.154     ,2021-08-05,03:00:48.700001,1628132448      ,700001               ,0000           ,5A4F           ,1         ,1             ,3.250                ,GPS-3.0       ,5           ,0.222     ,0.196     ,0.475     ,1.091  ,2.568  ,0       ,4                 ,9         ,4             ,0           ,0         ,4          ,           ,           ,           ,           ,           ,           ,           ,           ,           ,           ,0                     ,000000                     ,                 ,                 ,                 ,
000000061,01932-0007,2.4118921535,102.7283482755,22.4065361023,0,0,126.8029810357,20.986 ,-3.400   ,4.735     ,0.150     ,2021-08-05,03:00:49.250006,1628132449      ,250006               ,0000           ,5A4F           ,1         ,1             ,3.233                ,GPS-3.0       ,5           ,0.223     ,0.196     ,0.476     ,1.091  ,2.568  ,0       ,4                 ,9         ,4             ,0           ,0         ,4          ,           ,           ,           ,           ,           ,           ,           ,           ,           ,           ,0                     ,000000                     ,                 ,                 ,                 ,
000000062,01932-0007,2.4118753082,102.7283714658,22.4307346344,0,0,126.2785317904,20.946 ,-3.413   ,4.712     ,0.092     ,2021-08-05,03:00:49.800011,1628132449      ,800011               ,0000           ,5A4F           ,1         ,1             ,3.185                ,GPS-3.0       ,5           ,0.224     ,0.198     ,0.477     ,0.809  ,2.056  ,0       ,4                 ,9         ,4             ,0           ,0         ,4          ,           ,           ,           ,           ,           ,           ,           ,           ,           ,           ,0                     ,000000                     ,                 ,                 ,                 ,
000000063,01932-0007,2.4118589300,102.7283947924,22.6600837708,0,0,125.7067356739,20.702 ,-3.351   ,4.673     ,-0.040    ,2021-08-05,03:00:50.349996,1628132450      ,349996               ,0000           ,5A4F           ,1         ,1             ,3.167                ,GPS-3.0       ,5           ,0.224     ,0.198     ,0.478     ,0.809  ,2.056  ,0       ,4                 ,9         ,4             ,0           ,0         ,4          ,           ,           ,           ,           ,           ,           ,           ,           ,           ,           ,0                     ,000000                     ,                 ,                 ,                 ,
000000064,01932-0007,2.4118420374,102.7284182900,22.4703445435,0,0,125.5863740803,20.985 ,-3.357   ,4.765     ,0.067     ,2021-08-05,03:00:50.900000,1628132450      ,900000               ,0000           ,5A4F           ,1         ,1             ,3.216                ,GPS-3.0       ,5           ,0.225     ,0.198     ,0.479     ,0.853  ,2.057  ,0       ,4                 ,9         ,4             ,0           ,0         ,4          ,           ,           ,           ,           ,           ,           ,           ,           ,           ,           ,0                     ,000000                     ,                 ,                 ,                 ,
000000065,01932-0007,2.4118248329,102.7284420762,22.3897285461,0,0,125.5457617755,20.999 ,-3.394   ,4.744     ,0.128     ,2021-08-05,03:00:51.449996,1628132451      ,449996               ,0000           ,5A4F           ,1         ,1             ,3.262                ,GPS-3.0       ,5           ,0.225     ,0.199     ,0.480     ,0.809  ,2.056  ,0       ,4                 ,9         ,4             ,0           ,0         ,3          ,           ,           ,           ,           ,           ,           ,           ,           ,           ,           ,0                     ,000000                     ,                 ,                 ,                 ,
000000066,01932-0007,2.4118090822,102.7284640153,22.3689308167,0,0,125.3303649299,21.373 ,-3.494   ,4.800     ,0.110     ,2021-08-05,03:00:51.949998,1628132451      ,949998               ,0000           ,5A4F           ,1         ,1             ,3.001                ,GPS-3.0       ,5           ,0.226     ,0.199     ,0.481     ,0.809  ,2.056  ,0       ,4                 ,9         ,4             ,0           ,0         ,3          ,           ,           ,           ,           ,           ,           ,           ,           ,           ,           ,0                     ,000000                     ,                 ,                 ,                 ,
000000067,01932-0007,2.4117938125,102.7284866941,22.4378261566,0,0,125.2171613745,21.055 ,-3.343   ,4.799     ,0.045     ,2021-08-05,03:00:52.449996,1628132452      ,449996               ,0000           ,5A4F           ,1         ,1             ,3.038                ,GPS-3.0       ,5           ,0.225     ,0.199     ,0.481     ,0.809  ,2.057  ,0       ,4                 ,9         ,4             ,0           ,0         ,3          ,           ,           ,           ,           ,           ,           ,           ,           ,           ,           ,0                     ,000000                     ,                 ,                 ,                 ,
000000068,01932-0007,2.4117770882,102.7285108001,22.5285930634,0,0,125.1633941254,21.140 ,-3.358   ,4.817     ,-0.011    ,2021-08-05,03:00:53.000020,1628132453      ,000020               ,0000           ,5A4F           ,1         ,1             ,3.260                ,GPS-3.0       ,5           ,0.226     ,0.199     ,0.481     ,0.809  ,2.057  ,0       ,4                 ,9         ,4             ,0           ,0         ,3          ,           ,           ,           ,           ,           ,           ,           ,           ,           ,           ,0                     ,000000                     ,                 ,                 ,                 ,
000000069,01932-0007,2.4117612280,102.7285329068,22.5282344818,0,0,125.3738595745,21.338 ,-3.415   ,4.845     ,0.026     ,2021-08-05,03:00:53.500000,1628132453      ,500000               ,0000           ,5A4F           ,1         ,1             ,3.024                ,GPS-3.0       ,5           ,0.226     ,0.199     ,0.482     ,0.809  ,2.057  ,0       ,4                 ,9         ,4             ,0           ,0         ,4          ,           ,           ,           ,           ,           ,           ,           ,           ,           ,           ,0                     ,000000                     ,                 ,                 ,                 ,
000000070,01932-0007,2.4117451287,102.7285551384,22.5116729736,0,0,125.4309326352,21.614 ,-3.429   ,4.928     ,0.026     ,2021-08-05,03:00:54.000041,1628132454      ,000041               ,0000           ,5A4F           ,1         ,1             ,3.050                ,GPS-3.0       ,5           ,0.226     ,0.198     ,0.481     ,0.809  ,2.057  ,0       ,4                 ,9         ,4             ,0           ,0         ,4          ,           ,           ,           ,           ,           ,           ,           ,           ,           ,           ,0                     ,000000                     ,                 ,                 ,                 ,
000000071,01932-0007,2.4117286697,102.7285774779,22.4355125427,0,0,125.5567310593,21.567 ,-3.450   ,4.898     ,0.050     ,2021-08-05,03:00:54.499999,1628132454      ,499999               ,0000           ,5A4F           ,1         ,1             ,3.084                ,GPS-3.0       ,5           ,0.225     ,0.197     ,0.482     ,0.888  ,2.673  ,0       ,4                 ,9         ,4             ,0           ,0         ,4          ,           ,           ,           ,           ,           ,           ,           ,           ,           ,           ,0                     ,000000                     ,                 ,                 ,                 ,
000000072,01932-0007,2.4117122585,102.7285993245,22.3591365814,0,0,125.9688783342,21.733 ,-3.646   ,4.812     ,0.104     ,2021-08-05,03:00:55.000066,1628132455      ,000066               ,0000           ,5A4F           ,1         ,1             ,3.037                ,GPS-3.0       ,5           ,0.224     ,0.197     ,0.482     ,0.888  ,2.673  ,0       ,4                 ,9         ,4             ,0           ,0         ,4          ,           ,           ,           ,           ,           ,           ,           ,           ,           ,           ,0                     ,000000                     ,                 ,                 ,                 ,
000000073,01932-0007,2.4116956060,102.7286211767,22.3342094421,0,0,126.2088502005,21.844 ,-3.589   ,4.892     ,0.182     ,2021-08-05,03:00:55.499999,1628132455      ,499999               ,0000           ,5A4F           ,1         ,1             ,3.053                ,GPS-3.0       ,5           ,0.224     ,0.197     ,0.482     ,0.809  ,2.057  ,0       ,4                 ,9         ,4             ,0           ,0         ,4          ,           ,           ,           ,           ,           ,           ,           ,           ,           ,           ,0                     ,000000                     ,                 ,                 ,                 ,
000000074,01932-0007,2.4116786936,102.7286438882,22.2402114868,0,0,125.8818753846,22.452 ,-3.705   ,5.017     ,0.237     ,2021-08-05,03:00:56.000042,1628132456      ,000042               ,0000           ,5A4F           ,1         ,1             ,3.147                ,GPS-3.0       ,5           ,0.224     ,0.196     ,0.483     ,0.809  ,2.057  ,0       ,4                 ,9         ,4             ,0           ,0         ,4          ,           ,           ,           ,           ,           ,           ,           ,           ,           ,           ,0                     ,000000                     ,                 ,                 ,                 ,
000000075,01932-0007,2.4116620489,102.7286673469,22.1596527100,0,0,125.1999629582,22.852 ,-3.644   ,5.197     ,0.247     ,2021-08-05,03:00:56.499999,1628132456      ,499999               ,0000           ,5A4F           ,1         ,1             ,3.197                ,GPS-3.0       ,5           ,0.224     ,0.195     ,0.483     ,0.888  ,2.674  ,0       ,4                 ,9         ,4             ,0           ,0         ,4          ,           ,           ,           ,           ,           ,           ,           ,           ,           ,           ,0                     ,000000                     ,                 ,                 ,                 ,
000000076,01932-0007,2.4116448993,102.7286915799,22.0561370850,0,0,124.6242053319,23.297 ,-3.653   ,5.342     ,0.236     ,2021-08-05,03:00:57.000057,1628132457      ,000057               ,0000           ,5A4F           ,1         ,1             ,3.299                ,GPS-3.0       ,5           ,0.223     ,0.194     ,0.482     ,0.888  ,2.674  ,0       ,4                 ,9         ,4             ,0           ,0         ,4          ,           ,           ,           ,           ,           ,           ,           ,           ,           ,           ,0                     ,000000                     ,                 ,                 ,                 ,
000000077,01932-0007,2.4116284060,102.7287160448,21.9209022522,0,0,123.8501809744,23.442 ,-3.616   ,5.415     ,0.188     ,2021-08-05,03:00:57.499998,1628132457      ,499998               ,0000           ,5A4F           ,1         ,1             ,3.279                ,GPS-3.0       ,5           ,0.223     ,0.193     ,0.483     ,0.888  ,2.674  ,0       ,4                 ,9         ,4             ,0           ,0         ,4          ,           ,           ,           ,           ,           ,           ,           ,           ,           ,           ,0                     ,000000                     ,                 ,                 ,                 ,
000000078,01932-0007,2.4116117559,102.7287407493,21.7870826721,0,0,122.6611133418,23.586 ,-3.542   ,5.512     ,0.197     ,2021-08-05,03:00:58.000069,1628132458      ,000069               ,0000           ,5A4F           ,1         ,1             ,3.311                ,GPS-3.0       ,5           ,0.224     ,0.193     ,0.484     ,0.809  ,2.058  ,0       ,4                 ,9         ,4             ,0           ,0         ,4          ,           ,           ,           ,           ,           ,           ,           ,           ,           ,           ,0                     ,000000                     ,                 ,                 ,                 ,
000000079,01932-0007,2.4115961258,102.7287651915,21.6804981232,0,0,121.4786709927,23.050 ,-3.294   ,5.490     ,0.208     ,2021-08-05,03:00:58.499999,1628132458      ,499999               ,0000           ,5A4F           ,1         ,1             ,3.224                ,GPS-3.0       ,5           ,0.224     ,0.193     ,0.484     ,0.888  ,2.675  ,0       ,4                 ,9         ,4             ,0           ,0         ,4          ,           ,           ,           ,           ,           ,           ,           ,           ,           ,           ,0                     ,000000                     ,                 ,                 ,                 ,
000000080,01932-0007,2.4115812375,102.7287897508,21.5833892822,0,0,119.8645470277,22.745 ,-3.146   ,5.479     ,0.187     ,2021-08-05,03:00:59.000075,1628132459      ,000075               ,0000           ,5A4F           ,1         ,1             ,3.191                ,GPS-3.0       ,5           ,0.224     ,0.193     ,0.485     ,0.809  ,2.058  ,0       ,4                 ,9         ,4             ,0           ,0         ,4          ,           ,           ,           ,           ,           ,           ,           ,           ,           ,           ,0                     ,000000                     ,                 ,                 ,                 ,
000000081,01932-0007,2.4115677483,102.7288140489,21.4404563904,0,0,117.6533142650,22.029 ,-2.840   ,5.420     ,0.194     ,2021-08-05,03:00:59.499998,1628132459      ,499998               ,0000           ,5A4F           ,1         ,1             ,3.088                ,GPS-3.0       ,5           ,0.225     ,0.195     ,0.486     ,0.809  ,2.058  ,0       ,4                 ,9         ,4             ,0           ,0         ,4          ,           ,           ,           ,           ,           ,           ,           ,           ,           ,           ,0                     ,000000                     ,                 ,                 ,                 ,
000000082,01932-0007,2.4115553303,102.7288395956,21.3575057983,0,0,115.4716972026,22.143 ,-2.683   ,5.535     ,0.161     ,2021-08-05,03:01:00.000087,1628132460      ,000087               ,0000           ,5A4F           ,1         ,1             ,3.156                ,GPS-3.0       ,5           ,0.226     ,0.195     ,0.488     ,0.809  ,2.058  ,0       ,4                 ,9         ,4             ,0           ,0         ,4          ,           ,           ,           ,           ,           ,           ,           ,           ,           ,           ,0                     ,000000                     ,                 ,                 ,                 ,
000000083,01932-0007,2.4115446761,102.7288644697,21.3757743835,0,0,113.6899262444,21.611 ,-2.411   ,5.497     ,0.125     ,2021-08-05,03:01:00.500000,1628132460      ,500000               ,0000           ,5A4F           ,1         ,1             ,3.007                ,GPS-3.0       ,5           ,0.228     ,0.196     ,0.489     ,0.809  ,2.059  ,0       ,4                 ,9         ,4             ,0           ,0         ,4          ,           ,           ,           ,           ,           ,           ,           ,           ,           ,           ,0                     ,000000                     ,                 ,                 ,                 ,
000000084,01932-0007,2.4115348633,102.7288896406,21.3234310150,0,0,112.3963020760,21.257 ,-2.210   ,5.475     ,0.181     ,2021-08-05,03:01:01.000100,1628132461      ,000100               ,0000           ,5A4F           ,1         ,1             ,3.002                ,GPS-3.0       ,5           ,0.229     ,0.197     ,0.490     ,0.809  ,2.059  ,0       ,4                 ,9         ,4             ,0           ,0         ,4          ,           ,           ,           ,           ,           ,           ,           ,           ,           ,           ,0                     ,000000                     ,                 ,                 ,                 ,
000000085,01932-0007,2.4115255939,102.7289164532,21.4484500885,0,0,111.0317805440,20.442 ,-1.912   ,5.347     ,0.126     ,2021-08-05,03:01:01.550138,1628132461      ,550138               ,0000           ,5A4F           ,1         ,1             ,3.152                ,GPS-3.0       ,5           ,0.229     ,0.197     ,0.491     ,0.809  ,2.059  ,0       ,4                 ,9         ,4             ,0           ,0         ,3          ,           ,           ,           ,           ,           ,           ,           ,           ,           ,           ,0                     ,000000                     ,                 ,                 ,                 ,
000000086,01932-0007,2.4115159875,102.7289417591,21.2646408081,0,0,109.8956673680,19.795 ,-1.830   ,5.185     ,0.212     ,2021-08-05,03:01:02.100191,1628132462      ,100191               ,0000           ,5A4F           ,1         ,1             ,3.007                ,GPS-3.0       ,5           ,0.230     ,0.198     ,0.492     ,0.809  ,2.059  ,0       ,4                 ,9         ,4             ,0           ,0         ,3          ,           ,           ,           ,           ,           ,           ,           ,           ,           ,           ,0                     ,000000                     ,                 ,                 ,                 ,
000000087,01932-0007,2.4115073761,102.7289674642,21.1763153076,0,0,108.4031207702,19.548 ,-1.630   ,5.180     ,0.205     ,2021-08-05,03:01:02.650248,1628132462      ,650248               ,0000           ,5A4F           ,1         ,1             ,3.012                ,GPS-3.0       ,5           ,0.232     ,0.200     ,0.494     ,0.888  ,2.677  ,0       ,4                 ,9         ,4             ,0           ,0         ,3          ,           ,           ,           ,           ,           ,           ,           ,           ,           ,           ,0                     ,000000                     ,                 ,                 ,                 ,
000000088,01932-0007,2.4114989607,102.7289934079,21.1375865936,0,0,107.5537389356,19.523 ,-1.484   ,5.216     ,0.183     ,2021-08-05,03:01:03.200038,1628132463      ,200038               ,0000           ,5A4F           ,1         ,1             ,3.030                ,GPS-3.0       ,5           ,0.233     ,0.201     ,0.496     ,0.831  ,1.763  ,0       ,4                 ,9         ,4             ,0           ,0         ,2          ,           ,           ,           ,           ,           ,           ,           ,           ,           ,           ,0                     ,000000                     ,                 ,                 ,                 ,
000000089,01932-0007,2.4114905201,102.7290192652,21.2008762360,0,0,106.9901117253,19.293 ,-1.562   ,5.126     ,0.108     ,2021-08-05,03:01:03.749998,1628132463      ,749998               ,0000           ,5A4F           ,1         ,1             ,3.022                ,GPS-3.0       ,5           ,0.234     ,0.202     ,0.497     ,0.831  ,1.763  ,0       ,4                 ,9         ,4             ,0           ,0         ,2          ,           ,           ,           ,           ,           ,           ,           ,           ,           ,           ,0                     ,000000                     ,                 ,                 ,                 ,
