#0:imgID ,1:camSN   ,2:lat       ,3:lon         ,4:height     ,5:roll       ,6:pitch      ,7:heading     ,8:speed,9:speed_n,10:speed_e,11:speed_d,12:date   ,13:time        ,14:unix_time_sec,15:unix_time_microsec,16:systemStatus,17:filterStatus,18:haveFix,19:extVelocity,20:distancetoprevious,21:releaseMode,22:device_id,23:lat_dev,24:lon_dev,25:hei_dev,26:hdop,27:vdop,28:fs_10,29:gnss_fix_status,30:gps_sat,31:glonass_sat,32:beidu_sat,33:gal_sat,34:sbas_sat,35:custLog0,36:custLog1,37:custLog2,38:custLog3,39:custLog4,40:custLog5,41:custLog6,42:custLog7,43:custLog8,44:custLog9,45:unix_time_sec_fixed,46:unix_time_microsec_fixed,47:pnvgbss_field3,48:pnvgbss_field4,49:pnvgbss_field5,50:pnvgbss_field6,51:pnvgbss_field7
000000001,01932-0007,2.4390699784,102.6911271262,30.8034191132,0,0,103.9920753212,28.083 ,-1.877   ,7.572     ,-0.035    ,2021-08-05,02:28:34.400227,1628130514      ,400227               ,0000           ,5A4F           ,1         ,1             ,0.000                ,GPS-3.0       ,5           ,0.131     ,0.126     ,0.286     ,0.803  ,1.785  ,0       ,4                 ,11        ,4             ,0           ,0         ,4          ,           ,           ,           ,           ,           ,           ,           ,           ,           ,           ,0                     ,000000                     ,                 ,                 ,                 ,
000000002,01932-0007,2.4390631759,102.6911543348,30.8232860565,0,0,104.0756495159,28.105 ,-1.897   ,7.573     ,-0.024    ,2021-08-05,02:28:34.800002,1628130514      ,800002               ,0000           ,5A4F           ,1         ,1             ,3.116                ,GPS-3.0       ,5           ,0.132     ,0.127     ,0.287     ,0.803  ,1.785  ,0       ,4                 ,11        ,4             ,0           ,0         ,4          ,           ,           ,           ,           ,           ,           ,           ,           ,           ,           ,0                     ,000000                     ,                 ,                 ,                 ,
000000003,01932-0007,2.4390561542,102.6911817900,30.8408203125,0,0,104.3085862873,28.442 ,-1.987   ,7.647     ,-0.024    ,2021-08-05,02:28:35.200039,1628130515      ,200039               ,0000           ,5A4F           ,1         ,1             ,3.148                ,GPS-3.0       ,5           ,0.132     ,0.128     ,0.288     ,0.803  ,1.785  ,0       ,4                 ,11        ,4             ,0           ,0         ,4          ,           ,           ,           ,           ,           ,           ,           ,           ,           ,           ,0                     ,000000                     ,                 ,                 ,                 ,
000000004,01932-0007,2.4390489093,102.6912094709,30.8194065094,0,0,104.5937671757,28.631 ,-1.972   ,7.705     ,0.027     ,2021-08-05,02:28:35.600003,1628130515      ,600003               ,0000           ,5A4F           ,1         ,1             ,3.179                ,GPS-3.0       ,5           ,0.133     ,0.128     ,0.289     ,0.915  ,2.039  ,0       ,4                 ,11        ,4             ,0           ,0         ,4          ,           ,           ,           ,           ,           ,           ,           ,           ,           ,           ,0                     ,000000                     ,                 ,                 ,                 ,
000000005,01932-0007,2.4390413552,102.6912374380,30.8091716766,0,0,104.7299338270,28.918 ,-2.057   ,7.765     ,0.014     ,2021-08-05,02:28:36.000018,1628130516      ,000018               ,0000           ,5A4F           ,1         ,1             ,3.219                ,GPS-3.0       ,5           ,0.133     ,0.129     ,0.290     ,0.803  ,1.785  ,0       ,4                 ,11        ,4             ,0           ,0         ,4          ,           ,           ,           ,           ,           ,           ,           ,           ,           ,           ,0                     ,000000                     ,                 ,                 ,                 ,
000000006,01932-0007,2.4390338309,102.6912655924,30.8305015564,0,0,104.8210895317,29.151 ,-2.127   ,7.813     ,-0.028    ,2021-08-05,02:28:36.400158,1628130516      ,400158               ,0000           ,5A4F           ,1         ,1             ,3.238                ,GPS-3.0       ,5           ,0.134     ,0.129     ,0.291     ,0.803  ,1.785  ,0       ,4                 ,11        ,4             ,0           ,0         ,4          ,           ,           ,           ,           ,           ,           ,           ,           ,           ,           ,0                     ,000000                     ,                 ,                 ,                 ,
000000007,01932-0007,2.4390263964,102.6912938809,30.8681297302,0,0,104.7835166611,29.222 ,-1.843   ,7.905     ,-0.079    ,2021-08-05,02:28:36.800002,1628130516      ,800002               ,0000           ,5A4F           ,1         ,1             ,3.250                ,GPS-3.0       ,5           ,0.134     ,0.130     ,0.292     ,0.803  ,1.785  ,0       ,4                 ,11        ,4             ,0           ,0         ,4          ,           ,           ,           ,           ,           ,           ,           ,           ,           ,           ,0                     ,000000                     ,                 ,                 ,                 ,
000000008,01932-0007,2.4390190148,102.6913227890,30.9116020203,0,0,104.6492009910,29.814 ,-2.178   ,7.990     ,-0.082    ,2021-08-05,02:28:37.200003,1628130517      ,200003               ,0000           ,5A4F           ,1         ,1             ,3.315                ,GPS-3.0       ,5           ,0.135     ,0.130     ,0.293     ,0.803  ,1.785  ,0       ,4                 ,11        ,4             ,0           ,0         ,4          ,           ,           ,           ,           ,           ,           ,           ,           ,           ,           ,0                     ,000000                     ,                 ,                 ,                 ,
000000009,01932-0007,2.4390114528,102.6913518521,30.9541664124,0,0,104.5300824919,29.847 ,-2.094   ,8.022     ,-0.073    ,2021-08-05,02:28:37.600039,1628130517      ,600039               ,0000           ,5A4F           ,1         ,1             ,3.336                ,GPS-3.0       ,5           ,0.135     ,0.130     ,0.293     ,0.803  ,1.785  ,0       ,4                 ,11        ,4             ,0           ,0         ,4          ,           ,           ,           ,           ,           ,           ,           ,           ,           ,           ,0                     ,000000                     ,                 ,                 ,                 ,
000000010,01932-0007,2.4390037264,102.6913810989,30.9627094269,0,0,104.6962063529,30.489 ,-2.109   ,8.203     ,-0.106    ,2021-08-05,02:28:38.000010,1628130518      ,000010               ,0000           ,5A4F           ,1         ,1             ,3.361                ,GPS-3.0       ,5           ,0.135     ,0.131     ,0.294     ,0.803  ,1.785  ,0       ,4                 ,11        ,4             ,0           ,0         ,4          ,           ,           ,           ,           ,           ,           ,           ,           ,           ,           ,0                     ,000000                     ,                 ,                 ,                 ,
000000011,01932-0007,2.4389955743,102.6914103546,31.0089340210,0,0,105.4367218023,30.016 ,-2.414   ,7.981     ,-0.064    ,2021-08-05,02:28:38.400091,1628130518      ,400091               ,0000           ,5A4F           ,1         ,1             ,3.374                ,GPS-3.0       ,5           ,0.135     ,0.131     ,0.295     ,0.803  ,1.785  ,0       ,4                 ,11        ,4             ,0           ,0         ,4          ,           ,           ,           ,           ,           ,           ,           ,           ,           ,           ,0                     ,000000                     ,                 ,                 ,                 ,
000000012,01932-0007,2.4389869747,102.6914398800,31.0882663727,0,0,106.2283134064,30.907 ,-2.446   ,8.230     ,-0.152    ,2021-08-05,02:28:38.800003,1628130518      ,800003               ,0000           ,5A6F           ,1         ,1             ,3.417                ,GPS-3.0       ,5           ,0.136     ,0.132     ,0.296     ,1.761  ,2.943  ,0       ,6                 ,11        ,4             ,0           ,0         ,4          ,           ,           ,           ,           ,           ,           ,           ,           ,           ,           ,0                     ,000000                     ,                 ,                 ,                 ,
000000013,01932-0007,2.4389782019,102.6914691890,31.1515178680,0,0,106.4707782917,30.621 ,-2.467   ,8.140     ,-0.209    ,2021-08-05,02:28:39.200002,1628130519      ,200002               ,0000           ,5A4F           ,1         ,1             ,3.399                ,GPS-3.0       ,5           ,0.136     ,0.132     ,0.297     ,0.803  ,1.785  ,0       ,4                 ,11        ,4             ,0           ,0         ,4          ,           ,           ,           ,           ,           ,           ,           ,           ,           ,           ,0                     ,000000                     ,                 ,                 ,                 ,
000000014,01932-0007,2.4389697253,102.6914979568,31.2362461090,0,0,105.9236459883,29.838 ,-2.433   ,7.923     ,-0.212    ,2021-08-05,02:28:39.600248,1628130519      ,600248               ,0000           ,5A4F           ,1         ,1             ,3.332                ,GPS-3.0       ,5           ,0.137     ,0.133     ,0.298     ,0.803  ,1.785  ,0       ,4                 ,11        ,4             ,0           ,0         ,4          ,           ,           ,           ,           ,           ,           ,           ,           ,           ,           ,0                     ,000000                     ,                 ,                 ,                 ,
000000015,01932-0007,2.4389613317,102.6915265092,31.3270664215,0,0,105.4595961059,29.818 ,-2.156   ,7.997     ,-0.125    ,2021-08-05,02:28:40.000011,1628130520      ,000011               ,0000           ,5A4F           ,1         ,1             ,3.306                ,GPS-3.0       ,5           ,0.137     ,0.133     ,0.299     ,0.803  ,1.785  ,0       ,4                 ,11        ,4             ,0           ,0         ,4          ,           ,           ,           ,           ,           ,           ,           ,           ,           ,           ,0                     ,000000                     ,                 ,                 ,                 ,
000000016,01932-0007,2.4389533920,102.6915550225,31.3834972382,0,0,105.4581549359,29.719 ,-2.215   ,7.952     ,-0.129    ,2021-08-05,02:28:40.400019,1628130520      ,400019               ,0000           ,5A4F           ,1         ,1             ,3.288                ,GPS-3.0       ,5           ,0.138     ,0.133     ,0.299     ,0.803  ,1.785  ,0       ,4                 ,11        ,4             ,0           ,0         ,4          ,           ,           ,           ,           ,           ,           ,           ,           ,           ,           ,0                     ,000000                     ,                 ,                 ,                 ,
000000017,01932-0007,2.4389450487,102.6915839315,31.4399356842,0,0,105.7169234828,30.539 ,-2.304   ,8.164     ,-0.116    ,2021-08-05,02:28:40.800003,1628130520      ,800003               ,0000           ,5A4F           ,1         ,1             ,3.343                ,GPS-3.0       ,5           ,0.139     ,0.134     ,0.300     ,0.900  ,1.853  ,0       ,4                 ,11        ,4             ,0           ,0         ,4          ,           ,           ,           ,           ,           ,           ,           ,           ,           ,           ,0                     ,000000                     ,                 ,                 ,                 ,
000000018,01932-0007,2.4389367285,102.6916133224,31.4946441650,0,0,105.5642960756,30.677 ,-2.282   ,8.210     ,-0.122    ,2021-08-05,02:28:41.200003,1628130521      ,200003               ,0000           ,5A4F           ,1         ,1             ,3.394                ,GPS-3.0       ,5           ,0.139     ,0.134     ,0.301     ,0.803  ,1.785  ,0       ,4                 ,11        ,4             ,0           ,0         ,4          ,           ,           ,           ,           ,           ,           ,           ,           ,           ,           ,0                     ,000000                     ,                 ,                 ,                 ,
000000019,01932-0007,2.4389285180,102.6916430228,31.5523109436,0,0,105.3005893020,30.553 ,-2.272   ,8.177     ,-0.155    ,2021-08-05,02:28:41.600176,1628130521      ,600176               ,0000           ,5A4F           ,1         ,1             ,3.424                ,GPS-3.0       ,5           ,0.139     ,0.135     ,0.302     ,0.803  ,1.785  ,0       ,4                 ,11        ,4             ,0           ,0         ,4          ,           ,           ,           ,           ,           ,           ,           ,           ,           ,           ,0                     ,000000                     ,                 ,                 ,                 ,
000000020,01932-0007,2.4389206289,102.6916724794,31.6328430176,0,0,104.7706144337,30.006 ,-2.116   ,8.062     ,-0.194    ,2021-08-05,02:28:42.000010,1628130522      ,000010               ,0000           ,5A4F           ,1         ,1             ,3.388                ,GPS-3.0       ,5           ,0.139     ,0.135     ,0.303     ,0.803  ,1.785  ,0       ,4                 ,11        ,4             ,0           ,0         ,4          ,           ,           ,           ,           ,           ,           ,           ,           ,           ,           ,0                     ,000000                     ,                 ,                 ,                 ,
000000021,01932-0007,2.4389130653,102.6917016936,31.7320079803,0,0,104.4318165603,29.854 ,-2.016   ,8.044     ,-0.213    ,2021-08-05,02:28:42.400003,1628130522      ,400003               ,0000           ,5A4F           ,1         ,1             ,3.353                ,GPS-3.0       ,5           ,0.139     ,0.135     ,0.303     ,0.803  ,1.785  ,0       ,4                 ,11        ,4             ,0           ,0         ,4          ,           ,           ,           ,           ,           ,           ,           ,           ,           ,           ,0                     ,000000                     ,                 ,                 ,                 ,
000000022,01932-0007,2.4389055690,102.6917303759,31.8074684143,0,0,104.3121516461,29.248 ,-2.069   ,7.857     ,-0.151    ,2021-08-05,02:28:42.800012,1628130522      ,800012               ,0000           ,5A4F           ,1         ,1             ,3.294                ,GPS-3.0       ,5           ,0.139     ,0.135     ,0.304     ,0.803  ,1.785  ,0       ,4                 ,11        ,4             ,0           ,0         ,4          ,           ,           ,           ,           ,           ,           ,           ,           ,           ,           ,0                     ,000000                     ,                 ,                 ,                 ,
000000023,01932-0007,2.4388982380,102.6917583981,31.8827571869,0,0,104.2243563945,28.514 ,-2.149   ,7.623     ,-0.181    ,2021-08-05,02:28:43.200003,1628130523      ,200003               ,0000           ,5A4F           ,1         ,1             ,3.218                ,GPS-3.0       ,5           ,0.139     ,0.135     ,0.304     ,0.803  ,1.785  ,0       ,4                 ,11        ,4             ,0           ,0         ,4          ,           ,           ,           ,           ,           ,           ,           ,           ,           ,           ,0                     ,000000                     ,                 ,                 ,                 ,
000000024,01932-0007,2.4388913879,102.6917860048,31.9726581573,0,0,104.1981557888,27.920 ,-2.038   ,7.483     ,-0.190    ,2021-08-05,02:28:43.600107,1628130523      ,600107               ,0000           ,5A4F           ,1         ,1             ,3.160                ,GPS-3.0       ,5           ,0.139     ,0.136     ,0.305     ,0.803  ,1.785  ,0       ,4                 ,11        ,4             ,0           ,0         ,4          ,           ,           ,           ,           ,           ,           ,           ,           ,           ,           ,0                     ,000000                     ,                 ,                 ,                 ,
000000025,01932-0007,2.4388846582,102.6918129644,32.0956039429,0,0,104.2943248523,27.743 ,-1.907   ,7.467     ,-0.229    ,2021-08-05,02:28:44.000010,1628130524      ,000010               ,0000           ,5A4F           ,1         ,1             ,3.087                ,GPS-3.0       ,5           ,0.139     ,0.135     ,0.304     ,0.803  ,1.785  ,0       ,4                 ,11        ,4             ,0           ,0         ,4          ,           ,           ,           ,           ,           ,           ,           ,           ,           ,           ,0                     ,000000                     ,                 ,                 ,                 ,
000000026,01932-0007,2.4388778838,102.6918398117,32.2266387939,0,0,104.4425194667,27.655 ,-1.846   ,7.457     ,-0.234    ,2021-08-05,02:28:44.400002,1628130524      ,400002               ,0000           ,5A4F           ,1         ,1             ,3.076                ,GPS-3.0       ,5           ,0.139     ,0.135     ,0.304     ,0.803  ,1.785  ,0       ,4                 ,11        ,4             ,0           ,0         ,4          ,           ,           ,           ,           ,           ,           ,           ,           ,           ,           ,0                     ,000000                     ,                 ,                 ,                 ,
000000027,01932-0007,2.4388709720,102.6918666859,32.3454093933,0,0,104.6210606116,27.834 ,-1.849   ,7.507     ,-0.225    ,2021-08-05,02:28:44.800263,1628130524      ,800263               ,0000           ,5A4F           ,1         ,1             ,3.083                ,GPS-3.0       ,5           ,0.138     ,0.135     ,0.303     ,0.803  ,1.785  ,0       ,4                 ,11        ,4             ,0           ,0         ,4          ,           ,           ,           ,           ,           ,           ,           ,           ,           ,           ,0                     ,000000                     ,                 ,                 ,                 ,
000000028,01932-0007,2.4388637035,102.6918932800,32.4464302063,0,0,104.8161034936,27.705 ,-2.036   ,7.422     ,-0.227    ,2021-08-05,02:28:45.200002,1628130525      ,200002               ,0000           ,5A4F           ,1         ,1             ,3.063                ,GPS-3.0       ,5           ,0.138     ,0.134     ,0.303     ,0.803  ,1.785  ,0       ,4                 ,11        ,4             ,0           ,0         ,4          ,           ,           ,           ,           ,           ,           ,           ,           ,           ,           ,0                     ,000000                     ,                 ,                 ,                 ,
000000029,01932-0007,2.4388564755,102.6919198255,32.5558624268,0,0,105.0382690567,27.544 ,-1.871   ,7.419     ,-0.210    ,2021-08-05,02:28:45.600050,1628130525      ,600050               ,0000           ,5A6F           ,1         ,1             ,3.057                ,GPS-3.0       ,5           ,0.138     ,0.135     ,0.303     ,1.270  ,2.256  ,0       ,6                 ,11        ,4             ,0           ,0         ,4          ,           ,           ,           ,           ,           ,           ,           ,           ,           ,           ,0                     ,000000                     ,                 ,                 ,                 ,
000000030,01932-0007,2.4388494415,102.6919464578,32.6513710022,0,0,105.0582405298,27.151 ,-1.899   ,7.299     ,-0.132    ,2021-08-05,02:28:46.000011,1628130526      ,000011               ,0000           ,5A6F           ,1         ,1             ,3.060                ,GPS-3.0       ,5           ,0.138     ,0.136     ,0.303     ,1.270  ,2.256  ,0       ,6                 ,11        ,4             ,0           ,0         ,4          ,           ,           ,           ,           ,           ,           ,           ,           ,           ,           ,0                     ,000000                     ,                 ,                 ,                 ,
000000031,01932-0007,2.4388423881,102.6919729637,32.7485237122,0,0,105.0959363439,27.443 ,-1.950   ,7.369     ,-0.193    ,2021-08-05,02:28:46.400003,1628130526      ,400003               ,0000           ,5A6F           ,1         ,1             ,3.047                ,GPS-3.0       ,5           ,0.139     ,0.136     ,0.303     ,1.449  ,2.413  ,0       ,6                 ,11        ,4             ,0           ,0         ,4          ,           ,           ,           ,           ,           ,           ,           ,           ,           ,           ,0                     ,000000                     ,                 ,                 ,                 ,
000000032,01932-0007,2.4388352174,102.6919994673,32.8604469299,0,0,105.1622916317,27.232 ,-1.903   ,7.321     ,-0.179    ,2021-08-05,02:28:46.800203,1628130526      ,800203               ,0000           ,5A6F           ,1         ,1             ,3.050                ,GPS-3.0       ,5           ,0.139     ,0.136     ,0.301     ,1.449  ,2.413  ,0       ,6                 ,11        ,4             ,0           ,0         ,4          ,           ,           ,           ,           ,           ,           ,           ,           ,           ,           ,0                     ,000000                     ,                 ,                 ,                 ,
000000033,01932-0007,2.4388281813,102.6920259844,32.9583930969,0,0,105.1698731416,27.447 ,-1.909   ,7.381     ,-0.171    ,2021-08-05,02:28:47.200004,1628130527      ,200004               ,0000           ,5A6F           ,1         ,1             ,3.048                ,GPS-3.0       ,5           ,0.139     ,0.137     ,0.300     ,1.449  ,2.413  ,0       ,6                 ,11        ,4             ,0           ,0         ,4          ,           ,           ,           ,           ,           ,           ,           ,           ,           ,           ,0                     ,000000                     ,                 ,                 ,                 ,
000000034,01932-0007,2.4388210325,102.6920524923,33.0658683777,0,0,105.1225399307,27.409 ,-2.123   ,7.312     ,-0.166    ,2021-08-05,02:28:47.600002,1628130527      ,600002               ,0000           ,5A6F           ,1         ,1             ,3.050                ,GPS-3.0       ,5           ,0.139     ,0.137     ,0.297     ,1.721  ,4.015  ,0       ,6                 ,11        ,4             ,0           ,0         ,4          ,           ,           ,           ,           ,           ,           ,           ,           ,           ,           ,0                     ,000000                     ,                 ,                 ,                 ,
000000035,01932-0007,2.4388139405,102.6920789079,33.1681709290,0,0,105.0717164931,27.011 ,-1.884   ,7.263     ,-0.157    ,2021-08-05,02:28:48.000010,1628130528      ,000010               ,0000           ,5A6F           ,1         ,1             ,3.039                ,GPS-3.0       ,5           ,0.139     ,0.138     ,0.293     ,1.721  ,4.015  ,0       ,6                 ,11        ,4             ,0           ,0         ,4          ,           ,           ,           ,           ,           ,           ,           ,           ,           ,           ,0                     ,000000                     ,                 ,                 ,                 ,
000000036,01932-0007,2.4388069259,102.6921054864,33.2944335938,0,0,105.0950074382,27.618 ,-1.879   ,7.438     ,-0.189    ,2021-08-05,02:28:48.400003,1628130528      ,400003               ,0000           ,5A4F           ,1         ,1             ,3.054                ,GPS-3.0       ,5           ,0.138     ,0.138     ,0.291     ,1.721  ,4.016  ,0       ,4                 ,11        ,4             ,0           ,0         ,4          ,           ,           ,           ,           ,           ,           ,           ,           ,           ,           ,0                     ,000000                     ,                 ,                 ,                 ,
000000037,01932-0007,2.4387996423,102.6921321169,33.3423004150,0,0,104.9622968626,27.276 ,-1.994   ,7.310     ,-0.122    ,2021-08-05,02:28:48.800136,1628130528      ,800136               ,0000           ,5A4F           ,1         ,1             ,3.067                ,GPS-3.0       ,5           ,0.138     ,0.137     ,0.292     ,0.803  ,1.785  ,0       ,4                 ,11        ,4             ,0           ,0         ,4          ,           ,           ,           ,           ,           ,           ,           ,           ,           ,           ,0                     ,000000                     ,                 ,                 ,                 ,
000000038,01932-0007,2.4387924374,102.6921585817,33.3984565735,0,0,104.7785647739,27.357 ,-1.955   ,7.343     ,-0.145    ,2021-08-05,02:28:49.200005,1628130529      ,200005               ,0000           ,5A4F           ,1         ,1             ,3.047                ,GPS-3.0       ,5           ,0.138     ,0.138     ,0.293     ,0.916  ,2.043  ,0       ,4                 ,11        ,4             ,0           ,0         ,4          ,           ,           ,           ,           ,           ,           ,           ,           ,           ,           ,0                     ,000000                     ,                 ,                 ,                 ,
000000039,01932-0007,2.4387854373,102.6921851051,33.4564018250,0,0,104.5828183825,26.933 ,-1.898   ,7.237     ,-0.155    ,2021-08-05,02:28:49.600003,1628130529      ,600003               ,0000           ,5A4F           ,1         ,1             ,3.048                ,GPS-3.0       ,5           ,0.138     ,0.138     ,0.294     ,0.803  ,1.785  ,0       ,4                 ,11        ,4             ,0           ,0         ,4          ,           ,           ,           ,           ,           ,           ,           ,           ,           ,           ,0                     ,000000                     ,                 ,                 ,                 ,
000000040,01932-0007,2.4387786396,102.6922112710,33.5338973999,0,0,104.5617609093,26.796 ,-1.883   ,7.201     ,-0.190    ,2021-08-05,02:28:50.000286,1628130530      ,000286               ,0000           ,5A4F           ,1         ,1             ,3.004                ,GPS-3.0       ,5           ,0.138     ,0.138     ,0.294     ,0.803  ,1.785  ,0       ,4                 ,11        ,4             ,0           ,0         ,4          ,           ,           ,           ,           ,           ,           ,           ,           ,           ,           ,0                     ,000000                     ,                 ,                 ,                 ,
000000041,01932-0007,2.4387707357,102.6922402343,33.5415725708,0,0,104.7043137874,26.348 ,-1.966   ,7.050     ,-0.081    ,2021-08-05,02:28:50.450213,1628130530      ,450213               ,0000           ,5A4F           ,1         ,1             ,3.336                ,GPS-3.0       ,5           ,0.138     ,0.138     ,0.295     ,0.803  ,1.786  ,0       ,4                 ,11        ,4             ,0           ,0         ,4          ,           ,           ,           ,           ,           ,           ,           ,           ,           ,           ,0                     ,000000                     ,                 ,                 ,                 ,
000000042,01932-0007,2.4387629886,102.6922685746,33.5724525452,0,0,104.8280973058,26.038 ,-1.901   ,6.978     ,-0.018    ,2021-08-05,02:28:50.900153,1628130530      ,900153               ,0000           ,5A6F           ,1         ,1             ,3.264                ,GPS-3.0       ,5           ,0.138     ,0.139     ,0.296     ,0.803  ,1.786  ,0       ,6                 ,11        ,4             ,0           ,0         ,4          ,           ,           ,           ,           ,           ,           ,           ,           ,           ,           ,0                     ,000000                     ,                 ,                 ,                 ,
000000043,01932-0007,2.4387554503,102.6922964467,33.5986862183,0,0,104.9308233509,25.518 ,-1.849   ,6.843     ,0.047     ,2021-08-05,02:28:51.350093,1628130531      ,350093               ,0000           ,5A6F           ,1         ,1             ,3.208                ,GPS-3.0       ,5           ,0.139     ,0.139     ,0.296     ,1.539  ,2.912  ,0       ,6                 ,11        ,4             ,0           ,0         ,4          ,           ,           ,           ,           ,           ,           ,           ,           ,           ,           ,0                     ,000000                     ,                 ,                 ,                 ,
000000044,01932-0007,2.4387478872,102.6923243194,33.6037712097,0,0,105.0599139262,25.466 ,-1.836   ,6.831     ,0.118     ,2021-08-05,02:28:51.800044,1628130531      ,800044               ,0000           ,5A4F           ,1         ,1             ,3.209                ,GPS-3.0       ,5           ,0.138     ,0.139     ,0.296     ,0.803  ,1.786  ,0       ,4                 ,11        ,4             ,0           ,0         ,4          ,           ,           ,           ,           ,           ,           ,           ,           ,           ,           ,0                     ,000000                     ,                 ,                 ,                 ,
000000045,01932-0007,2.4387404352,102.6923517778,33.5997619629,0,0,105.1388094413,25.517 ,-1.804   ,6.855     ,0.059     ,2021-08-05,02:28:52.249996,1628130532      ,249996               ,0000           ,5A4F           ,1         ,1             ,3.161                ,GPS-3.0       ,5           ,0.138     ,0.139     ,0.296     ,0.803  ,1.786  ,0       ,4                 ,11        ,4             ,0           ,0         ,4          ,           ,           ,           ,           ,           ,           ,           ,           ,           ,           ,0                     ,000000                     ,                 ,                 ,                 ,
000000046,01932-0007,2.4387331550,102.6923794583,33.5971641541,0,0,104.9978138463,25.067 ,-1.819   ,6.721     ,0.102     ,2021-08-05,02:28:52.700000,1628130532      ,700000               ,0000           ,5A6F           ,1         ,1             ,3.180                ,GPS-3.0       ,5           ,0.139     ,0.139     ,0.296     ,0.803  ,1.786  ,0       ,6                 ,11        ,4             ,0           ,0         ,4          ,           ,           ,           ,           ,           ,           ,           ,           ,           ,           ,0                     ,000000                     ,                 ,                 ,                 ,
000000047,01932-0007,2.4387258108,102.6924068040,33.5853080750,0,0,104.9023004809,24.929 ,-1.738   ,6.703     ,0.064     ,2021-08-05,02:28:53.149996,1628130533      ,149996               ,0000           ,5A6F           ,1         ,1             ,3.146                ,GPS-3.0       ,5           ,0.139     ,0.140     ,0.296     ,1.539  ,2.913  ,0       ,6                 ,11        ,4             ,0           ,0         ,4          ,           ,           ,           ,           ,           ,           ,           ,           ,           ,           ,0                     ,000000                     ,                 ,                 ,                 ,
000000048,01932-0007,2.4387183419,102.6924342138,33.5574645996,0,0,104.8546599114,24.727 ,-1.788   ,6.632     ,0.067     ,2021-08-05,02:28:53.600003,1628130533      ,600003               ,0000           ,5A6F           ,1         ,1             ,3.156                ,GPS-3.0       ,5           ,0.140     ,0.140     ,0.296     ,1.539  ,2.913  ,0       ,6                 ,11        ,4             ,0           ,0         ,4          ,           ,           ,           ,           ,           ,           ,           ,           ,           ,           ,0                     ,000000                     ,                 ,                 ,                 ,
000000049,01932-0007,2.4387110171,102.6924613559,33.5600738525,0,0,104.7782369248,24.952 ,-1.796   ,6.694     ,0.011     ,2021-08-05,02:28:54.049996,1628130534      ,049996               ,0000           ,5A6F           ,1         ,1             ,3.123                ,GPS-3.0       ,5           ,0.141     ,0.141     ,0.297     ,1.539  ,2.913  ,0       ,6                 ,11        ,4             ,0           ,0         ,4          ,           ,           ,           ,           ,           ,           ,           ,           ,           ,           ,0                     ,000000                     ,                 ,                 ,                 ,
000000050,01932-0007,2.4387036531,102.6924885649,33.5536346436,0,0,104.7350291481,24.627 ,-1.759   ,6.611     ,0.042     ,2021-08-05,02:28:54.500000,1628130534      ,500000               ,0000           ,5A6F           ,1         ,1             ,3.132                ,GPS-3.0       ,5           ,0.141     ,0.142     ,0.297     ,1.539  ,2.913  ,0       ,6                 ,11        ,4             ,0           ,0         ,4          ,           ,           ,           ,           ,           ,           ,           ,           ,           ,           ,0                     ,000000                     ,                 ,                 ,                 ,
000000051,01932-0007,2.4386965976,102.6925156487,33.5607490540,0,0,104.6578753313,24.834 ,-1.629   ,6.703     ,0.006     ,2021-08-05,02:28:54.949996,1628130534      ,949996               ,0000           ,5A6F           ,1         ,1             ,3.109                ,GPS-3.0       ,5           ,0.142     ,0.142     ,0.298     ,1.539  ,2.913  ,0       ,6                 ,11        ,4             ,0           ,0         ,4          ,           ,           ,           ,           ,           ,           ,           ,           ,           ,           ,0                     ,000000                     ,                 ,                 ,                 ,
000000052,01932-0007,2.4386897168,102.6925428432,33.5665283203,0,0,104.5418304173,24.690 ,-1.725   ,6.638     ,0.049     ,2021-08-05,02:28:55.400002,1628130535      ,400002               ,0000           ,5A4F           ,1         ,1             ,3.117                ,GPS-3.0       ,5           ,0.142     ,0.143     ,0.298     ,0.803  ,1.786  ,0       ,4                 ,11        ,4             ,0           ,0         ,4          ,           ,           ,           ,           ,           ,           ,           ,           ,           ,           ,0                     ,000000                     ,                 ,                 ,                 ,
000000053,01932-0007,2.4386828374,102.6925698801,33.5761260986,0,0,104.6174815925,24.670 ,-1.739   ,6.628     ,0.048     ,2021-08-05,02:28:55.849996,1628130535      ,849996               ,0000           ,5A4F           ,1         ,1             ,3.100                ,GPS-3.0       ,5           ,0.142     ,0.142     ,0.298     ,0.803  ,1.786  ,0       ,4                 ,11        ,4             ,0           ,0         ,4          ,           ,           ,           ,           ,           ,           ,           ,           ,           ,           ,0                     ,000000                     ,                 ,                 ,                 ,
000000054,01932-0007,2.4386757960,102.6925968849,33.5904312134,0,0,104.5315031712,25.069 ,-1.637   ,6.768     ,0.019     ,2021-08-05,02:28:56.300000,1628130536      ,300000               ,0000           ,5A4F           ,1         ,1             ,3.101                ,GPS-3.0       ,5           ,0.142     ,0.143     ,0.298     ,0.803  ,1.786  ,0       ,4                 ,11        ,4             ,0           ,0         ,4          ,           ,           ,           ,           ,           ,           ,           ,           ,           ,           ,0                     ,000000                     ,                 ,                 ,                 ,
000000055,01932-0007,2.4386688012,102.6926240645,33.5843887329,0,0,104.3999537278,24.812 ,-1.596   ,6.705     ,0.105     ,2021-08-05,02:28:56.750023,1628130536      ,750023               ,0000           ,5A4F           ,1         ,1             ,3.118                ,GPS-3.0       ,5           ,0.142     ,0.142     ,0.297     ,0.803  ,1.786  ,0       ,4                 ,11        ,4             ,0           ,0         ,4          ,           ,           ,           ,           ,           ,           ,           ,           ,           ,           ,0                     ,000000                     ,                 ,                 ,                 ,
000000056,01932-0007,2.4386618279,102.6926512231,33.5634422302,0,0,104.2744011905,24.825 ,-1.670   ,6.690     ,0.125     ,2021-08-05,02:28:57.200234,1628130537      ,200234               ,0000           ,5A4F           ,1         ,1             ,3.115                ,GPS-3.0       ,5           ,0.142     ,0.142     ,0.297     ,0.803  ,1.786  ,0       ,4                 ,11        ,4             ,0           ,0         ,4          ,           ,           ,           ,           ,           ,           ,           ,           ,           ,           ,0                     ,000000                     ,                 ,                 ,                 ,
000000057,01932-0007,2.4386549718,102.6926783923,33.5280303955,0,0,104.2217814131,24.512 ,-1.627   ,6.612     ,0.153     ,2021-08-05,02:28:57.650165,1628130537      ,650165               ,0000           ,5A6F           ,1         ,1             ,3.113                ,GPS-3.0       ,5           ,0.141     ,0.142     ,0.296     ,1.541  ,2.917  ,0       ,6                 ,11        ,4             ,0           ,0         ,4          ,           ,           ,           ,           ,           ,           ,           ,           ,           ,           ,0                     ,000000                     ,                 ,                 ,                 ,
000000058,01932-0007,2.4386481680,102.6927056658,33.4851150513,0,0,104.3087843628,24.867 ,-1.643   ,6.709     ,0.116     ,2021-08-05,02:28:58.100101,1628130538      ,100101               ,0000           ,5A6F           ,1         ,1             ,3.123                ,GPS-3.0       ,5           ,0.141     ,0.143     ,0.295     ,1.541  ,2.917  ,0       ,6                 ,11        ,4             ,0           ,0         ,4          ,           ,           ,           ,           ,           ,           ,           ,           ,           ,           ,0                     ,000000                     ,                 ,                 ,                 ,
000000059,01932-0007,2.4386414879,102.6927325486,33.4999351501,0,0,104.1514031439,25.217 ,-1.782   ,6.774     ,-0.003    ,2021-08-05,02:28:58.550065,1628130538      ,550065               ,0000           ,5A6F           ,1         ,1             ,3.078                ,GPS-3.0       ,5           ,0.140     ,0.144     ,0.294     ,1.769  ,2.961  ,0       ,6                 ,11        ,4             ,0           ,0         ,4          ,           ,           ,           ,           ,           ,           ,           ,           ,           ,           ,0                     ,000000                     ,                 ,                 ,                 ,
000000060,01932-0007,2.4386344857,102.6927605104,33.5128669739,0,0,104.0276469464,25.421 ,-1.804   ,6.827     ,0.085     ,2021-08-05,02:28:59.000010,1628130539      ,000010               ,0000           ,5A6F           ,1         ,1             ,3.202                ,GPS-3.0       ,5           ,0.140     ,0.144     ,0.294     ,1.769  ,2.961  ,0       ,6                 ,11        ,4             ,0           ,0         ,4          ,           ,           ,           ,           ,           ,           ,           ,           ,           ,           ,0                     ,000000                     ,                 ,                 ,                 ,
000000061,01932-0007,2.4386275320,102.6927887796,33.5241966248,0,0,103.9208705991,26.108 ,-1.751   ,7.038     ,0.068     ,2021-08-05,02:28:59.449996,1628130539      ,449996               ,0000           ,5A6F           ,1         ,1             ,3.234                ,GPS-3.0       ,5           ,0.139     ,0.145     ,0.293     ,1.770  ,2.962  ,0       ,6                 ,11        ,4             ,0           ,0         ,4          ,           ,           ,           ,           ,           ,           ,           ,           ,           ,           ,0                     ,000000                     ,                 ,                 ,                 ,
000000062,01932-0007,2.4386204957,102.6928172428,33.5309944153,0,0,103.8677522179,26.172 ,-1.709   ,7.066     ,0.003     ,2021-08-05,02:28:59.900000,1628130539      ,900000               ,0000           ,5A6F           ,1         ,1             ,3.257                ,GPS-3.0       ,5           ,0.139     ,0.145     ,0.292     ,1.770  ,2.962  ,0       ,6                 ,11        ,4             ,0           ,0         ,4          ,           ,           ,           ,           ,           ,           ,           ,           ,           ,           ,0                     ,000000                     ,                 ,                 ,                 ,
000000063,01932-0007,2.4386134301,102.6928455373,33.5831451416,0,0,103.8190119880,25.785 ,-1.591   ,6.983     ,-0.078    ,2021-08-05,02:29:00.349995,1628130540      ,349995               ,0000           ,5A4F           ,1         ,1             ,3.240                ,GPS-3.0       ,5           ,0.138     ,0.145     ,0.291     ,1.770  ,2.962  ,0       ,4                 ,11        ,4             ,0           ,0         ,4          ,           ,           ,           ,           ,           ,           ,           ,           ,           ,           ,0                     ,000000                     ,                 ,                 ,                 ,
000000064,01932-0007,2.4386063746,102.6928740172,33.5907249451,0,0,104.0988243477,25.352 ,-1.847   ,6.795     ,0.042     ,2021-08-05,02:29:00.800001,1628130540      ,800001               ,0000           ,5A4F           ,1         ,1             ,3.260                ,GPS-3.0       ,5           ,0.139     ,0.146     ,0.292     ,0.804  ,1.786  ,0       ,4                 ,11        ,4             ,0           ,0         ,4          ,           ,           ,           ,           ,           ,           ,           ,           ,           ,           ,0                     ,000000                     ,                 ,                 ,                 ,
000000065,01932-0007,2.4385991460,102.6929019948,33.5914688110,0,0,104.3125477970,25.547 ,-1.817   ,6.860     ,0.098     ,2021-08-05,02:29:01.249995,1628130541      ,249995               ,0000           ,5A4F           ,1         ,1             ,3.210                ,GPS-3.0       ,5           ,0.139     ,0.146     ,0.293     ,0.804  ,1.786  ,0       ,4                 ,11        ,4             ,0           ,0         ,4          ,           ,           ,           ,           ,           ,           ,           ,           ,           ,           ,0                     ,000000                     ,                 ,                 ,                 ,
000000066,01932-0007,2.4385918917,102.6929300195,33.5867347717,0,0,104.4462214293,26.235 ,-1.705   ,7.085     ,0.044     ,2021-08-05,02:29:01.699999,1628130541      ,699999               ,0000           ,5A4F           ,1         ,1             ,3.216                ,GPS-3.0       ,5           ,0.139     ,0.146     ,0.293     ,0.804  ,1.786  ,0       ,4                 ,11        ,4             ,0           ,0         ,4          ,           ,           ,           ,           ,           ,           ,           ,           ,           ,           ,0                     ,000000                     ,                 ,                 ,                 ,
000000067,01932-0007,2.4385844406,102.6929586784,33.5594253540,0,0,104.6976816738,26.124 ,-1.786   ,7.033     ,0.143     ,2021-08-05,02:29:02.149996,1628130542      ,149996               ,0000           ,5A4F           ,1         ,1             ,3.290                ,GPS-3.0       ,5           ,0.139     ,0.146     ,0.293     ,0.804  ,1.786  ,0       ,4                 ,11        ,4             ,0           ,0         ,4          ,           ,           ,           ,           ,           ,           ,           ,           ,           ,           ,0                     ,000000                     ,                 ,                 ,                 ,
000000068,01932-0007,2.4385768592,102.6929875936,33.5418930054,0,0,104.8380352310,26.526 ,-1.933   ,7.110     ,0.092     ,2021-08-05,02:29:02.600002,1628130542      ,600002               ,0000           ,5A4F           ,1         ,1             ,3.321                ,GPS-3.0       ,5           ,0.139     ,0.146     ,0.294     ,1.200  ,2.369  ,0       ,4                 ,10        ,4             ,0           ,0         ,4          ,           ,           ,           ,           ,           ,           ,           ,           ,           ,           ,0                     ,000000                     ,                 ,                 ,                 ,
000000069,01932-0007,2.4385687906,102.6930163362,33.5471115112,0,0,104.6923746168,26.625 ,-2.051   ,7.106     ,0.008     ,2021-08-05,02:29:03.049995,1628130543      ,049995               ,0000           ,5A4F           ,1         ,1             ,3.317                ,GPS-3.0       ,5           ,0.140     ,0.145     ,0.294     ,1.185  ,2.365  ,0       ,4                 ,10        ,4             ,0           ,0         ,4          ,           ,           ,           ,           ,           ,           ,           ,           ,           ,           ,0                     ,000000                     ,                 ,                 ,                 ,
000000070,01932-0007,2.4385606492,102.6930451487,33.5486793518,0,0,104.5375547189,26.167 ,-1.948   ,7.003     ,0.019     ,2021-08-05,02:29:03.500041,1628130543      ,500041               ,0000           ,5A4F           ,1         ,1             ,3.326                ,GPS-3.0       ,5           ,0.140     ,0.145     ,0.294     ,0.935  ,1.852  ,0       ,4                 ,10        ,4             ,0           ,0         ,4          ,           ,           ,           ,           ,           ,           ,           ,           ,           ,           ,0                     ,000000                     ,                 ,                 ,                 ,
000000071,01932-0007,2.4385534023,102.6930736389,33.5982780457,0,0,104.3871881043,26.567 ,-1.786   ,7.160     ,-0.153    ,2021-08-05,02:29:03.950246,1628130543      ,950246               ,0000           ,5A4F           ,1         ,1             ,3.266                ,GPS-3.0       ,5           ,0.141     ,0.146     ,0.295     ,0.960  ,1.856  ,0       ,4                 ,10        ,4             ,0           ,0         ,4          ,           ,           ,           ,           ,           ,           ,           ,           ,           ,           ,0                     ,000000                     ,                 ,                 ,                 ,
000000072,01932-0007,2.4385457302,102.6931027161,33.6453208923,0,0,104.5299322277,26.915 ,-1.938   ,7.221     ,-0.035    ,2021-08-05,02:29:04.400186,1628130544      ,400186               ,0000           ,5A4F           ,1         ,1             ,3.341                ,GPS-3.0       ,5           ,0.142     ,0.146     ,0.296     ,0.945  ,1.878  ,0       ,4                 ,10        ,4             ,0           ,0         ,4          ,           ,           ,           ,           ,           ,           ,           ,           ,           ,           ,0                     ,000000                     ,                 ,                 ,                 ,
000000073,01932-0007,2.4385380963,102.6931320948,33.6969718933,0,0,104.8476931185,27.306 ,-1.959   ,7.327     ,-0.064    ,2021-08-05,02:29:04.850123,1628130544      ,850123               ,0000           ,5A4F           ,1         ,1             ,3.372                ,GPS-3.0       ,5           ,0.142     ,0.146     ,0.297     ,0.841  ,1.795  ,0       ,4                 ,10        ,4             ,0           ,0         ,4          ,           ,           ,           ,           ,           ,           ,           ,           ,           ,           ,0                     ,000000                     ,                 ,                 ,                 ,
000000074,01932-0007,2.4385303879,102.6931615245,33.7951164246,0,0,105.2655982429,27.510 ,-1.920   ,7.397     ,-0.138    ,2021-08-05,02:29:05.300073,1628130545      ,300073               ,0000           ,5A4F           ,1         ,1             ,3.380                ,GPS-3.0       ,5           ,0.143     ,0.147     ,0.297     ,0.804  ,1.786  ,0       ,4                 ,10        ,4             ,0           ,0         ,4          ,           ,           ,           ,           ,           ,           ,           ,           ,           ,           ,0                     ,000000                     ,                 ,                 ,                 ,
000000075,01932-0007,2.4385230216,102.6931879774,33.8312759399,0,0,105.5058091658,27.422 ,-2.091   ,7.325     ,-0.072    ,2021-08-05,02:29:05.699999,1628130545      ,699999               ,0000           ,5A4F           ,1         ,1             ,3.051                ,GPS-3.0       ,5           ,0.144     ,0.147     ,0.298     ,0.804  ,1.786  ,0       ,4                 ,10        ,4             ,0           ,0         ,4          ,           ,           ,           ,           ,           ,           ,           ,           ,           ,           ,0                     ,000000                     ,                 ,                 ,                 ,
000000076,01932-0007,2.4385157144,102.6932146730,33.8357086182,0,0,105.2652840542,27.550 ,-2.003   ,7.386     ,-0.054    ,2021-08-05,02:29:06.099999,1628130546      ,099999               ,0000           ,5A4F           ,1         ,1             ,3.075                ,GPS-3.0       ,5           ,0.144     ,0.147     ,0.299     ,0.922  ,2.129  ,0       ,4                 ,10        ,4             ,0           ,0         ,4          ,           ,           ,           ,           ,           ,           ,           ,           ,           ,           ,0                     ,000000                     ,                 ,                 ,                 ,
000000077,01932-0007,2.4385087018,102.6932415445,33.8206863403,0,0,104.9429127857,27.841 ,-1.946   ,7.485     ,-0.056    ,2021-08-05,02:29:06.500213,1628130546      ,500213               ,0000           ,5A4F           ,1         ,1             ,3.085                ,GPS-3.0       ,5           ,0.145     ,0.147     ,0.300     ,0.869  ,2.060  ,0       ,4                 ,10        ,4             ,0           ,0         ,4          ,           ,           ,           ,           ,           ,           ,           ,           ,           ,           ,0                     ,000000                     ,                 ,                 ,                 ,
000000078,01932-0007,2.4385016711,102.6932686783,33.8432044983,0,0,104.6923131451,28.422 ,-1.895   ,7.664     ,-0.084    ,2021-08-05,02:29:06.900001,1628130546      ,900001               ,0000           ,5A4F           ,1         ,1             ,3.114                ,GPS-3.0       ,5           ,0.145     ,0.148     ,0.301     ,0.869  ,2.060  ,0       ,4                 ,10        ,4             ,0           ,0         ,4          ,           ,           ,           ,           ,           ,           ,           ,           ,           ,           ,0                     ,000000                     ,                 ,                 ,                 ,
000000079,01932-0007,2.4384949005,102.6932963358,33.8277130127,0,0,104.5531821917,28.411 ,-1.864   ,7.669     ,-0.020    ,2021-08-05,02:29:07.300020,1628130547      ,300020               ,0000           ,5A4F           ,1         ,1             ,3.163                ,GPS-3.0       ,5           ,0.146     ,0.148     ,0.302     ,0.869  ,2.060  ,0       ,4                 ,10        ,4             ,0           ,0         ,4          ,           ,           ,           ,           ,           ,           ,           ,           ,           ,           ,0                     ,000000                     ,                 ,                 ,                 ,
000000080,01932-0007,2.4384877070,102.6933241220,33.8572540283,0,0,104.5620136263,28.628 ,-1.918   ,7.718     ,-0.051    ,2021-08-05,02:29:07.699999,1628130547      ,699999               ,0000           ,5A4F           ,1         ,1             ,3.189                ,GPS-3.0       ,5           ,0.146     ,0.148     ,0.303     ,0.869  ,2.060  ,0       ,4                 ,10        ,4             ,0           ,0         ,4          ,           ,           ,           ,           ,           ,           ,           ,           ,           ,           ,0                     ,000000                     ,                 ,                 ,                 ,
000000081,01932-0007,2.4384803952,102.6933518627,33.9038009644,0,0,104.5918410624,28.469 ,-2.033   ,7.642     ,-0.036    ,2021-08-05,02:29:08.099999,1628130548      ,099999               ,0000           ,5A4F           ,1         ,1             ,3.187                ,GPS-3.0       ,5           ,0.147     ,0.149     ,0.304     ,0.869  ,2.060  ,0       ,4                 ,10        ,4             ,0           ,0         ,4          ,           ,           ,           ,           ,           ,           ,           ,           ,           ,           ,0                     ,000000                     ,                 ,                 ,                 ,
000000082,01932-0007,2.4384729447,102.6933795479,33.9384536743,0,0,104.7318872611,28.872 ,-2.083   ,7.745     ,-0.046    ,2021-08-05,02:29:08.500146,1628130548      ,500146               ,0000           ,5A4F           ,1         ,1             ,3.185                ,GPS-3.0       ,5           ,0.148     ,0.149     ,0.305     ,0.869  ,2.059  ,0       ,4                 ,10        ,4             ,0           ,0         ,4          ,           ,           ,           ,           ,           ,           ,           ,           ,           ,           ,0                     ,000000                     ,                 ,                 ,                 ,
000000083,01932-0007,2.4384654014,102.6934072674,33.9784889221,0,0,105.3329712288,29.115 ,-2.083   ,7.815     ,-0.059    ,2021-08-05,02:29:08.900005,1628130548      ,900005               ,0000           ,5A4F           ,1         ,1             ,3.192                ,GPS-3.0       ,5           ,0.149     ,0.150     ,0.307     ,1.011  ,2.160  ,0       ,4                 ,10        ,4             ,0           ,0         ,4          ,           ,           ,           ,           ,           ,           ,           ,           ,           ,           ,0                     ,000000                     ,                 ,                 ,                 ,
000000084,01932-0007,2.4384576324,102.6934346766,33.9989700317,0,0,105.9467661786,29.067 ,-2.121   ,7.791     ,-0.080    ,2021-08-05,02:29:09.299999,1628130549      ,299999               ,0000           ,5A4F           ,1         ,1             ,3.165                ,GPS-3.0       ,5           ,0.149     ,0.151     ,0.308     ,0.804  ,1.786  ,0       ,4                 ,10        ,4             ,0           ,0         ,4          ,           ,           ,           ,           ,           ,           ,           ,           ,           ,           ,0                     ,000000                     ,                 ,                 ,                 ,
000000085,01932-0007,2.4384501252,102.6934632588,34.0680122375,0,0,106.1238320026,29.471 ,-2.182   ,7.890     ,-0.129    ,2021-08-05,02:29:09.700035,1628130549      ,700035               ,0000           ,5A4F           ,1         ,1             ,3.283                ,GPS-3.0       ,5           ,0.150     ,0.152     ,0.309     ,0.853  ,1.852  ,0       ,4                 ,10        ,4             ,0           ,0         ,4          ,           ,           ,           ,           ,           ,           ,           ,           ,           ,           ,0                     ,000000                     ,                 ,                 ,                 ,
000000086,01932-0007,2.4384417614,102.6934916824,34.1024208069,0,0,106.3891507010,29.749 ,-2.275   ,7.944     ,-0.195    ,2021-08-05,02:29:10.100008,1628130550      ,100008               ,0000           ,5A4F           ,1         ,1             ,3.292                ,GPS-3.0       ,5           ,0.151     ,0.153     ,0.311     ,0.917  ,2.048  ,0       ,4                 ,10        ,4             ,0           ,0         ,4          ,           ,           ,           ,           ,           ,           ,           ,           ,           ,           ,0                     ,000000                     ,                 ,                 ,                 ,
000000087,01932-0007,2.4384338783,102.6935202135,34.2116699219,0,0,106.1750789120,29.796 ,-2.218   ,7.974     ,-0.223    ,2021-08-05,02:29:10.500094,1628130550      ,500094               ,0000           ,5A4F           ,1         ,1             ,3.289                ,GPS-3.0       ,5           ,0.152     ,0.154     ,0.312     ,0.804  ,1.786  ,0       ,4                 ,10        ,4             ,0           ,0         ,3          ,           ,           ,           ,           ,           ,           ,           ,           ,           ,           ,0                     ,000000                     ,                 ,                 ,                 ,
000000088,01932-0007,2.4384259810,102.6935491354,34.3628501892,0,0,105.8867629667,30.014 ,-2.251   ,8.027     ,-0.223    ,2021-08-05,02:29:10.900000,1628130550      ,900000               ,0000           ,5A4F           ,1         ,1             ,3.331                ,GPS-3.0       ,5           ,0.153     ,0.155     ,0.314     ,0.943  ,2.068  ,0       ,4                 ,10        ,4             ,0           ,0         ,3          ,           ,           ,           ,           ,           ,           ,           ,           ,           ,           ,0                     ,000000                     ,                 ,                 ,                 ,
000000089,01932-0007,2.4384175283,102.6935783810,34.5132484436,0,0,105.8151962446,30.099 ,-2.305   ,8.037     ,-0.244    ,2021-08-05,02:29:11.299999,1628130551      ,299999               ,0000           ,5A4F           ,1         ,1             ,3.382                ,GPS-3.0       ,5           ,0.154     ,0.156     ,0.315     ,1.159  ,2.445  ,0       ,4                 ,9         ,4             ,0           ,0         ,0          ,           ,           ,           ,           ,           ,           ,           ,           ,           ,           ,0                     ,000000                     ,                 ,                 ,                 ,
