#0:imgID ,1:camSN   ,2:lat       ,3:lon         ,4:height     ,5:roll       ,6:pitch      ,7:heading     ,8:speed,9:speed_n,10:speed_e,11:speed_d,12:date   ,13:time        ,14:unix_time_sec,15:unix_time_microsec,16:systemStatus,17:filterStatus,18:haveFix,19:extVelocity,20:distancetoprevious,21:releaseMode,22:device_id,23:lat_dev,24:lon_dev,25:hei_dev,26:hdop,27:vdop,28:fs_10,29:gnss_fix_status,30:gps_sat,31:glonass_sat,32:beidu_sat,33:gal_sat,34:sbas_sat,35:custLog0,36:custLog1,37:custLog2,38:custLog3,39:custLog4,40:custLog5,41:custLog6,42:custLog7,43:custLog8,44:custLog9,45:unix_time_sec_fixed,46:unix_time_microsec_fixed,47:pnvgbss_field3,48:pnvgbss_field4,49:pnvgbss_field5,50:pnvgbss_field6,51:pnvgbss_field7
000000002,01932-0007,2.4077164232,102.7301897340,21.2799606323,0,0,141.0835132316,10.769 ,-2.741   ,1.197     ,0.103     ,2021-08-05,03:29:03.000034,1628134143      ,000034               ,0000           ,5A4F           ,1         ,1             ,0.000                ,GPS-3.0       ,5           ,0.154     ,0.142     ,0.330     ,1.108  ,3.023  ,0       ,4                 ,11        ,4             ,0           ,0         ,4          ,           ,           ,           ,           ,           ,           ,           ,           ,           ,           ,0                     ,000000                     ,                 ,                 ,                 ,
000000003,01932-0007,2.4076909833,102.7301991453,21.3235855103,0,0,157.4640963708,10.298 ,-2.816   ,0.506     ,0.114     ,2021-08-05,03:29:04.049996,1628134144      ,049996               ,0000           ,5A4F           ,1         ,1             ,3.016                ,GPS-3.0       ,5           ,0.154     ,0.143     ,0.331     ,0.938  ,2.143  ,0       ,4                 ,11        ,4             ,0           ,0         ,4          ,           ,           ,           ,           ,           ,           ,           ,           ,           ,           ,0                     ,000000                     ,                 ,                 ,                 ,
000000004,01932-0007,2.4076640153,102.7302032111,21.2765655518,0,0,173.7150151989,12.185 ,-3.355   ,0.445     ,-0.062    ,2021-08-05,03:29:05.049996,1628134145      ,049996               ,0000           ,5A4F           ,1         ,1             ,3.033                ,GPS-3.0       ,5           ,0.157     ,0.145     ,0.334     ,0.854  ,1.970  ,0       ,4                 ,11        ,4             ,0           ,0         ,4          ,           ,           ,           ,           ,           ,           ,           ,           ,           ,           ,0                     ,000000                     ,                 ,                 ,                 ,
000000005,01932-0007,2.4076365333,102.7301990027,21.1165351868,0,0,189.2537911833,12.491 ,-3.377   ,-0.797    ,0.075     ,2021-08-05,03:29:06.000010,1628134146      ,000010               ,0000           ,5A4F           ,1         ,1             ,3.091                ,GPS-3.0       ,5           ,0.158     ,0.146     ,0.336     ,0.854  ,1.970  ,0       ,4                 ,11        ,4             ,0           ,0         ,4          ,           ,           ,           ,           ,           ,           ,           ,           ,           ,           ,0                     ,000000                     ,                 ,                 ,                 ,
000000006,01932-0007,2.4076103487,102.7301911223,21.1272239685,0,0,195.3724522267,12.163 ,-3.217   ,-1.031    ,0.043     ,2021-08-05,03:29:06.900000,1628134146      ,900000               ,0000           ,5A4F           ,1         ,1             ,3.040                ,GPS-3.0       ,5           ,0.159     ,0.147     ,0.338     ,0.815  ,1.833  ,0       ,4                 ,11        ,4             ,0           ,0         ,3          ,           ,           ,           ,           ,           ,           ,           ,           ,           ,           ,0                     ,000000                     ,                 ,                 ,                 ,
000000007,01932-0007,2.4075840185,102.7301829564,21.2230873108,0,0,196.7071668132,10.600 ,-2.788   ,-0.947    ,0.002     ,2021-08-05,03:29:07.900000,1628134147      ,900000               ,0000           ,5A4F           ,1         ,1             ,3.065                ,GPS-3.0       ,5           ,0.160     ,0.148     ,0.340     ,0.782  ,1.587  ,0       ,4                 ,11        ,4             ,0           ,0         ,2          ,           ,           ,           ,           ,           ,           ,           ,           ,           ,           ,0                     ,000000                     ,                 ,                 ,                 ,
000000008,01932-0007,2.4075576502,102.7301749435,21.1941871643,0,0,196.2517161389,11.035 ,-2.954   ,-0.817    ,0.006     ,2021-08-05,03:29:08.900000,1628134148      ,900000               ,0000           ,5A4F           ,1         ,1             ,3.064                ,GPS-3.0       ,5           ,0.163     ,0.151     ,0.344     ,0.782  ,1.587  ,0       ,4                 ,11        ,4             ,0           ,0         ,2          ,           ,           ,           ,           ,           ,           ,           ,           ,           ,           ,0                     ,000000                     ,                 ,                 ,                 ,
000000009,01932-0007,2.4075312358,102.7301684557,21.0866699219,0,0,194.2660708642,12.096 ,-2.977   ,-1.558    ,0.227     ,2021-08-05,03:29:09.849995,1628134149      ,849995               ,0000           ,5A4F           ,1         ,1             ,3.024                ,GPS-3.0       ,5           ,0.165     ,0.154     ,0.348     ,0.782  ,1.587  ,0       ,4                 ,11        ,4             ,0           ,0         ,2          ,           ,           ,           ,           ,           ,           ,           ,           ,           ,           ,0                     ,000000                     ,                 ,                 ,                 ,
000000010,01932-0007,2.4075035643,102.7301619944,20.7770195007,0,0,192.5324732302,11.815 ,-3.177   ,-0.824    ,0.213     ,2021-08-05,03:29:10.800002,1628134150      ,800002               ,0000           ,5A4F           ,1         ,1             ,3.160                ,GPS-3.0       ,5           ,0.169     ,0.158     ,0.352     ,0.815  ,1.834  ,0       ,4                 ,11        ,4             ,0           ,0         ,1          ,           ,           ,           ,           ,           ,           ,           ,           ,           ,           ,0                     ,000000                     ,                 ,                 ,                 ,
000000011,01932-0007,2.4074771835,102.7301562995,20.6548709869,0,0,191.3774745812,11.771 ,-3.129   ,-0.949    ,0.194     ,2021-08-05,03:29:11.649995,1628134151      ,649995               ,0000           ,5A4F           ,1         ,1             ,3.001                ,GPS-3.0       ,5           ,0.172     ,0.161     ,0.356     ,0.815  ,1.834  ,0       ,4                 ,11        ,4             ,0           ,0         ,1          ,           ,           ,           ,           ,           ,           ,           ,           ,           ,           ,0                     ,000000                     ,                 ,                 ,                 ,
000000012,01932-0007,2.4074503931,102.7301494734,20.6415424347,0,0,191.9602673023,12.169 ,-3.320   ,-0.636    ,0.117     ,2021-08-05,03:29:12.549995,1628134152      ,549995               ,0000           ,5A4F           ,1         ,1             ,3.074                ,GPS-3.0       ,5           ,0.174     ,0.163     ,0.359     ,0.815  ,1.834  ,0       ,4                 ,11        ,4             ,0           ,0         ,0          ,           ,           ,           ,           ,           ,           ,           ,           ,           ,           ,0                     ,000000                     ,                 ,                 ,                 ,
000000013,01932-0007,2.4074237064,102.7301429683,20.4235420227,0,0,191.8407526522,11.056 ,-3.004   ,-0.637    ,0.243     ,2021-08-05,03:29:13.549995,1628134153      ,549995               ,0000           ,5A4F           ,1         ,1             ,3.054                ,GPS-3.0       ,5           ,0.178     ,0.167     ,0.364     ,0.854  ,1.971  ,0       ,4                 ,11        ,4             ,0           ,0         ,0          ,           ,           ,           ,           ,           ,           ,           ,           ,           ,           ,0                     ,000000                     ,                 ,                 ,                 ,
000000014,01932-0007,2.4073970423,102.7301363132,20.3549575806,0,0,193.4377601632,9.989  ,-2.612   ,-0.937    ,0.221     ,2021-08-05,03:29:14.549996,1628134154      ,549996               ,0000           ,5A4F           ,1         ,1             ,3.056                ,GPS-3.0       ,5           ,0.181     ,0.170     ,0.368     ,0.815  ,1.834  ,0       ,4                 ,11        ,4             ,0           ,0         ,1          ,           ,           ,           ,           ,           ,           ,           ,           ,           ,           ,0                     ,000000                     ,                 ,                 ,                 ,
000000015,01932-0007,2.4073701513,102.7301287232,20.1901016235,0,0,196.1590851134,9.276  ,-2.381   ,-0.986    ,0.220     ,2021-08-05,03:29:15.649996,1628134155      ,649996               ,0000           ,5A4F           ,1         ,1             ,3.107                ,GPS-3.0       ,5           ,0.185     ,0.175     ,0.373     ,0.962  ,2.829  ,0       ,4                 ,11        ,4             ,0           ,0         ,1          ,           ,           ,           ,           ,           ,           ,           ,           ,           ,           ,0                     ,000000                     ,                 ,                 ,                 ,
000000016,01932-0007,2.4073439983,102.7301199503,19.9978466034,0,0,198.7009263527,10.336 ,-2.768   ,-0.764    ,0.010     ,2021-08-05,03:29:16.750086,1628134156      ,750086               ,0000           ,5A4F           ,1         ,1             ,3.067                ,GPS-3.0       ,5           ,0.192     ,0.182     ,0.380     ,0.938  ,2.141  ,0       ,4                 ,11        ,4             ,0           ,0         ,1          ,           ,           ,           ,           ,           ,           ,           ,           ,           ,           ,0                     ,000000                     ,                 ,                 ,                 ,
000000017,01932-0007,2.4073182136,102.7301109875,19.8159179688,0,0,200.0877552825,10.875 ,-2.873   ,-0.935    ,0.209     ,2021-08-05,03:29:17.750126,1628134157      ,750126               ,0000           ,5A4F           ,1         ,1             ,3.035                ,GPS-3.0       ,5           ,0.193     ,0.183     ,0.383     ,0.890  ,2.123  ,0       ,4                 ,11        ,4             ,0           ,0         ,1          ,           ,           ,           ,           ,           ,           ,           ,           ,           ,           ,0                     ,000000                     ,                 ,                 ,                 ,
000000018,01932-0007,2.4072917713,102.7301013632,19.7742023468,0,0,199.8748309653,11.653 ,-3.032   ,-1.134    ,0.286     ,2021-08-05,03:29:18.700000,1628134158      ,700000               ,0000           ,5A4F           ,1         ,1             ,3.129                ,GPS-3.0       ,5           ,0.196     ,0.186     ,0.386     ,0.962  ,2.827  ,0       ,4                 ,11        ,4             ,0           ,0         ,2          ,           ,           ,           ,           ,           ,           ,           ,           ,           ,           ,0                     ,000000                     ,                 ,                 ,                 ,
000000019,01932-0007,2.4072647952,102.7300920526,19.7271976471,0,0,198.9561158804,13.203 ,-3.577   ,-0.808    ,0.025     ,2021-08-05,03:29:19.600002,1628134159      ,600002               ,0000           ,5A4F           ,1         ,1             ,3.173                ,GPS-3.0       ,5           ,0.201     ,0.191     ,0.392     ,0.854  ,1.972  ,0       ,4                 ,11        ,4             ,0           ,0         ,2          ,           ,           ,           ,           ,           ,           ,           ,           ,           ,           ,0                     ,000000                     ,                 ,                 ,                 ,
000000020,01932-0007,2.4072391896,102.7300829368,19.7090816498,0,0,195.9449177018,9.098  ,-2.435   ,-0.676    ,0.178     ,2021-08-05,03:29:20.800002,1628134160      ,800002               ,0000           ,5A4F           ,1         ,1             ,3.022                ,GPS-3.0       ,5           ,0.203     ,0.194     ,0.396     ,0.854  ,1.972  ,0       ,4                 ,11        ,4             ,0           ,0         ,2          ,           ,           ,           ,           ,           ,           ,           ,           ,           ,           ,0                     ,000000                     ,                 ,                 ,                 ,
000000021,01932-0007,2.4072108753,102.7300832194,19.9145374298,0,0,192.5139087760,10.910 ,-3.004   ,-0.396    ,0.028     ,2021-08-05,03:29:21.949996,1628134161      ,949996               ,0000           ,5A4F           ,1         ,1             ,3.149                ,GPS-3.0       ,5           ,0.203     ,0.195     ,0.397     ,0.937  ,2.010  ,0       ,4                 ,11        ,3             ,0           ,0         ,1          ,           ,           ,           ,           ,           ,           ,           ,           ,           ,           ,0                     ,000000                     ,                 ,                 ,                 ,
000000022,01932-0007,2.4071835272,102.7300788778,20.0181655884,0,0,188.7448601279,8.775  ,-2.386   ,-0.497    ,0.045     ,2021-08-05,03:29:23.000096,1628134163      ,000096               ,0000           ,5A4F           ,1         ,1             ,3.079                ,GPS-3.0       ,5           ,0.207     ,0.199     ,0.402     ,0.815  ,1.834  ,0       ,4                 ,11        ,4             ,0           ,0         ,1          ,           ,           ,           ,           ,           ,           ,           ,           ,           ,           ,0                     ,000000                     ,                 ,                 ,                 ,
000000023,01932-0007,2.4071559556,102.7300752426,19.8338794708,0,0,184.5824472250,10.314 ,-2.844   ,-0.343    ,0.086     ,2021-08-05,03:29:24.000133,1628134164      ,000133               ,0000           ,5A4F           ,1         ,1             ,3.092                ,GPS-3.0       ,5           ,0.209     ,0.201     ,0.406     ,0.854  ,1.972  ,0       ,4                 ,11        ,4             ,0           ,0         ,1          ,           ,           ,           ,           ,           ,           ,           ,           ,           ,           ,0                     ,000000                     ,                 ,                 ,                 ,
000000024,01932-0007,2.4071282778,102.7300712179,20.0081615448,0,0,180.7835096690,11.301 ,-3.138   ,-0.090    ,0.033     ,2021-08-05,03:29:24.949995,1628134164      ,949995               ,0000           ,5A4F           ,1         ,1             ,3.110                ,GPS-3.0       ,5           ,0.211     ,0.203     ,0.408     ,0.815  ,1.834  ,0       ,4                 ,11        ,4             ,0           ,0         ,1          ,           ,           ,           ,           ,           ,           ,           ,           ,           ,           ,0                     ,000000                     ,                 ,                 ,                 ,
000000025,01932-0007,2.4070998579,102.7300715010,19.9078998566,0,0,176.0299438935,12.061 ,-3.332   ,0.346     ,0.031     ,2021-08-05,03:29:25.900098,1628134165      ,900098               ,0000           ,5A4F           ,1         ,1             ,3.160                ,GPS-3.0       ,5           ,0.214     ,0.207     ,0.412     ,0.956  ,1.973  ,0       ,4                 ,11        ,4             ,0           ,0         ,2          ,           ,           ,           ,           ,           ,           ,           ,           ,           ,           ,0                     ,000000                     ,                 ,                 ,                 ,
000000026,01932-0007,2.4070730931,102.7300765710,19.6533775330,0,0,169.6316549055,11.929 ,-3.227   ,0.751     ,0.241     ,2021-08-05,03:29:26.800036,1628134166      ,800036               ,0000           ,5A4F           ,1         ,1             ,3.029                ,GPS-3.0       ,5           ,0.217     ,0.210     ,0.416     ,0.827  ,1.634  ,0       ,4                 ,11        ,4             ,0           ,0         ,2          ,           ,           ,           ,           ,           ,           ,           ,           ,           ,           ,0                     ,000000                     ,                 ,                 ,                 ,
000000027,01932-0007,2.4070455443,102.7300830674,19.3983173370,0,0,163.5903935657,14.666 ,-3.741   ,1.612     ,0.244     ,2021-08-05,03:29:27.649995,1628134167      ,649995               ,0000           ,5A4F           ,1         ,1             ,3.147                ,GPS-3.0       ,5           ,0.222     ,0.216     ,0.421     ,0.854  ,1.973  ,0       ,4                 ,11        ,4             ,0           ,0         ,1          ,           ,           ,           ,           ,           ,           ,           ,           ,           ,           ,0                     ,000000                     ,                 ,                 ,                 ,
000000028,01932-0007,2.4070183250,102.7300925438,19.1184673309,0,0,157.9428516505,14.166 ,-3.634   ,1.509     ,0.343     ,2021-08-05,03:29:28.450241,1628134168      ,450241               ,0000           ,5A4F           ,1         ,1             ,3.205                ,GPS-3.0       ,5           ,0.226     ,0.219     ,0.425     ,0.854  ,1.973  ,0       ,4                 ,11        ,4             ,0           ,0         ,1          ,           ,           ,           ,           ,           ,           ,           ,           ,           ,           ,0                     ,000000                     ,                 ,                 ,                 ,
000000029,01932-0007,2.4069930248,102.7301025148,18.7960777283,0,0,153.2880230896,14.022 ,-3.560   ,1.581     ,0.291     ,2021-08-05,03:29:29.250091,1628134169      ,250091               ,0000           ,5A4F           ,1         ,1             ,3.023                ,GPS-3.0       ,5           ,0.229     ,0.222     ,0.429     ,0.854  ,1.973  ,0       ,4                 ,11        ,4             ,0           ,0         ,1          ,           ,           ,           ,           ,           ,           ,           ,           ,           ,           ,0                     ,000000                     ,                 ,                 ,                 ,
000000030,01932-0007,2.4069687421,102.7301146223,18.6190910339,0,0,149.4170270379,14.571 ,-3.770   ,1.473     ,0.281     ,2021-08-05,03:29:30.000011,1628134170      ,000011               ,0000           ,5A4F           ,1         ,1             ,3.017                ,GPS-3.0       ,5           ,0.236     ,0.230     ,0.435     ,1.008  ,2.200  ,0       ,4                 ,11        ,4             ,0           ,0         ,1          ,           ,           ,           ,           ,           ,           ,           ,           ,           ,           ,0                     ,000000                     ,                 ,                 ,                 ,
000000031,01932-0007,2.4069481499,102.7301340258,21.4781990051,0,0,147.0870036252,15.282 ,-3.843   ,1.803     ,-0.926    ,2021-08-05,03:29:30.649996,1628134170      ,649996               ,0000           ,5A4F           ,1         ,1             ,3.145                ,GPS-3.0       ,5           ,0.230     ,0.226     ,0.434     ,1.032  ,2.840  ,0       ,4                 ,11        ,3             ,0           ,0         ,1          ,           ,           ,           ,           ,           ,           ,           ,           ,           ,           ,0                     ,000000                     ,                 ,                 ,                 ,
000000032,01932-0007,2.4069251045,102.7301496756,21.9648895264,0,0,146.7261510710,16.251 ,-3.913   ,2.250     ,-0.808    ,2021-08-05,03:29:31.350286,1628134171      ,350286               ,0000           ,5A4F           ,1         ,1             ,3.097                ,GPS-3.0       ,5           ,0.234     ,0.230     ,0.439     ,0.939  ,2.138  ,0       ,4                 ,11        ,4             ,0           ,0         ,2          ,           ,           ,           ,           ,           ,           ,           ,           ,           ,           ,0                     ,000000                     ,                 ,                 ,                 ,
000000033,01932-0007,2.4068995981,102.7301619392,21.6453990936,0,0,148.3815157182,15.299 ,-3.601   ,2.256     ,-0.398    ,2021-08-05,03:29:32.150094,1628134172      ,150094               ,0000           ,5A4F           ,1         ,1             ,3.146                ,GPS-3.0       ,5           ,0.237     ,0.232     ,0.442     ,0.962  ,2.822  ,0       ,4                 ,11        ,4             ,0           ,0         ,2          ,           ,           ,           ,           ,           ,           ,           ,           ,           ,           ,0                     ,000000                     ,                 ,                 ,                 ,
000000034,01932-0007,2.4068754435,102.7301744052,21.2788810730,0,0,149.2222027220,14.833 ,-3.788   ,1.621     ,-0.172    ,2021-08-05,03:29:32.949996,1628134172      ,949996               ,0000           ,5A4F           ,1         ,1             ,3.022                ,GPS-3.0       ,5           ,0.238     ,0.233     ,0.445     ,0.962  ,2.822  ,0       ,4                 ,11        ,4             ,0           ,0         ,2          ,           ,           ,           ,           ,           ,           ,           ,           ,           ,           ,0                     ,000000                     ,                 ,                 ,                 ,
000000035,01932-0007,2.4068509772,102.7301882058,21.1029090881,0,0,149.5958960319,14.478 ,-3.073   ,2.595     ,-0.183    ,2021-08-05,03:29:33.700201,1628134173      ,700201               ,0000           ,5A4F           ,1         ,1             ,3.123                ,GPS-3.0       ,5           ,0.237     ,0.234     ,0.446     ,0.939  ,2.138  ,0       ,4                 ,11        ,4             ,0           ,0         ,1          ,           ,           ,           ,           ,           ,           ,           ,           ,           ,           ,0                     ,000000                     ,                 ,                 ,                 ,
000000036,01932-0007,2.4068273140,102.7302013748,20.9484386444,0,0,149.5447379150,13.589 ,-3.225   ,1.962     ,0.128     ,2021-08-05,03:29:34.449996,1628134174      ,449996               ,0000           ,5A4F           ,1         ,1             ,3.011                ,GPS-3.0       ,5           ,0.240     ,0.237     ,0.450     ,0.962  ,2.821  ,0       ,4                 ,11        ,4             ,0           ,0         ,1          ,           ,           ,           ,           ,           ,           ,           ,           ,           ,           ,0                     ,000000                     ,                 ,                 ,                 ,
000000037,01932-0007,2.4068036607,102.7302146906,20.8913860321,0,0,149.6613019234,14.682 ,-3.608   ,1.900     ,0.100     ,2021-08-05,03:29:35.200002,1628134175      ,200002               ,0000           ,5A4F           ,1         ,1             ,3.018                ,GPS-3.0       ,5           ,0.244     ,0.241     ,0.455     ,0.962  ,2.821  ,0       ,4                 ,11        ,4             ,0           ,0         ,1          ,           ,           ,           ,           ,           ,           ,           ,           ,           ,           ,0                     ,000000                     ,                 ,                 ,                 ,
000000038,01932-0007,2.4067803506,102.7302305371,20.7255382538,0,0,152.1472722152,14.133 ,-3.304   ,2.120     ,0.176     ,2021-08-05,03:29:36.000010,1628134176      ,000010               ,0000           ,5A4F           ,1         ,1             ,3.133                ,GPS-3.0       ,5           ,0.245     ,0.242     ,0.457     ,0.939  ,2.137  ,0       ,4                 ,11        ,4             ,0           ,0         ,1          ,           ,           ,           ,           ,           ,           ,           ,           ,           ,           ,0                     ,000000                     ,                 ,                 ,                 ,
000000039,01932-0007,2.4067550967,102.7302416681,20.7084636688,0,0,155.5574627244,13.137 ,-3.333   ,1.486     ,0.053     ,2021-08-05,03:29:36.800005,1628134176      ,800005               ,0000           ,5A4F           ,1         ,1             ,3.068                ,GPS-3.0       ,5           ,0.248     ,0.244     ,0.461     ,0.854  ,1.974  ,0       ,4                 ,11        ,4             ,0           ,0         ,0          ,           ,           ,           ,           ,           ,           ,           ,           ,           ,           ,0                     ,000000                     ,                 ,                 ,                 ,
000000040,01932-0007,2.4067296427,102.7302525261,20.8571548462,0,0,158.1073499265,13.764 ,-3.406   ,1.737     ,0.068     ,2021-08-05,03:29:37.600256,1628134177      ,600256               ,0000           ,5A4F           ,1         ,1             ,3.077                ,GPS-3.0       ,5           ,0.247     ,0.244     ,0.462     ,0.815  ,1.835  ,0       ,4                 ,11        ,4             ,0           ,0         ,0          ,           ,           ,           ,           ,           ,           ,           ,           ,           ,           ,0                     ,000000                     ,                 ,                 ,                 ,
000000041,01932-0007,2.4067033165,102.7302622755,20.8488998413,0,0,160.2709489499,13.068 ,-3.422   ,1.211     ,-0.034    ,2021-08-05,03:29:38.449996,1628134178      ,449996               ,0000           ,5A4F           ,1         ,1             ,3.121                ,GPS-3.0       ,5           ,0.249     ,0.247     ,0.466     ,0.962  ,2.819  ,0       ,4                 ,11        ,4             ,0           ,0         ,0          ,           ,           ,           ,           ,           ,           ,           ,           ,           ,           ,0                     ,000000                     ,                 ,                 ,                 ,
000000042,01932-0007,2.4066757747,102.7302690910,20.9988441467,0,0,164.4867739320,13.288 ,-3.629   ,0.676     ,-0.064    ,2021-08-05,03:29:39.249996,1628134179      ,249996               ,0000           ,5A4F           ,1         ,1             ,3.155                ,GPS-3.0       ,5           ,0.249     ,0.247     ,0.469     ,0.854  ,1.975  ,0       ,4                 ,11        ,4             ,0           ,0         ,0          ,           ,           ,           ,           ,           ,           ,           ,           ,           ,           ,0                     ,000000                     ,                 ,                 ,                 ,
000000043,01932-0007,2.4066487736,102.7302747784,21.1369113922,0,0,173.3243966802,12.586 ,-3.461   ,0.493     ,-0.009    ,2021-08-05,03:29:40.099999,1628134180      ,099999               ,0000           ,5A4F           ,1         ,1             ,3.068                ,GPS-3.0       ,5           ,0.250     ,0.248     ,0.471     ,1.026  ,2.202  ,0       ,4                 ,11        ,4             ,0           ,0         ,0          ,           ,           ,           ,           ,           ,           ,           ,           ,           ,           ,0                     ,000000                     ,                 ,                 ,                 ,
000000044,01932-0007,2.4066211671,102.7302714972,21.1088581085,0,0,185.9968018172,13.160 ,-3.509   ,-1.026    ,-0.283    ,2021-08-05,03:29:41.000009,1628134181      ,000009               ,0000           ,5A4F           ,1         ,1             ,3.091                ,GPS-3.0       ,5           ,0.251     ,0.247     ,0.473     ,1.026  ,2.202  ,0       ,4                 ,11        ,4             ,0           ,0         ,0          ,           ,           ,           ,           ,           ,           ,           ,           ,           ,           ,0                     ,000000                     ,                 ,                 ,                 ,
000000045,01932-0007,2.4065949488,102.7302631541,20.9988193512,0,0,200.3391199043,10.860 ,-2.789   ,-1.150    ,0.057     ,2021-08-05,03:29:42.000009,1628134182      ,000009               ,0000           ,5A4F           ,1         ,1             ,3.059                ,GPS-3.0       ,5           ,0.253     ,0.248     ,0.475     ,1.026  ,2.202  ,0       ,4                 ,11        ,4             ,0           ,0         ,0          ,           ,           ,           ,           ,           ,           ,           ,           ,           ,           ,0                     ,000000                     ,                 ,                 ,                 ,
000000046,01932-0007,2.4065702624,102.7302500670,21.0393524170,0,0,209.9155778755,11.561 ,-2.591   ,-1.897    ,-0.033    ,2021-08-05,03:29:42.899999,1628134182      ,899999               ,0000           ,5A4F           ,1         ,1             ,3.106                ,GPS-3.0       ,5           ,0.253     ,0.248     ,0.476     ,0.946  ,1.903  ,0       ,4                 ,11        ,4             ,0           ,0         ,0          ,           ,           ,           ,           ,           ,           ,           ,           ,           ,           ,0                     ,000000                     ,                 ,                 ,                 ,
000000047,01932-0007,2.4065474438,102.7302337728,20.9213676453,0,0,216.3239755435,12.189 ,-2.391   ,-2.397    ,0.051     ,2021-08-05,03:29:43.800001,1628134183      ,800001               ,0000           ,5A4F           ,1         ,1             ,3.117                ,GPS-3.0       ,5           ,0.255     ,0.249     ,0.479     ,0.854  ,1.975  ,0       ,4                 ,11        ,4             ,0           ,0         ,0          ,           ,           ,           ,           ,           ,           ,           ,           ,           ,           ,0                     ,000000                     ,                 ,                 ,                 ,
000000048,01932-0007,2.4065258476,102.7302170784,20.9243659973,0,0,220.0783529453,11.282 ,-2.154   ,-2.276    ,0.133     ,2021-08-05,03:29:44.700000,1628134184      ,700000               ,0000           ,5A4F           ,1         ,1             ,3.034                ,GPS-3.0       ,5           ,0.257     ,0.251     ,0.481     ,0.920  ,2.042  ,0       ,4                 ,10        ,4             ,0           ,0         ,2          ,           ,           ,           ,           ,           ,           ,           ,           ,           ,           ,0                     ,000000                     ,                 ,                 ,                 ,
000000049,01932-0007,2.4065051959,102.7301985940,20.8854694366,0,0,221.4534339498,12.624 ,-2.580   ,-2.375    ,0.150     ,2021-08-05,03:29:45.500000,1628134185      ,500000               ,0000           ,5A4F           ,1         ,1             ,3.081                ,GPS-3.0       ,5           ,0.258     ,0.252     ,0.483     ,0.854  ,1.975  ,0       ,4                 ,11        ,4             ,0           ,0         ,3          ,           ,           ,           ,           ,           ,           ,           ,           ,           ,           ,0                     ,000000                     ,                 ,                 ,                 ,
000000050,01932-0007,2.4064837395,102.7301815899,20.6855087280,0,0,218.9285452400,12.990 ,-2.950   ,-2.078    ,0.228     ,2021-08-05,03:29:46.300021,1628134186      ,300021               ,0000           ,5A4F           ,1         ,1             ,3.043                ,GPS-3.0       ,5           ,0.257     ,0.252     ,0.484     ,0.815  ,1.836  ,0       ,4                 ,11        ,4             ,0           ,0         ,3          ,           ,           ,           ,           ,           ,           ,           ,           ,           ,           ,0                     ,000000                     ,                 ,                 ,                 ,
000000051,01932-0007,2.4064612786,102.7301645496,20.3522567749,0,0,217.2949962170,14.120 ,-2.894   ,-2.648    ,0.319     ,2021-08-05,03:29:47.100127,1628134187      ,100127               ,0000           ,5A4F           ,1         ,1             ,3.134                ,GPS-3.0       ,5           ,0.257     ,0.252     ,0.485     ,0.815  ,1.836  ,0       ,4                 ,11        ,4             ,0           ,0         ,3          ,           ,           ,           ,           ,           ,           ,           ,           ,           ,           ,0                     ,000000                     ,                 ,                 ,                 ,
000000052,01932-0007,2.4064390202,102.7301483428,20.2967739105,0,0,215.6511199479,14.676 ,-3.583   ,-1.944    ,0.195     ,2021-08-05,03:29:47.849996,1628134187      ,849996               ,0000           ,5A4F           ,1         ,1             ,3.061                ,GPS-3.0       ,5           ,0.256     ,0.252     ,0.484     ,0.935  ,2.681  ,0       ,4                 ,11        ,4             ,0           ,0         ,2          ,           ,           ,           ,           ,           ,           ,           ,           ,           ,           ,0                     ,000000                     ,                 ,                 ,                 ,
000000053,01932-0007,2.4064158562,102.7301344187,20.2175464630,0,0,213.6928090903,13.847 ,-3.430   ,-1.740    ,0.137     ,2021-08-05,03:29:48.600002,1628134188      ,600002               ,0000           ,5A4F           ,1         ,1             ,3.005                ,GPS-3.0       ,5           ,0.257     ,0.252     ,0.486     ,0.815  ,1.836  ,0       ,4                 ,11        ,4             ,0           ,0         ,2          ,           ,           ,           ,           ,           ,           ,           ,           ,           ,           ,0                     ,000000                     ,                 ,                 ,                 ,
000000054,01932-0007,2.4063925274,102.7301203764,20.2129840851,0,0,213.1742747888,10.510 ,-2.506   ,-1.498    ,0.156     ,2021-08-05,03:29:49.400002,1628134189      ,400002               ,0000           ,5A4F           ,1         ,1             ,3.027                ,GPS-3.0       ,5           ,0.257     ,0.252     ,0.485     ,0.815  ,1.836  ,0       ,4                 ,11        ,4             ,0           ,0         ,2          ,           ,           ,           ,           ,           ,           ,           ,           ,           ,           ,0                     ,000000                     ,                 ,                 ,                 ,
000000055,01932-0007,2.4063702016,102.7301043882,19.6138305664,0,0,213.1385392391,6.485  ,-1.520   ,-0.968    ,0.371     ,2021-08-05,03:29:50.700000,1628134190      ,700000               ,0000           ,5A4F           ,1         ,1             ,3.053                ,GPS-3.0       ,5           ,0.257     ,0.251     ,0.486     ,0.935  ,2.680  ,0       ,4                 ,11        ,4             ,0           ,0         ,2          ,           ,           ,           ,           ,           ,           ,           ,           ,           ,           ,0                     ,000000                     ,                 ,                 ,                 ,
000000056,01932-0007,2.4063457706,102.7300927693,19.5677394867,0,0,205.9398477030,1.626  ,-0.439   ,-0.106    ,0.127     ,2021-08-05,03:29:53.450218,1628134193      ,450218               ,0000           ,5A4F           ,1         ,1             ,3.008                ,GPS-3.0       ,5           ,0.252     ,0.249     ,0.477     ,0.815  ,1.836  ,0       ,4                 ,11        ,4             ,0           ,0         ,2          ,           ,           ,           ,           ,           ,           ,           ,           ,           ,           ,0                     ,000000                     ,                 ,                 ,                 ,
000000057,01932-0007,2.4063209570,102.7300812274,19.4275569916,0,0,205.3346519614,4.794  ,-1.136   ,-0.695    ,0.103     ,2021-08-05,03:29:56.700102,1628134196      ,700102               ,0000           ,5A4F           ,1         ,1             ,3.043                ,GPS-3.0       ,5           ,0.251     ,0.248     ,0.476     ,0.914  ,1.839  ,0       ,4                 ,11        ,4             ,0           ,0         ,2          ,           ,           ,           ,           ,           ,           ,           ,           ,           ,           ,0                     ,000000                     ,                 ,                 ,                 ,
000000058,01932-0007,2.4062962133,102.7300690843,19.1627330780,0,0,204.8726443056,6.423  ,-1.657   ,-0.661    ,0.167     ,2021-08-05,03:29:58.549996,1628134198      ,549996               ,0000           ,5A4F           ,1         ,1             ,3.064                ,GPS-3.0       ,5           ,0.253     ,0.251     ,0.479     ,0.815  ,1.837  ,0       ,4                 ,11        ,4             ,0           ,0         ,0          ,           ,           ,           ,           ,           ,           ,           ,           ,           ,           ,0                     ,000000                     ,                 ,                 ,                 ,
000000059,01932-0007,2.4062707582,102.7300600164,19.1800060272,0,0,200.4952580288,6.819  ,-1.812   ,-0.552    ,0.057     ,2021-08-05,03:30:00.000010,1628134200      ,000010               ,0000           ,5A4F           ,1         ,1             ,3.004                ,GPS-3.0       ,5           ,0.254     ,0.251     ,0.480     ,0.879  ,1.858  ,0       ,4                 ,11        ,4             ,0           ,0         ,0          ,           ,           ,           ,           ,           ,           ,           ,           ,           ,           ,0                     ,000000                     ,                 ,                 ,                 ,
000000060,01932-0007,2.4062446544,102.7300520854,19.2544498444,0,0,195.1229454163,4.733  ,-1.264   ,-0.360    ,0.018     ,2021-08-05,03:30:01.700023,1628134201      ,700023               ,0000           ,5A4F           ,1         ,1             ,3.033                ,GPS-3.0       ,5           ,0.254     ,0.252     ,0.480     ,0.778  ,1.510  ,0       ,4                 ,11        ,4             ,0           ,0         ,1          ,           ,           ,           ,           ,           ,           ,           ,           ,           ,           ,0                     ,000000                     ,                 ,                 ,                 ,
000000061,01932-0007,2.4062193430,102.7300427312,19.6954231262,0,0,193.5420161707,0.670  ,-0.182   ,-0.039    ,-0.003    ,2021-08-05,03:30:07.149995,1628134207      ,149995               ,0000           ,5A4F           ,1         ,1             ,3.000                ,GPS-3.0       ,5           ,0.255     ,0.243     ,0.479     ,0.792  ,1.912  ,0       ,4                 ,11        ,4             ,0           ,0         ,2          ,           ,           ,           ,           ,           ,           ,           ,           ,           ,           ,0                     ,000000                     ,                 ,                 ,                 ,
000000062,01932-0007,2.4061934058,102.7300350547,19.8961181641,0,0,194.0609329627,6.119  ,-1.638   ,-0.454    ,0.045     ,2021-08-05,03:30:09.499999,1628134209      ,499999               ,0000           ,5A4F           ,1         ,1             ,3.008                ,GPS-3.0       ,5           ,0.250     ,0.232     ,0.470     ,0.769  ,1.632  ,0       ,4                 ,11        ,4             ,0           ,0         ,4          ,           ,           ,           ,           ,           ,           ,           ,           ,           ,           ,0                     ,000000                     ,                 ,                 ,                 ,
000000063,01932-0007,2.4061666390,102.7300290030,20.2737007141,0,0,195.1333546246,7.503  ,-1.998   ,-0.594    ,-0.058    ,2021-08-05,03:30:10.650102,1628134210      ,650102               ,0000           ,5A4F           ,1         ,1             ,3.051                ,GPS-3.0       ,5           ,0.238     ,0.227     ,0.461     ,0.769  ,1.633  ,0       ,4                 ,11        ,4             ,0           ,0         ,4          ,           ,           ,           ,           ,           ,           ,           ,           ,           ,           ,0                     ,000000                     ,                 ,                 ,                 ,
000000064,01932-0007,2.4061401556,102.7300206764,20.5490493774,0,0,196.0396251048,8.403  ,-2.233   ,-0.679    ,-0.076    ,2021-08-05,03:30:11.899999,1628134211      ,899999               ,0000           ,5A4F           ,1         ,1             ,3.087                ,GPS-3.0       ,5           ,0.235     ,0.221     ,0.458     ,0.769  ,1.633  ,0       ,4                 ,11        ,4             ,0           ,0         ,3          ,           ,           ,           ,           ,           ,           ,           ,           ,           ,           ,0                     ,000000                     ,                 ,                 ,                 ,
000000065,01932-0007,2.4061142561,102.7300123191,20.6992950439,0,0,197.7064234888,8.124  ,-2.152   ,-0.681    ,-0.078    ,2021-08-05,03:30:13.049996,1628134213      ,049996               ,0000           ,5A4F           ,1         ,1             ,3.026                ,GPS-3.0       ,5           ,0.232     ,0.218     ,0.456     ,0.730  ,1.461  ,0       ,4                 ,11        ,4             ,0           ,0         ,3          ,           ,           ,           ,           ,           ,           ,           ,           ,           ,           ,0                     ,000000                     ,                 ,                 ,                 ,
000000066,01932-0007,2.4060880229,102.7300058765,20.6616191864,0,0,195.1327672284,8.945  ,-2.336   ,-0.846    ,0.036     ,2021-08-05,03:30:14.149996,1628134214      ,149996               ,0000           ,5A4F           ,1         ,1             ,3.004                ,GPS-3.0       ,5           ,0.224     ,0.217     ,0.453     ,0.769  ,1.633  ,0       ,4                 ,11        ,4             ,0           ,0         ,3          ,           ,           ,           ,           ,           ,           ,           ,           ,           ,           ,0                     ,000000                     ,                 ,                 ,                 ,
000000067,01932-0007,2.4060611908,102.7300000227,20.3581619263,0,0,193.0649820987,8.481  ,-2.323   ,-0.393    ,0.212     ,2021-08-05,03:30:15.400002,1628134215      ,400002               ,0000           ,5A4F           ,1         ,1             ,3.054                ,GPS-3.0       ,5           ,0.223     ,0.218     ,0.455     ,0.769  ,1.633  ,0       ,4                 ,11        ,4             ,0           ,0         ,2          ,           ,           ,           ,           ,           ,           ,           ,           ,           ,           ,0                     ,000000                     ,                 ,                 ,                 ,
000000068,01932-0007,2.4060342437,102.7299928938,20.3227558136,0,0,193.4686462786,10.679 ,-2.852   ,-0.814    ,0.180     ,2021-08-05,03:30:16.500000,1628134216      ,500000               ,0000           ,5A4F           ,1         ,1             ,3.099                ,GPS-3.0       ,5           ,0.223     ,0.218     ,0.454     ,0.769  ,1.633  ,0       ,4                 ,11        ,4             ,0           ,0         ,2          ,           ,           ,           ,           ,           ,           ,           ,           ,           ,           ,0                     ,000000                     ,                 ,                 ,                 ,
000000069,01932-0007,2.4060072814,102.7299844241,20.1853942871,0,0,197.6940608464,10.760 ,-2.886   ,-0.778    ,0.184     ,2021-08-05,03:30:17.550256,1628134217      ,550256               ,0000           ,5A4F           ,1         ,1             ,3.142                ,GPS-3.0       ,5           ,0.225     ,0.219     ,0.456     ,0.836  ,1.641  ,0       ,4                 ,11        ,4             ,0           ,0         ,2          ,           ,           ,           ,           ,           ,           ,           ,           ,           ,           ,0                     ,000000                     ,                 ,                 ,                 ,
000000070,01932-0007,2.4059827940,102.7299716810,20.1885986328,0,0,207.3551175405,10.934 ,-2.554   ,-1.644    ,0.179     ,2021-08-05,03:30:18.500000,1628134218      ,500000               ,0000           ,5A4F           ,1         ,1             ,3.069                ,GPS-3.0       ,5           ,0.226     ,0.217     ,0.456     ,0.769  ,1.633  ,0       ,4                 ,11        ,4             ,0           ,0         ,3          ,           ,           ,           ,           ,           ,           ,           ,           ,           ,           ,0                     ,000000                     ,                 ,                 ,                 ,
000000071,01932-0007,2.4059611654,102.7299553829,20.1267280579,0,0,217.6046223525,9.900  ,-1.875   ,-2.012    ,0.147     ,2021-08-05,03:30:19.450227,1628134219      ,450227               ,0000           ,5A4F           ,1         ,1             ,3.010                ,GPS-3.0       ,5           ,0.223     ,0.214     ,0.452     ,0.769  ,1.633  ,0       ,4                 ,11        ,4             ,0           ,0         ,2          ,           ,           ,           ,           ,           ,           ,           ,           ,           ,           ,0                     ,000000                     ,                 ,                 ,                 ,
000000072,01932-0007,2.4059412869,102.7299368487,20.3261375427,0,0,226.7833993893,7.858  ,-1.462   ,-1.620    ,0.092     ,2021-08-05,03:30:20.649995,1628134220      ,649995               ,0000           ,5A4F           ,1         ,1             ,3.021                ,GPS-3.0       ,5           ,0.220     ,0.210     ,0.447     ,0.818  ,1.760  ,0       ,4                 ,11        ,4             ,0           ,0         ,2          ,           ,           ,           ,           ,           ,           ,           ,           ,           ,           ,0                     ,000000                     ,                 ,                 ,                 ,
000000073,01932-0007,2.4059221637,102.7299161434,20.6198806763,0,0,235.6446409317,8.613  ,-1.210   ,-2.064    ,-0.012    ,2021-08-05,03:30:21.949995,1628134221      ,949995               ,0000           ,5A4F           ,1         ,1             ,3.133                ,GPS-3.0       ,5           ,0.211     ,0.203     ,0.437     ,0.769  ,1.633  ,0       ,4                 ,11        ,4             ,0           ,0         ,3          ,           ,           ,           ,           ,           ,           ,           ,           ,           ,           ,0                     ,000000                     ,                 ,                 ,                 ,
000000074,01932-0007,2.4059070347,102.7298932740,20.9688014984,0,0,244.8294421954,11.441 ,-0.639   ,-3.113    ,-0.256    ,2021-08-05,03:30:22.949995,1628134222      ,949995               ,0000           ,5A4F           ,1         ,1             ,3.047                ,GPS-3.0       ,5           ,0.200     ,0.197     ,0.429     ,0.769  ,1.634  ,0       ,4                 ,11        ,4             ,0           ,0         ,3          ,           ,           ,           ,           ,           ,           ,           ,           ,           ,           ,0                     ,000000                     ,                 ,                 ,                 ,
000000075,01932-0007,2.4058973257,102.7298673153,21.2154998779,0,0,253.4299344360,11.812 ,-1.156   ,-3.071    ,-0.045    ,2021-08-05,03:30:23.899999,1628134223      ,899999               ,0000           ,5A4F           ,1         ,1             ,3.079                ,GPS-3.0       ,5           ,0.197     ,0.193     ,0.427     ,0.769  ,1.634  ,0       ,4                 ,11        ,4             ,0           ,0         ,4          ,           ,           ,           ,           ,           ,           ,           ,           ,           ,           ,0                     ,000000                     ,                 ,                 ,                 ,
000000076,01932-0007,2.4058899098,102.7298399027,21.1920433044,0,0,258.1933083632,14.320 ,-0.626   ,-3.928    ,0.045     ,2021-08-05,03:30:24.749995,1628134224      ,749995               ,0000           ,5A4F           ,1         ,1             ,3.155                ,GPS-3.0       ,5           ,0.195     ,0.191     ,0.425     ,0.769  ,1.634  ,0       ,4                 ,11        ,4             ,0           ,0         ,3          ,           ,           ,           ,           ,           ,           ,           ,           ,           ,           ,0                     ,000000                     ,                 ,                 ,                 ,
000000077,01932-0007,2.4058845799,102.7298127911,21.1955566406,0,0,259.2043129641,15.532 ,-1.040   ,-4.187    ,0.021     ,2021-08-05,03:30:25.500019,1628134225      ,500019               ,0000           ,5A4F           ,1         ,1             ,3.070                ,GPS-3.0       ,5           ,0.196     ,0.192     ,0.426     ,0.769  ,1.634  ,0       ,4                 ,11        ,4             ,0           ,0         ,3          ,           ,           ,           ,           ,           ,           ,           ,           ,           ,           ,0                     ,000000                     ,                 ,                 ,                 ,
000000078,01932-0007,2.4058781767,102.7297853354,21.1870346069,0,0,256.8511215498,17.129 ,-1.633   ,-4.469    ,0.047     ,2021-08-05,03:30:26.200002,1628134226      ,200002               ,0000           ,5A4F           ,1         ,1             ,3.132                ,GPS-3.0       ,5           ,0.196     ,0.191     ,0.424     ,0.769  ,1.634  ,0       ,4                 ,11        ,4             ,0           ,0         ,4          ,           ,           ,           ,           ,           ,           ,           ,           ,           ,           ,0                     ,000000                     ,                 ,                 ,                 ,
000000079,01932-0007,2.4058719235,102.7297583586,21.1277408600,0,0,255.5896129308,15.078 ,-1.293   ,-3.984    ,0.145     ,2021-08-05,03:30:26.900000,1628134226      ,900000               ,0000           ,5A4F           ,1         ,1             ,3.077                ,GPS-3.0       ,5           ,0.197     ,0.190     ,0.424     ,0.769  ,1.634  ,0       ,4                 ,11        ,4             ,0           ,0         ,4          ,           ,           ,           ,           ,           ,           ,           ,           ,           ,           ,0                     ,000000                     ,                 ,                 ,                 ,
000000080,01932-0007,2.4058645374,102.7297314592,21.1400508881,0,0,253.2383339694,11.602 ,-0.333   ,-3.206    ,0.046     ,2021-08-05,03:30:27.649996,1628134227      ,649996               ,0000           ,5A4F           ,1         ,1             ,3.099                ,GPS-3.0       ,5           ,0.198     ,0.190     ,0.424     ,0.792  ,1.911  ,0       ,4                 ,11        ,4             ,0           ,0         ,4          ,           ,           ,           ,           ,           ,           ,           ,           ,           ,           ,0                     ,000000                     ,                 ,                 ,                 ,
000000081,01932-0007,2.4058565922,102.7297053746,21.1385307312,0,0,252.0181343346,12.527 ,-0.668   ,-3.415    ,0.259     ,2021-08-05,03:30:28.549996,1628134228      ,549996               ,0000           ,5A4F           ,1         ,1             ,3.030                ,GPS-3.0       ,5           ,0.200     ,0.194     ,0.425     ,0.747  ,1.476  ,0       ,4                 ,11        ,4             ,0           ,0         ,4          ,           ,           ,           ,           ,           ,           ,           ,           ,           ,           ,0                     ,000000                     ,                 ,                 ,                 ,
000000082,01932-0007,2.4058472452,102.7296794918,21.2033500671,0,0,251.0564163787,12.733 ,-0.831   ,-3.438    ,0.079     ,2021-08-05,03:30:29.400072,1628134229      ,400072               ,0000           ,5A4F           ,1         ,1             ,3.058                ,GPS-3.0       ,5           ,0.197     ,0.191     ,0.422     ,0.730  ,1.462  ,0       ,4                 ,11        ,4             ,0           ,0         ,4          ,           ,           ,           ,           ,           ,           ,           ,           ,           ,           ,0                     ,000000                     ,                 ,                 ,                 ,
000000083,01932-0007,2.4058380022,102.7296528813,21.2321929932,0,0,250.2032164683,13.569 ,-1.102   ,-3.604    ,0.081     ,2021-08-05,03:30:30.249996,1628134230      ,249996               ,0000           ,5A4F           ,1         ,1             ,3.130                ,GPS-3.0       ,5           ,0.196     ,0.189     ,0.420     ,0.769  ,1.634  ,0       ,4                 ,11        ,4             ,0           ,0         ,4          ,           ,           ,           ,           ,           ,           ,           ,           ,           ,           ,0                     ,000000                     ,                 ,                 ,                 ,
000000084,01932-0007,2.4058271493,102.7296263358,21.3762474060,0,0,247.8399710155,14.213 ,-1.268   ,-3.739    ,0.053     ,2021-08-05,03:30:31.050296,1628134231      ,050296               ,0000           ,5A4F           ,1         ,1             ,3.186                ,GPS-3.0       ,5           ,0.193     ,0.185     ,0.415     ,0.730  ,1.462  ,0       ,4                 ,11        ,4             ,0           ,0         ,4          ,           ,           ,           ,           ,           ,           ,           ,           ,           ,           ,0                     ,000000                     ,                 ,                 ,                 ,
000000085,01932-0007,2.4058157792,102.7296018037,21.6624221802,0,0,247.4314710616,14.277 ,-1.466   ,-3.685    ,-0.038    ,2021-08-05,03:30:31.800002,1628134231      ,800002               ,0000           ,5A4F           ,1         ,1             ,3.004                ,GPS-3.0       ,5           ,0.185     ,0.181     ,0.401     ,0.769  ,1.634  ,0       ,4                 ,11        ,4             ,0           ,0         ,4          ,           ,           ,           ,           ,           ,           ,           ,           ,           ,           ,0                     ,000000                     ,                 ,                 ,                 ,
000000086,01932-0007,2.4058044977,102.7295755032,21.6916618347,0,0,247.4339026090,13.039 ,-1.178   ,-3.425    ,0.110     ,2021-08-05,03:30:32.600002,1628134232      ,600002               ,0000           ,5A4F           ,1         ,1             ,3.180                ,GPS-3.0       ,5           ,0.183     ,0.179     ,0.398     ,0.730  ,1.462  ,0       ,4                 ,11        ,4             ,0           ,0         ,4          ,           ,           ,           ,           ,           ,           ,           ,           ,           ,           ,0                     ,000000                     ,                 ,                 ,                 ,
000000087,01932-0007,2.4057938827,102.7295496652,21.7829036713,0,0,247.8143987873,13.167 ,-1.545   ,-3.315    ,0.107     ,2021-08-05,03:30:33.400224,1628134233      ,400224               ,0000           ,5A4F           ,1         ,1             ,3.104                ,GPS-3.0       ,5           ,0.180     ,0.175     ,0.392     ,0.769  ,1.634  ,0       ,4                 ,11        ,4             ,0           ,0         ,4          ,           ,           ,           ,           ,           ,           ,           ,           ,           ,           ,0                     ,000000                     ,                 ,                 ,                 ,
000000088,01932-0007,2.4057831187,102.7295247910,21.9837417603,0,0,247.8601337339,12.519 ,-1.118   ,-3.293    ,0.131     ,2021-08-05,03:30:34.200057,1628134234      ,200057               ,0000           ,5A4F           ,1         ,1             ,3.012                ,GPS-3.0       ,5           ,0.173     ,0.169     ,0.378     ,0.769  ,1.634  ,0       ,4                 ,11        ,4             ,0           ,0         ,4          ,           ,           ,           ,           ,           ,           ,           ,           ,           ,           ,0                     ,000000                     ,                 ,                 ,                 ,
000000089,01932-0007,2.4057714334,102.7294993404,22.1537151337,0,0,247.7607135004,13.053 ,-1.824   ,-3.133    ,-0.117    ,2021-08-05,03:30:35.049995,1628134235      ,049995               ,0000           ,5A4F           ,1         ,1             ,3.112                ,GPS-3.0       ,5           ,0.170     ,0.164     ,0.371     ,0.769  ,1.635  ,0       ,4                 ,11        ,4             ,0           ,0         ,4          ,           ,           ,           ,           ,           ,           ,           ,           ,           ,           ,0                     ,000000                     ,                 ,                 ,                 ,
000000090,01932-0007,2.4057600576,102.7294745838,22.3115196228,0,0,247.5622282031,13.866 ,-1.665   ,-3.473    ,0.034     ,2021-08-05,03:30:35.850269,1628134235      ,850269               ,0000           ,5A4F           ,1         ,1             ,3.027                ,GPS-3.0       ,5           ,0.165     ,0.159     ,0.363     ,0.769  ,1.635  ,0       ,4                 ,11        ,4             ,0           ,0         ,4          ,           ,           ,           ,           ,           ,           ,           ,           ,           ,           ,0                     ,000000                     ,                 ,                 ,                 ,
