#0:imgID ,1:camSN   ,2:lat       ,3:lon         ,4:height     ,5:roll       ,6:pitch      ,7:heading     ,8:speed,9:speed_n,10:speed_e,11:speed_d,12:date   ,13:time        ,14:unix_time_sec,15:unix_time_microsec,16:systemStatus,17:filterStatus,18:haveFix,19:extVelocity,20:distancetoprevious,21:releaseMode,22:device_id,23:lat_dev,24:lon_dev,25:hei_dev,26:hdop,27:vdop,28:fs_10,29:gnss_fix_status,30:gps_sat,31:glonass_sat,32:beidu_sat,33:gal_sat,34:sbas_sat,35:custLog0,36:custLog1,37:custLog2,38:custLog3,39:custLog4,40:custLog5,41:custLog6,42:custLog7,43:custLog8,44:custLog9,45:unix_time_sec_fixed,46:unix_time_microsec_fixed,47:pnvgbss_field3,48:pnvgbss_field4,49:pnvgbss_field5,50:pnvgbss_field6,51:pnvgbss_field7
000000001,01932-0007,2.4401177619,102.6908868317,30.2665538788,0,0,186.2596274965,16.749 ,-4.622   ,-0.532    ,0.043     ,2021-08-05,02:20:07.700000,1628130007      ,700000               ,0000           ,5A4F           ,1         ,1             ,0.000                ,GPS-3.0       ,5           ,0.122     ,0.153     ,0.347     ,0.797  ,1.759  ,0       ,4                 ,11        ,5             ,0           ,0         ,4          ,           ,           ,           ,           ,           ,           ,           ,           ,           ,           ,0                     ,000000                     ,                 ,                 ,                 ,
000000002,01932-0007,2.4400902693,102.6908845385,30.4221363068,0,0,182.4866583197,16.206 ,-4.498   ,-0.172    ,0.049     ,2021-08-05,02:20:08.349997,1628130008      ,349997               ,0000           ,5A4F           ,1         ,1             ,3.068                ,GPS-3.0       ,5           ,0.118     ,0.151     ,0.339     ,0.797  ,1.759  ,0       ,4                 ,11        ,5             ,0           ,0         ,4          ,           ,           ,           ,           ,           ,           ,           ,           ,           ,           ,0                     ,000000                     ,                 ,                 ,                 ,
000000003,01932-0007,2.4400623217,102.6908853946,30.6237010956,0,0,175.9126422247,15.097 ,-4.171   ,0.434     ,0.015     ,2021-08-05,02:20:09.050000,1628130009      ,050000               ,0000           ,5A4F           ,1         ,1             ,3.109                ,GPS-3.0       ,5           ,0.115     ,0.149     ,0.332     ,0.797  ,1.759  ,0       ,4                 ,11        ,5             ,0           ,0         ,4          ,           ,           ,           ,           ,           ,           ,           ,           ,           ,           ,0                     ,000000                     ,                 ,                 ,                 ,
000000004,01932-0007,2.4400349607,102.6908902238,30.7202568054,0,0,167.8031586231,14.006 ,-3.764   ,0.984     ,-0.023    ,2021-08-05,02:20:09.800002,1628130009      ,800002               ,0000           ,5A4F           ,1         ,1             ,3.089                ,GPS-3.0       ,5           ,0.113     ,0.147     ,0.328     ,0.876  ,2.071  ,0       ,4                 ,11        ,5             ,0           ,0         ,4          ,           ,           ,           ,           ,           ,           ,           ,           ,           ,           ,0                     ,000000                     ,                 ,                 ,                 ,
000000005,01932-0007,2.4400091756,102.6908994894,30.8884105682,0,0,158.4290245156,13.446 ,-3.400   ,1.547     ,-0.051    ,2021-08-05,02:20:10.600003,1628130010      ,600003               ,0000           ,5A4F           ,1         ,1             ,3.046                ,GPS-3.0       ,5           ,0.110     ,0.145     ,0.322     ,0.876  ,2.071  ,0       ,4                 ,11        ,5             ,0           ,0         ,4          ,           ,           ,           ,           ,           ,           ,           ,           ,           ,           ,0                     ,000000                     ,                 ,                 ,                 ,
000000006,01932-0007,2.4399853490,102.6909138196,31.0795059204,0,0,146.2766973028,12.484 ,-2.831   ,2.002     ,-0.056    ,2021-08-05,02:20:11.449996,1628130011      ,449996               ,0000           ,5A4F           ,1         ,1             ,3.091                ,GPS-3.0       ,5           ,0.108     ,0.143     ,0.317     ,0.876  ,2.071  ,0       ,4                 ,11        ,5             ,0           ,0         ,4          ,           ,           ,           ,           ,           ,           ,           ,           ,           ,           ,0                     ,000000                     ,                 ,                 ,                 ,
000000007,01932-0007,2.4399653737,102.6909329478,31.3034687042,0,0,132.7489885572,11.319 ,-2.069   ,2.367     ,-0.252    ,2021-08-05,02:20:12.400009,1628130012      ,400009               ,0000           ,5A6F           ,1         ,1             ,3.074                ,GPS-3.0       ,5           ,0.108     ,0.143     ,0.315     ,0.876  ,2.071  ,0       ,6                 ,11        ,5             ,0           ,0         ,3          ,           ,           ,           ,           ,           ,           ,           ,           ,           ,           ,0                     ,000000                     ,                 ,                 ,                 ,
000000008,01932-0007,2.4399516051,102.6909565282,31.6601333618,0,0,119.0143797213,11.074 ,-1.266   ,2.804     ,-0.235    ,2021-08-05,02:20:13.449996,1628130013      ,449996               ,0000           ,5A4F           ,1         ,1             ,3.034                ,GPS-3.0       ,5           ,0.107     ,0.141     ,0.312     ,0.876  ,2.071  ,0       ,4                 ,11        ,5             ,0           ,0         ,3          ,           ,           ,           ,           ,           ,           ,           ,           ,           ,           ,0                     ,000000                     ,                 ,                 ,                 ,
000000009,01932-0007,2.4399427290,102.6909833071,31.8919525146,0,0,106.5552472412,10.887 ,-0.630   ,2.958     ,-0.123    ,2021-08-05,02:20:14.500000,1628130014      ,500000               ,0000           ,5A4F           ,1         ,1             ,3.134                ,GPS-3.0       ,5           ,0.107     ,0.141     ,0.308     ,0.876  ,2.071  ,0       ,4                 ,11        ,5             ,0           ,0         ,2          ,           ,           ,           ,           ,           ,           ,           ,           ,           ,           ,0                     ,000000                     ,                 ,                 ,                 ,
000000010,01932-0007,2.4399376434,102.6910108054,32.1287574768,0,0,100.6403375709,10.431 ,-1.041   ,2.704     ,-0.225    ,2021-08-05,02:20:15.549996,1628130015      ,549996               ,0000           ,5A4F           ,1         ,1             ,3.107                ,GPS-3.0       ,5           ,0.109     ,0.142     ,0.311     ,0.876  ,2.071  ,0       ,4                 ,11        ,5             ,0           ,0         ,2          ,           ,           ,           ,           ,           ,           ,           ,           ,           ,           ,0                     ,000000                     ,                 ,                 ,                 ,
000000011,01932-0007,2.4399349024,102.6910387102,32.2484703064,0,0,95.6008464163 ,10.411 ,-0.324   ,2.874     ,-0.154    ,2021-08-05,02:20:16.850095,1628130016      ,850095               ,0000           ,5A4F           ,1         ,1             ,3.115                ,GPS-3.0       ,5           ,0.114     ,0.145     ,0.315     ,0.876  ,2.071  ,0       ,4                 ,11        ,5             ,0           ,0         ,1          ,           ,           ,           ,           ,           ,           ,           ,           ,           ,           ,0                     ,000000                     ,                 ,                 ,                 ,
000000012,01932-0007,2.4399325128,102.6910663200,32.3454933167,0,0,93.6925803547 ,12.205 ,-0.201   ,3.384     ,-0.165    ,2021-08-05,02:20:17.800002,1628130017      ,800002               ,0000           ,5A4F           ,1         ,1             ,3.079                ,GPS-3.0       ,5           ,0.116     ,0.147     ,0.318     ,1.052  ,1.852  ,0       ,4                 ,11        ,5             ,0           ,0         ,0          ,           ,           ,           ,           ,           ,           ,           ,           ,           ,           ,0                     ,000000                     ,                 ,                 ,                 ,
000000013,01932-0007,2.4399298568,102.6910938561,32.4159240723,0,0,94.5542087185 ,12.446 ,-0.304   ,3.444     ,-0.091    ,2021-08-05,02:20:18.700000,1628130018      ,700000               ,0000           ,5A4F           ,1         ,1             ,3.073                ,GPS-3.0       ,5           ,0.119     ,0.149     ,0.321     ,0.797  ,1.760  ,0       ,4                 ,11        ,5             ,0           ,0         ,0          ,           ,           ,           ,           ,           ,           ,           ,           ,           ,           ,0                     ,000000                     ,                 ,                 ,                 ,
000000014,01932-0007,2.4399274289,102.6911213683,32.3850593567,0,0,95.1929953304 ,14.272 ,-0.304   ,3.953     ,-0.056    ,2021-08-05,02:20:19.500126,1628130019      ,500126               ,0000           ,5A4F           ,1         ,1             ,3.068                ,GPS-3.0       ,5           ,0.122     ,0.151     ,0.324     ,0.876  ,2.071  ,0       ,4                 ,11        ,5             ,0           ,0         ,0          ,           ,           ,           ,           ,           ,           ,           ,           ,           ,           ,0                     ,000000                     ,                 ,                 ,                 ,
000000015,01932-0007,2.4399233110,102.6911487998,32.6270866394,0,0,96.2850059749 ,15.499 ,-0.510   ,4.275     ,-0.187    ,2021-08-05,02:20:20.249996,1628130020      ,249996               ,0000           ,5A4F           ,1         ,1             ,3.082                ,GPS-3.0       ,5           ,0.124     ,0.153     ,0.326     ,0.884  ,1.765  ,0       ,4                 ,11        ,5             ,0           ,0         ,1          ,           ,           ,           ,           ,           ,           ,           ,           ,           ,           ,0                     ,000000                     ,                 ,                 ,                 ,
000000016,01932-0007,2.4399199409,102.6911760394,32.7683868408,0,0,96.4873434989 ,15.914 ,-0.523   ,4.390     ,-0.177    ,2021-08-05,02:20:20.950004,1628130020      ,950004               ,0000           ,5A4F           ,1         ,1             ,3.049                ,GPS-3.0       ,5           ,0.126     ,0.154     ,0.328     ,1.052  ,1.853  ,0       ,4                 ,11        ,5             ,0           ,0         ,1          ,           ,           ,           ,           ,           ,           ,           ,           ,           ,           ,0                     ,000000                     ,                 ,                 ,                 ,
000000017,01932-0007,2.4399169569,102.6912035038,32.8119697571,0,0,96.4404610804 ,16.088 ,-0.435   ,4.448     ,-0.109    ,2021-08-05,02:20:21.649996,1628130021      ,649996               ,0000           ,5A4F           ,1         ,1             ,3.069                ,GPS-3.0       ,5           ,0.127     ,0.155     ,0.329     ,0.884  ,1.766  ,0       ,4                 ,10        ,5             ,0           ,0         ,2          ,           ,           ,           ,           ,           ,           ,           ,           ,           ,           ,0                     ,000000                     ,                 ,                 ,                 ,
000000018,01932-0007,2.4399141678,102.6912304886,32.9796409607,0,0,96.1834683827 ,16.870 ,-0.434   ,4.666     ,-0.174    ,2021-08-05,02:20:22.299999,1628130022      ,299999               ,0000           ,5A4F           ,1         ,1             ,3.014                ,GPS-3.0       ,5           ,0.130     ,0.158     ,0.331     ,1.102  ,1.863  ,0       ,4                 ,10        ,5             ,0           ,0         ,2          ,           ,           ,           ,           ,           ,           ,           ,           ,           ,           ,0                     ,000000                     ,                 ,                 ,                 ,
000000019,01932-0007,2.4399105364,102.6912579314,33.1545753479,0,0,96.9477938716 ,17.307 ,-0.577   ,4.773     ,-0.132    ,2021-08-05,02:20:22.949995,1628130022      ,949995               ,0000           ,5A4F           ,1         ,1             ,3.075                ,GPS-3.0       ,5           ,0.132     ,0.159     ,0.331     ,1.260  ,2.169  ,0       ,4                 ,10        ,5             ,0           ,0         ,2          ,           ,           ,           ,           ,           ,           ,           ,           ,           ,           ,0                     ,000000                     ,                 ,                 ,                 ,
000000020,01932-0007,2.4399052197,102.6912850167,33.2618064880,0,0,98.0871991988 ,16.982 ,-0.751   ,4.657     ,-0.075    ,2021-08-05,02:20:23.600042,1628130023      ,600042               ,0000           ,5A4F           ,1         ,1             ,3.067                ,GPS-3.0       ,5           ,0.133     ,0.160     ,0.332     ,1.052  ,1.853  ,0       ,4                 ,11        ,5             ,0           ,0         ,1          ,           ,           ,           ,           ,           ,           ,           ,           ,           ,           ,0                     ,000000                     ,                 ,                 ,                 ,
000000021,01932-0007,2.4399003602,102.6913128809,33.4042243958,0,0,98.5262096077 ,17.215 ,-0.858   ,4.704     ,-0.127    ,2021-08-05,02:20:24.250151,1628130024      ,250151               ,0000           ,5A4F           ,1         ,1             ,3.142                ,GPS-3.0       ,5           ,0.134     ,0.160     ,0.332     ,0.797  ,1.760  ,0       ,4                 ,11        ,5             ,0           ,0         ,1          ,           ,           ,           ,           ,           ,           ,           ,           ,           ,           ,0                     ,000000                     ,                 ,                 ,                 ,
000000022,01932-0007,2.4398960298,102.6913414628,33.5872421265,0,0,98.3266588009 ,16.892 ,-0.683   ,4.642     ,-0.150    ,2021-08-05,02:20:24.900260,1628130024      ,900260               ,0000           ,5A4F           ,1         ,1             ,3.212                ,GPS-3.0       ,5           ,0.135     ,0.161     ,0.331     ,0.864  ,1.767  ,0       ,4                 ,11        ,5             ,0           ,0         ,1          ,           ,           ,           ,           ,           ,           ,           ,           ,           ,           ,0                     ,000000                     ,                 ,                 ,                 ,
000000023,01932-0007,2.4398918605,102.6913682928,33.7343482971,0,0,98.2209138122 ,16.235 ,-0.679   ,4.458     ,-0.169    ,2021-08-05,02:20:25.549995,1628130025      ,549995               ,0000           ,5A4F           ,1         ,1             ,3.017                ,GPS-3.0       ,5           ,0.136     ,0.162     ,0.332     ,0.847  ,1.841  ,0       ,4                 ,11        ,4             ,0           ,0         ,2          ,           ,           ,           ,           ,           ,           ,           ,           ,           ,           ,0                     ,000000                     ,                 ,                 ,                 ,
000000024,01932-0007,2.4398877863,102.6913954841,33.8523597717,0,0,98.2154223401 ,15.561 ,-0.617   ,4.278     ,-0.140    ,2021-08-05,02:20:26.250066,1628130026      ,250066               ,0000           ,5A4F           ,1         ,1             ,3.055                ,GPS-3.0       ,5           ,0.137     ,0.163     ,0.332     ,0.797  ,1.760  ,0       ,4                 ,11        ,5             ,0           ,0         ,2          ,           ,           ,           ,           ,           ,           ,           ,           ,           ,           ,0                     ,000000                     ,                 ,                 ,                 ,
000000025,01932-0007,2.4398843445,102.6914239536,33.9335098267,0,0,97.6121800326 ,15.965 ,-0.558   ,4.400     ,-0.125    ,2021-08-05,02:20:27.000273,1628130027      ,000273               ,0000           ,5A4F           ,1         ,1             ,3.186                ,GPS-3.0       ,5           ,0.138     ,0.164     ,0.333     ,0.942  ,1.864  ,0       ,4                 ,11        ,5             ,0           ,0         ,2          ,           ,           ,           ,           ,           ,           ,           ,           ,           ,           ,0                     ,000000                     ,                 ,                 ,                 ,
000000026,01932-0007,2.4398802203,102.6914514586,34.0124168396,0,0,97.5464462920 ,16.415 ,-0.579   ,4.523     ,-0.080    ,2021-08-05,02:20:27.699998,1628130027      ,699998               ,0000           ,5A4F           ,1         ,1             ,3.090                ,GPS-3.0       ,5           ,0.139     ,0.164     ,0.332     ,0.891  ,1.819  ,0       ,4                 ,11        ,5             ,0           ,0         ,3          ,           ,           ,           ,           ,           ,           ,           ,           ,           ,           ,0                     ,000000                     ,                 ,                 ,                 ,
000000027,01932-0007,2.4398762106,102.6914794561,34.1652107239,0,0,97.6607973191 ,17.858 ,-0.680   ,4.914     ,-0.108    ,2021-08-05,02:20:28.350061,1628130028      ,350061               ,0000           ,5A4F           ,1         ,1             ,3.142                ,GPS-3.0       ,5           ,0.139     ,0.164     ,0.330     ,0.891  ,1.819  ,0       ,4                 ,11        ,5             ,0           ,0         ,3          ,           ,           ,           ,           ,           ,           ,           ,           ,           ,           ,0                     ,000000                     ,                 ,                 ,                 ,
000000028,01932-0007,2.4398724779,102.6915073071,34.3018379211,0,0,97.7612625716 ,19.219 ,-0.699   ,5.293     ,-0.119    ,2021-08-05,02:20:28.949995,1628130028      ,949995               ,0000           ,5A4F           ,1         ,1             ,3.122                ,GPS-3.0       ,5           ,0.139     ,0.164     ,0.330     ,0.797  ,1.760  ,0       ,4                 ,11        ,5             ,0           ,0         ,3          ,           ,           ,           ,           ,           ,           ,           ,           ,           ,           ,0                     ,000000                     ,                 ,                 ,                 ,
000000029,01932-0007,2.4398686318,102.6915344057,34.4752426147,0,0,97.9133299033 ,20.408 ,-0.847   ,5.605     ,-0.151    ,2021-08-05,02:20:29.499999,1628130029      ,499999               ,0000           ,5A4F           ,1         ,1             ,3.041                ,GPS-3.0       ,5           ,0.138     ,0.162     ,0.325     ,0.797  ,1.760  ,0       ,4                 ,11        ,5             ,0           ,0         ,3          ,           ,           ,           ,           ,           ,           ,           ,           ,           ,           ,0                     ,000000                     ,                 ,                 ,                 ,
000000030,01932-0007,2.4398646414,102.6915628911,34.6631202698,0,0,98.0367855725 ,20.926 ,-0.709   ,5.769     ,-0.181    ,2021-08-05,02:20:30.049995,1628130030      ,049995               ,0000           ,5A4F           ,1         ,1             ,3.196                ,GPS-3.0       ,5           ,0.137     ,0.160     ,0.321     ,0.847  ,1.841  ,0       ,4                 ,11        ,5             ,0           ,0         ,3          ,           ,           ,           ,           ,           ,           ,           ,           ,           ,           ,0                     ,000000                     ,                 ,                 ,                 ,
000000031,01932-0007,2.4398609327,102.6915921045,34.9321250916,0,0,98.0928819162 ,21.276 ,-0.775   ,5.859     ,-0.201    ,2021-08-05,02:20:30.600002,1628130030      ,600002               ,0000           ,5A4F           ,1         ,1             ,3.272                ,GPS-3.0       ,5           ,0.135     ,0.157     ,0.311     ,0.797  ,1.760  ,0       ,4                 ,11        ,5             ,0           ,0         ,3          ,           ,           ,           ,           ,           ,           ,           ,           ,           ,           ,0                     ,000000                     ,                 ,                 ,                 ,
000000032,01932-0007,2.4398574987,102.6916190554,35.0694046021,0,0,98.2054161129 ,21.720 ,-0.831   ,5.976     ,-0.222    ,2021-08-05,02:20:31.100192,1628130031      ,100192               ,0000           ,5A4F           ,1         ,1             ,3.018                ,GPS-3.0       ,5           ,0.134     ,0.157     ,0.311     ,0.797  ,1.760  ,0       ,4                 ,11        ,5             ,0           ,0         ,3          ,           ,           ,           ,           ,           ,           ,           ,           ,           ,           ,0                     ,000000                     ,                 ,                 ,                 ,
000000033,01932-0007,2.4398538583,102.6916461990,35.1920204163,0,0,98.2642991738 ,21.739 ,-0.833   ,5.981     ,-0.181    ,2021-08-05,02:20:31.600002,1628130031      ,600002               ,0000           ,5A4F           ,1         ,1             ,3.043                ,GPS-3.0       ,5           ,0.134     ,0.155     ,0.310     ,0.797  ,1.760  ,0       ,4                 ,11        ,5             ,0           ,0         ,3          ,           ,           ,           ,           ,           ,           ,           ,           ,           ,           ,0                     ,000000                     ,                 ,                 ,                 ,
000000034,01932-0007,2.4398502063,102.6916731669,35.2669258118,0,0,98.2121643398 ,21.290 ,-0.760   ,5.865     ,-0.101    ,2021-08-05,02:20:32.100142,1628130032      ,100142               ,0000           ,5A4F           ,1         ,1             ,3.023                ,GPS-3.0       ,5           ,0.133     ,0.155     ,0.310     ,0.797  ,1.760  ,0       ,4                 ,11        ,5             ,0           ,0         ,3          ,           ,           ,           ,           ,           ,           ,           ,           ,           ,           ,0                     ,000000                     ,                 ,                 ,                 ,
000000035,01932-0007,2.4398468136,102.6917000968,35.4311485291,0,0,98.0007836454 ,21.628 ,-0.756   ,5.960     ,-0.177    ,2021-08-05,02:20:32.600003,1628130032      ,600003               ,0000           ,5A4F           ,1         ,1             ,3.015                ,GPS-3.0       ,5           ,0.130     ,0.152     ,0.305     ,0.797  ,1.761  ,0       ,4                 ,11        ,4             ,0           ,0         ,3          ,           ,           ,           ,           ,           ,           ,           ,           ,           ,           ,0                     ,000000                     ,                 ,                 ,                 ,
000000036,01932-0007,2.4398433596,102.6917271315,35.5567703247,0,0,97.7336890979 ,21.583 ,-0.755   ,5.947     ,-0.183    ,2021-08-05,02:20:33.100100,1628130033      ,100100               ,0000           ,5A4F           ,1         ,1             ,3.028                ,GPS-3.0       ,5           ,0.130     ,0.151     ,0.304     ,0.797  ,1.761  ,0       ,4                 ,11        ,4             ,0           ,0         ,3          ,           ,           ,           ,           ,           ,           ,           ,           ,           ,           ,0                     ,000000                     ,                 ,                 ,                 ,
000000037,01932-0007,2.4398398210,102.6917542275,35.6825447083,0,0,97.6827973584 ,21.686 ,-0.797   ,5.971     ,-0.211    ,2021-08-05,02:20:33.600002,1628130033      ,600002               ,0000           ,5A4F           ,1         ,1             ,3.036                ,GPS-3.0       ,5           ,0.130     ,0.151     ,0.304     ,0.797  ,1.761  ,0       ,4                 ,10        ,4             ,0           ,0         ,3          ,           ,           ,           ,           ,           ,           ,           ,           ,           ,           ,0                     ,000000                     ,                 ,                 ,                 ,
000000038,01932-0007,2.4398364453,102.6917818480,35.8710670471,0,0,97.6826607546 ,22.097 ,-0.843   ,6.080     ,-0.242    ,2021-08-05,02:20:34.100061,1628130034      ,100061               ,0000           ,5A4F           ,1         ,1             ,3.091                ,GPS-3.0       ,5           ,0.129     ,0.148     ,0.300     ,0.797  ,1.761  ,0       ,4                 ,10        ,4             ,0           ,0         ,3          ,           ,           ,           ,           ,           ,           ,           ,           ,           ,           ,0                     ,000000                     ,                 ,                 ,                 ,
000000039,01932-0007,2.4398331288,102.6918096390,36.1006431580,0,0,97.6824080376 ,21.916 ,-0.904   ,6.020     ,-0.236    ,2021-08-05,02:20:34.600003,1628130034      ,600003               ,0000           ,5A4F           ,1         ,1             ,3.109                ,GPS-3.0       ,5           ,0.125     ,0.145     ,0.294     ,0.797  ,1.761  ,0       ,4                 ,10        ,4             ,0           ,0         ,4          ,           ,           ,           ,           ,           ,           ,           ,           ,           ,           ,0                     ,000000                     ,                 ,                 ,                 ,
000000040,01932-0007,2.4398295088,102.6918372264,36.2932281494,0,0,97.7438455892 ,22.109 ,-0.842   ,6.083     ,-0.262    ,2021-08-05,02:20:35.100026,1628130035      ,100026               ,0000           ,5A4F           ,1         ,1             ,3.091                ,GPS-3.0       ,5           ,0.125     ,0.143     ,0.292     ,0.797  ,1.761  ,0       ,4                 ,10        ,4             ,0           ,0         ,4          ,           ,           ,           ,           ,           ,           ,           ,           ,           ,           ,0                     ,000000                     ,                 ,                 ,                 ,
000000041,01932-0007,2.4398259988,102.6918650761,36.5347213745,0,0,97.7087725678 ,21.939 ,-0.799   ,6.042     ,-0.246    ,2021-08-05,02:20:35.600002,1628130035      ,600002               ,0000           ,5A4F           ,1         ,1             ,3.118                ,GPS-3.0       ,5           ,0.122     ,0.140     ,0.286     ,0.797  ,1.761  ,0       ,4                 ,10        ,4             ,0           ,0         ,4          ,           ,           ,           ,           ,           ,           ,           ,           ,           ,           ,0                     ,000000                     ,                 ,                 ,                 ,
000000042,01932-0007,2.4398225283,102.6918927427,36.7594299316,0,0,97.7581138544 ,22.052 ,-0.841   ,6.068     ,-0.263    ,2021-08-05,02:20:36.099999,1628130036      ,099999               ,0000           ,5A4F           ,1         ,1             ,3.098                ,GPS-3.0       ,5           ,0.120     ,0.138     ,0.282     ,0.797  ,1.761  ,0       ,4                 ,10        ,4             ,0           ,0         ,4          ,           ,           ,           ,           ,           ,           ,           ,           ,           ,           ,0                     ,000000                     ,                 ,                 ,                 ,
000000043,01932-0007,2.4398189305,102.6919199642,36.8998718262,0,0,97.8959743926 ,21.627 ,-0.774   ,5.957     ,-0.218    ,2021-08-05,02:20:36.600003,1628130036      ,600003               ,0000           ,5A4F           ,1         ,1             ,3.050                ,GPS-3.0       ,5           ,0.121     ,0.138     ,0.283     ,0.797  ,1.761  ,0       ,4                 ,10        ,4             ,0           ,0         ,4          ,           ,           ,           ,           ,           ,           ,           ,           ,           ,           ,0                     ,000000                     ,                 ,                 ,                 ,
000000044,01932-0007,2.4398150261,102.6919491123,37.0437850952,0,0,98.0925608973 ,21.316 ,-0.718   ,5.877     ,-0.225    ,2021-08-05,02:20:37.149996,1628130037      ,149996               ,0000           ,5A4F           ,1         ,1             ,3.267                ,GPS-3.0       ,5           ,0.121     ,0.138     ,0.283     ,0.797  ,1.761  ,0       ,4                 ,10        ,4             ,0           ,0         ,4          ,           ,           ,           ,           ,           ,           ,           ,           ,           ,           ,0                     ,000000                     ,                 ,                 ,                 ,
000000045,01932-0007,2.4398110505,102.6919776247,37.2688598633,0,0,98.2799403070 ,20.913 ,-0.850   ,5.747     ,-0.253    ,2021-08-05,02:20:37.700000,1628130037      ,700000               ,0000           ,5A4F           ,1         ,1             ,3.198                ,GPS-3.0       ,5           ,0.120     ,0.136     ,0.280     ,0.797  ,1.761  ,0       ,4                 ,10        ,4             ,0           ,0         ,4          ,           ,           ,           ,           ,           ,           ,           ,           ,           ,           ,0                     ,000000                     ,                 ,                 ,                 ,
000000046,01932-0007,2.4398067985,102.6920058888,37.4888114929,0,0,98.5348839479 ,20.840 ,-0.943   ,5.711     ,-0.239    ,2021-08-05,02:20:38.249996,1628130038      ,249996               ,0000           ,5A4F           ,1         ,1             ,3.175                ,GPS-3.0       ,5           ,0.119     ,0.134     ,0.277     ,0.797  ,1.761  ,0       ,4                 ,10        ,4             ,0           ,0         ,4          ,           ,           ,           ,           ,           ,           ,           ,           ,           ,           ,0                     ,000000                     ,                 ,                 ,                 ,
000000047,01932-0007,2.4398024997,102.6920342509,37.7122230530,0,0,98.6954070538 ,20.776 ,-0.860   ,5.707     ,-0.240    ,2021-08-05,02:20:38.800002,1628130038      ,800002               ,0000           ,5A4F           ,1         ,1             ,3.187                ,GPS-3.0       ,5           ,0.118     ,0.132     ,0.274     ,0.797  ,1.761  ,0       ,4                 ,10        ,4             ,0           ,0         ,4          ,           ,           ,           ,           ,           ,           ,           ,           ,           ,           ,0                     ,000000                     ,                 ,                 ,                 ,
000000048,01932-0007,2.4397981358,102.6920622786,37.8913116455,0,0,98.8444622721 ,20.649 ,-0.785   ,5.682     ,-0.276    ,2021-08-05,02:20:39.349996,1628130039      ,349996               ,0000           ,5A4F           ,1         ,1             ,3.151                ,GPS-3.0       ,5           ,0.118     ,0.133     ,0.274     ,0.797  ,1.761  ,0       ,4                 ,9         ,4             ,0           ,0         ,4          ,           ,           ,           ,           ,           ,           ,           ,           ,           ,           ,0                     ,000000                     ,                 ,                 ,                 ,
000000049,01932-0007,2.4397940414,102.6920902437,38.0347480774,0,0,98.7615915869 ,19.922 ,-0.855   ,5.467     ,-0.196    ,2021-08-05,02:20:39.900000,1628130039      ,900000               ,0000           ,5A4F           ,1         ,1             ,3.140                ,GPS-3.0       ,5           ,0.118     ,0.133     ,0.274     ,0.797  ,1.761  ,0       ,4                 ,9         ,4             ,0           ,0         ,4          ,           ,           ,           ,           ,           ,           ,           ,           ,           ,           ,0                     ,000000                     ,                 ,                 ,                 ,
000000050,01932-0007,2.4397899596,102.6921172486,38.1780319214,0,0,98.7270171693 ,19.208 ,-0.846   ,5.268     ,-0.186    ,2021-08-05,02:20:40.449996,1628130040      ,449996               ,0000           ,5A4F           ,1         ,1             ,3.034                ,GPS-3.0       ,5           ,0.118     ,0.132     ,0.274     ,0.797  ,1.761  ,0       ,4                 ,9         ,4             ,0           ,0         ,4          ,           ,           ,           ,           ,           ,           ,           ,           ,           ,           ,0                     ,000000                     ,                 ,                 ,                 ,
000000051,01932-0007,2.4397855988,102.6921454132,38.3437423706,0,0,98.5509417227 ,18.397 ,-0.781   ,5.050     ,-0.174    ,2021-08-05,02:20:41.050169,1628130041      ,050169               ,0000           ,5A4F           ,1         ,1             ,3.166                ,GPS-3.0       ,5           ,0.117     ,0.131     ,0.273     ,0.797  ,1.761  ,0       ,4                 ,9         ,4             ,0           ,0         ,4          ,           ,           ,           ,           ,           ,           ,           ,           ,           ,           ,0                     ,000000                     ,                 ,                 ,                 ,
000000052,01932-0007,2.4397817162,102.6921721435,38.4949531555,0,0,98.2141519249 ,17.434 ,-0.733   ,4.787     ,-0.165    ,2021-08-05,02:20:41.649996,1628130041      ,649996               ,0000           ,5A4F           ,1         ,1             ,3.001                ,GPS-3.0       ,5           ,0.117     ,0.131     ,0.272     ,0.797  ,1.761  ,0       ,4                 ,9         ,4             ,0           ,0         ,4          ,           ,           ,           ,           ,           ,           ,           ,           ,           ,           ,0                     ,000000                     ,                 ,                 ,                 ,
000000053,01932-0007,2.4397778394,102.6921992055,38.6712303162,0,0,98.1200592389 ,16.281 ,-0.770   ,4.456     ,-0.214    ,2021-08-05,02:20:42.300000,1628130042      ,300000               ,0000           ,5A4F           ,1         ,1             ,3.037                ,GPS-3.0       ,5           ,0.117     ,0.131     ,0.272     ,0.797  ,1.761  ,0       ,4                 ,9         ,4             ,0           ,0         ,4          ,           ,           ,           ,           ,           ,           ,           ,           ,           ,           ,0                     ,000000                     ,                 ,                 ,                 ,
000000054,01932-0007,2.4397739236,102.6922269404,38.8710975647,0,0,97.8045386502 ,14.101 ,-0.584   ,3.873     ,0.283     ,2021-08-05,02:20:43.000010,1628130043      ,000010               ,0000           ,5A4F           ,1         ,1             ,3.112                ,GPS-3.0       ,5           ,0.116     ,0.130     ,0.268     ,0.797  ,1.761  ,0       ,4                 ,9         ,4             ,0           ,0         ,4          ,           ,           ,           ,           ,           ,           ,           ,           ,           ,           ,0                     ,000000                     ,                 ,                 ,                 ,
000000055,01932-0007,2.4397701096,102.6922549783,38.9994773865,0,0,97.5261333094 ,15.843 ,-0.467   ,4.376     ,-0.094    ,2021-08-05,02:20:43.749996,1628130043      ,749996               ,0000           ,5A4F           ,1         ,1             ,3.144                ,GPS-3.0       ,5           ,0.116     ,0.130     ,0.268     ,0.797  ,1.761  ,0       ,4                 ,9         ,4             ,0           ,0         ,4          ,           ,           ,           ,           ,           ,           ,           ,           ,           ,           ,0                     ,000000                     ,                 ,                 ,                 ,
000000056,01932-0007,2.4397667026,102.6922832960,39.1273193359,0,0,97.1444896593 ,17.114 ,-0.533   ,4.724     ,-0.119    ,2021-08-05,02:20:44.449996,1628130044      ,449996               ,0000           ,5A4F           ,1         ,1             ,3.169                ,GPS-3.0       ,5           ,0.117     ,0.131     ,0.269     ,0.797  ,1.761  ,0       ,4                 ,9         ,4             ,0           ,0         ,4          ,           ,           ,           ,           ,           ,           ,           ,           ,           ,           ,0                     ,000000                     ,                 ,                 ,                 ,
000000057,01932-0007,2.4397631608,102.6923123868,39.3179397583,0,0,97.1952379649 ,19.087 ,-0.609   ,5.267     ,-0.209    ,2021-08-05,02:20:45.100000,1628130045      ,100000               ,0000           ,5A4F           ,1         ,1             ,3.256                ,GPS-3.0       ,5           ,0.117     ,0.131     ,0.268     ,0.797  ,1.761  ,0       ,4                 ,9         ,4             ,0           ,0         ,4          ,           ,           ,           ,           ,           ,           ,           ,           ,           ,           ,0                     ,000000                     ,                 ,                 ,                 ,
000000058,01932-0007,2.4397598055,102.6923392178,39.4454612732,0,0,97.2746252536 ,20.248 ,-0.684   ,5.583     ,-0.182    ,2021-08-05,02:20:45.649996,1628130045      ,649996               ,0000           ,5A4F           ,1         ,1             ,3.004                ,GPS-3.0       ,5           ,0.117     ,0.130     ,0.268     ,0.797  ,1.761  ,0       ,4                 ,9         ,4             ,0           ,0         ,4          ,           ,           ,           ,           ,           ,           ,           ,           ,           ,           ,0                     ,000000                     ,                 ,                 ,                 ,
000000059,01932-0007,2.4397560737,102.6923679144,39.5567016602,0,0,97.3901032619 ,21.556 ,-0.758   ,5.940     ,-0.219    ,2021-08-05,02:20:46.200003,1628130046      ,200003               ,0000           ,5A4F           ,1         ,1             ,3.215                ,GPS-3.0       ,5           ,0.117     ,0.130     ,0.267     ,0.797  ,1.761  ,0       ,4                 ,10        ,4             ,0           ,0         ,4          ,           ,           ,           ,           ,           ,           ,           ,           ,           ,           ,0                     ,000000                     ,                 ,                 ,                 ,
000000060,01932-0007,2.4397526480,102.6923951279,39.7500190735,0,0,97.3889011486 ,21.791 ,-0.790   ,6.001     ,-0.182    ,2021-08-05,02:20:46.700057,1628130046      ,700057               ,0000           ,5A4F           ,1         ,1             ,3.047                ,GPS-3.0       ,5           ,0.115     ,0.129     ,0.265     ,0.797  ,1.761  ,0       ,4                 ,10        ,4             ,0           ,0         ,4          ,           ,           ,           ,           ,           ,           ,           ,           ,           ,           ,0                     ,000000                     ,                 ,                 ,                 ,
000000061,01932-0007,2.4397491901,102.6924227841,39.9409751892,0,0,97.4399226617 ,22.371 ,-0.825   ,6.159     ,-0.234    ,2021-08-05,02:20:47.200002,1628130047      ,200002               ,0000           ,5A4F           ,1         ,1             ,3.096                ,GPS-3.0       ,5           ,0.114     ,0.127     ,0.262     ,0.797  ,1.761  ,0       ,4                 ,10        ,4             ,0           ,0         ,4          ,           ,           ,           ,           ,           ,           ,           ,           ,           ,           ,0                     ,000000                     ,                 ,                 ,                 ,
000000062,01932-0007,2.4397455183,102.6924509777,40.1431579590,0,0,97.5669300293 ,22.715 ,-0.830   ,6.255     ,-0.233    ,2021-08-05,02:20:47.700012,1628130047      ,700012               ,0000           ,5A4F           ,1         ,1             ,3.159                ,GPS-3.0       ,5           ,0.112     ,0.125     ,0.259     ,0.797  ,1.761  ,0       ,4                 ,10        ,4             ,0           ,0         ,4          ,           ,           ,           ,           ,           ,           ,           ,           ,           ,           ,0                     ,000000                     ,                 ,                 ,                 ,
000000063,01932-0007,2.4397418644,102.6924796085,40.3158683777,0,0,97.6310108641 ,22.909 ,-0.821   ,6.310     ,-0.210    ,2021-08-05,02:20:48.200003,1628130048      ,200003               ,0000           ,5A4F           ,1         ,1             ,3.207                ,GPS-3.0       ,5           ,0.111     ,0.124     ,0.257     ,0.797  ,1.761  ,0       ,4                 ,10        ,4             ,0           ,0         ,4          ,           ,           ,           ,           ,           ,           ,           ,           ,           ,           ,0                     ,000000                     ,                 ,                 ,                 ,
000000064,01932-0007,2.4397379641,102.6925082120,40.4919433594,0,0,97.7684411004 ,23.373 ,-0.903   ,6.429     ,-0.304    ,2021-08-05,02:20:48.700000,1628130048      ,700000               ,0000           ,5A4F           ,1         ,1             ,3.207                ,GPS-3.0       ,5           ,0.111     ,0.123     ,0.255     ,0.797  ,1.761  ,0       ,4                 ,10        ,4             ,0           ,0         ,4          ,           ,           ,           ,           ,           ,           ,           ,           ,           ,           ,0                     ,000000                     ,                 ,                 ,                 ,
000000065,01932-0007,2.4397339191,102.6925371461,40.7074775696,0,0,97.9712772282 ,23.414 ,-0.924   ,6.438     ,-0.303    ,2021-08-05,02:20:49.200003,1628130049      ,200003               ,0000           ,5A4F           ,1         ,1             ,3.246                ,GPS-3.0       ,5           ,0.110     ,0.121     ,0.252     ,0.797  ,1.761  ,0       ,4                 ,10        ,4             ,0           ,0         ,4          ,           ,           ,           ,           ,           ,           ,           ,           ,           ,           ,0                     ,000000                     ,                 ,                 ,                 ,
000000066,01932-0007,2.4397296496,102.6925662893,40.8998985291,0,0,98.1148409743 ,23.421 ,-0.911   ,6.442     ,-0.267    ,2021-08-05,02:20:49.700000,1628130049      ,700000               ,0000           ,5A4F           ,1         ,1             ,3.272                ,GPS-3.0       ,5           ,0.109     ,0.120     ,0.250     ,0.797  ,1.761  ,0       ,4                 ,10        ,4             ,0           ,0         ,4          ,           ,           ,           ,           ,           ,           ,           ,           ,           ,           ,0                     ,000000                     ,                 ,                 ,                 ,
000000067,01932-0007,2.4397252833,102.6925954583,41.1009407043,0,0,98.2477359650 ,23.730 ,-0.989   ,6.517     ,-0.291    ,2021-08-05,02:20:50.200002,1628130050      ,200002               ,0000           ,5A4F           ,1         ,1             ,3.277                ,GPS-3.0       ,5           ,0.108     ,0.118     ,0.247     ,0.797  ,1.761  ,0       ,4                 ,10        ,4             ,0           ,0         ,4          ,           ,           ,           ,           ,           ,           ,           ,           ,           ,           ,0                     ,000000                     ,                 ,                 ,                 ,
000000068,01932-0007,2.4397207515,102.6926248852,41.2978630066,0,0,98.3807470689 ,23.737 ,-0.981   ,6.520     ,-0.269    ,2021-08-05,02:20:50.699999,1628130050      ,699999               ,0000           ,5A4F           ,1         ,1             ,3.308                ,GPS-3.0       ,5           ,0.107     ,0.117     ,0.245     ,0.797  ,1.762  ,0       ,4                 ,10        ,4             ,0           ,0         ,4          ,           ,           ,           ,           ,           ,           ,           ,           ,           ,           ,0                     ,000000                     ,                 ,                 ,                 ,
000000069,01932-0007,2.4397163178,102.6926541222,41.4880828857,0,0,98.3531394443 ,23.448 ,-0.976   ,6.440     ,-0.292    ,2021-08-05,02:20:51.200002,1628130051      ,200002               ,0000           ,5A4F           ,1         ,1             ,3.285                ,GPS-3.0       ,5           ,0.106     ,0.116     ,0.243     ,0.848  ,1.842  ,0       ,4                 ,10        ,4             ,0           ,0         ,4          ,           ,           ,           ,           ,           ,           ,           ,           ,           ,           ,0                     ,000000                     ,                 ,                 ,                 ,
000000070,01932-0007,2.4397118800,102.6926832520,41.6500167847,0,0,98.5143045880 ,23.369 ,-1.060   ,6.404     ,-0.242    ,2021-08-05,02:20:51.700000,1628130051      ,700000               ,0000           ,5A4F           ,1         ,1             ,3.274                ,GPS-3.0       ,5           ,0.106     ,0.115     ,0.242     ,0.797  ,1.762  ,0       ,4                 ,10        ,4             ,0           ,0         ,4          ,           ,           ,           ,           ,           ,           ,           ,           ,           ,           ,0                     ,000000                     ,                 ,                 ,                 ,
000000071,01932-0007,2.4397074255,102.6927119790,41.7829818726,0,0,98.6337714267 ,23.332 ,-1.005   ,6.403     ,-0.219    ,2021-08-05,02:20:52.200027,1628130052      ,200027               ,0000           ,5A4F           ,1         ,1             ,3.230                ,GPS-3.0       ,5           ,0.106     ,0.116     ,0.243     ,0.797  ,1.762  ,0       ,4                 ,10        ,4             ,0           ,0         ,4          ,           ,           ,           ,           ,           ,           ,           ,           ,           ,           ,0                     ,000000                     ,                 ,                 ,                 ,
000000072,01932-0007,2.4397028559,102.6927410333,41.9314651489,0,0,98.4732483209 ,23.760 ,-1.053   ,6.516     ,-0.216    ,2021-08-05,02:20:52.700000,1628130052      ,700000               ,0000           ,5A4F           ,1         ,1             ,3.268                ,GPS-3.0       ,5           ,0.106     ,0.115     ,0.242     ,0.797  ,1.762  ,0       ,4                 ,10        ,4             ,0           ,0         ,4          ,           ,           ,           ,           ,           ,           ,           ,           ,           ,           ,0                     ,000000                     ,                 ,                 ,                 ,
000000073,01932-0007,2.4396986537,102.6927704003,42.0757598877,0,0,98.1534588639 ,23.870 ,-1.046   ,6.548     ,-0.261    ,2021-08-05,02:20:53.200257,1628130053      ,200257               ,0000           ,5A4F           ,1         ,1             ,3.296                ,GPS-3.0       ,5           ,0.106     ,0.115     ,0.242     ,0.797  ,1.762  ,0       ,4                 ,10        ,4             ,0           ,0         ,4          ,           ,           ,           ,           ,           ,           ,           ,           ,           ,           ,0                     ,000000                     ,                 ,                 ,                 ,
000000074,01932-0007,2.4396945253,102.6928000438,42.2193031311,0,0,97.5801601057 ,23.925 ,-0.882   ,6.587     ,-0.216    ,2021-08-05,02:20:53.700000,1628130053      ,700000               ,0000           ,5A4F           ,1         ,1             ,3.325                ,GPS-3.0       ,5           ,0.106     ,0.115     ,0.242     ,0.797  ,1.762  ,0       ,4                 ,10        ,4             ,0           ,0         ,4          ,           ,           ,           ,           ,           ,           ,           ,           ,           ,           ,0                     ,000000                     ,                 ,                 ,                 ,
000000075,01932-0007,2.4396910587,102.6928268764,42.3268051147,0,0,97.1416892818 ,24.043 ,-0.876   ,6.621     ,-0.181    ,2021-08-05,02:20:54.149996,1628130054      ,149996               ,0000           ,5A4F           ,1         ,1             ,3.006                ,GPS-3.0       ,5           ,0.106     ,0.116     ,0.242     ,0.797  ,1.762  ,0       ,4                 ,10        ,4             ,0           ,0         ,4          ,           ,           ,           ,           ,           ,           ,           ,           ,           ,           ,0                     ,000000                     ,                 ,                 ,                 ,
000000076,01932-0007,2.4396873508,102.6928565990,42.4408645630,0,0,96.8862402068 ,24.023 ,-0.824   ,6.622     ,-0.195    ,2021-08-05,02:20:54.650134,1628130054      ,650134               ,0000           ,5A4F           ,1         ,1             ,3.328                ,GPS-3.0       ,5           ,0.107     ,0.116     ,0.243     ,0.797  ,1.762  ,0       ,4                 ,10        ,4             ,0           ,0         ,4          ,           ,           ,           ,           ,           ,           ,           ,           ,           ,           ,0                     ,000000                     ,                 ,                 ,                 ,
000000077,01932-0007,2.4396841427,102.6928834180,42.5527343750,0,0,96.8518911855 ,23.959 ,-0.779   ,6.609     ,-0.191    ,2021-08-05,02:20:55.100083,1628130055      ,100083               ,0000           ,5A4F           ,1         ,1             ,3.001                ,GPS-3.0       ,5           ,0.107     ,0.116     ,0.242     ,0.797  ,1.762  ,0       ,4                 ,10        ,4             ,0           ,0         ,4          ,           ,           ,           ,           ,           ,           ,           ,           ,           ,           ,0                     ,000000                     ,                 ,                 ,                 ,
000000078,01932-0007,2.4396804995,102.6929129894,42.7047348022,0,0,97.2842489901 ,23.645 ,-0.900   ,6.506     ,-0.179    ,2021-08-05,02:20:55.600003,1628130055      ,600003               ,0000           ,5A4F           ,1         ,1             ,3.310                ,GPS-3.0       ,5           ,0.106     ,0.115     ,0.240     ,0.797  ,1.762  ,0       ,4                 ,10        ,4             ,0           ,0         ,4          ,           ,           ,           ,           ,           ,           ,           ,           ,           ,           ,0                     ,000000                     ,                 ,                 ,                 ,
000000079,01932-0007,2.4396765507,102.6929422816,42.8605651855,0,0,97.8218121986 ,23.643 ,-0.879   ,6.508     ,-0.188    ,2021-08-05,02:20:56.100018,1628130056      ,100018               ,0000           ,5A4F           ,1         ,1             ,3.284                ,GPS-3.0       ,5           ,0.105     ,0.113     ,0.238     ,0.797  ,1.762  ,0       ,4                 ,10        ,4             ,0           ,0         ,4          ,           ,           ,           ,           ,           ,           ,           ,           ,           ,           ,0                     ,000000                     ,                 ,                 ,                 ,
000000080,01932-0007,2.4396724349,102.6929713468,43.0030021667,0,0,98.1731366389 ,23.337 ,-0.951   ,6.412     ,-0.213    ,2021-08-05,02:20:56.600001,1628130056      ,600001               ,0000           ,5A4F           ,1         ,1             ,3.261                ,GPS-3.0       ,5           ,0.104     ,0.112     ,0.236     ,0.797  ,1.762  ,0       ,4                 ,10        ,4             ,0           ,0         ,4          ,           ,           ,           ,           ,           ,           ,           ,           ,           ,           ,0                     ,000000                     ,                 ,                 ,                 ,
000000081,01932-0007,2.4396682228,102.6930004117,43.2007484436,0,0,98.4987044359 ,23.340 ,-0.927   ,6.417     ,-0.267    ,2021-08-05,02:20:57.099999,1628130057      ,099999               ,0000           ,5A4F           ,1         ,1             ,3.263                ,GPS-3.0       ,5           ,0.103     ,0.111     ,0.235     ,0.797  ,1.762  ,0       ,4                 ,10        ,4             ,0           ,0         ,4          ,           ,           ,           ,           ,           ,           ,           ,           ,           ,           ,0                     ,000000                     ,                 ,                 ,                 ,
000000082,01932-0007,2.4396639410,102.6930293052,43.3797531128,0,0,98.5987188959 ,23.368 ,-0.939   ,6.423     ,-0.231    ,2021-08-05,02:20:57.600011,1628130057      ,600011               ,0000           ,5A4F           ,1         ,1             ,3.245                ,GPS-3.0       ,5           ,0.102     ,0.110     ,0.233     ,0.797  ,1.762  ,0       ,4                 ,10        ,4             ,0           ,0         ,4          ,           ,           ,           ,           ,           ,           ,           ,           ,           ,           ,0                     ,000000                     ,                 ,                 ,                 ,
000000083,01932-0007,2.4396594143,102.6930579347,43.4913520813,0,0,98.6467487861 ,23.046 ,-0.951   ,6.331     ,-0.187    ,2021-08-05,02:20:58.099999,1628130058      ,099999               ,0000           ,5A4F           ,1         ,1             ,3.220                ,GPS-3.0       ,5           ,0.102     ,0.110     ,0.233     ,0.797  ,1.762  ,0       ,4                 ,10        ,4             ,0           ,0         ,4          ,           ,           ,           ,           ,           ,           ,           ,           ,           ,           ,0                     ,000000                     ,                 ,                 ,                 ,
000000084,01932-0007,2.4396549836,102.6930861468,43.5994834900,0,0,98.6602110890 ,22.488 ,-0.902   ,6.181     ,-0.183    ,2021-08-05,02:20:58.600003,1628130058      ,600003               ,0000           ,5A4F           ,1         ,1             ,3.173                ,GPS-3.0       ,5           ,0.102     ,0.111     ,0.233     ,0.797  ,1.762  ,0       ,4                 ,10        ,4             ,0           ,0         ,4          ,           ,           ,           ,           ,           ,           ,           ,           ,           ,           ,0                     ,000000                     ,                 ,                 ,                 ,
000000085,01932-0007,2.4396507404,102.6931138911,43.7089958191,0,0,98.5698408561 ,21.929 ,-0.861   ,6.030     ,-0.176    ,2021-08-05,02:20:59.099999,1628130059      ,099999               ,0000           ,5A4F           ,1         ,1             ,3.118                ,GPS-3.0       ,5           ,0.102     ,0.110     ,0.233     ,0.797  ,1.762  ,0       ,4                 ,10        ,4             ,0           ,0         ,4          ,           ,           ,           ,           ,           ,           ,           ,           ,           ,           ,0                     ,000000                     ,                 ,                 ,                 ,
000000086,01932-0007,2.4396467355,102.6931406179,43.8187789917,0,0,98.4546155648 ,21.307 ,-0.915   ,5.847     ,-0.147    ,2021-08-05,02:20:59.599994,1628130059      ,599994               ,0000           ,5A4F           ,1         ,1             ,3.002                ,GPS-3.0       ,5           ,0.102     ,0.110     ,0.233     ,0.797  ,1.762  ,0       ,4                 ,10        ,4             ,0           ,0         ,4          ,           ,           ,           ,           ,           ,           ,           ,           ,           ,           ,0                     ,000000                     ,                 ,                 ,                 ,
000000087,01932-0007,2.4396425357,102.6931689948,43.9147338867,0,0,98.3465005004 ,20.313 ,-0.816   ,5.583     ,-0.145    ,2021-08-05,02:21:00.149995,1628130060      ,149995               ,0000           ,5A4F           ,1         ,1             ,3.187                ,GPS-3.0       ,5           ,0.102     ,0.110     ,0.233     ,0.797  ,1.762  ,0       ,4                 ,10        ,4             ,0           ,0         ,4          ,           ,           ,           ,           ,           ,           ,           ,           ,           ,           ,0                     ,000000                     ,                 ,                 ,                 ,
000000088,01932-0007,2.4396384416,102.6931962368,44.0139541626,0,0,98.3071449504 ,19.735 ,-0.731   ,5.433     ,-0.160    ,2021-08-05,02:21:00.699997,1628130060      ,699997               ,0000           ,5A4F           ,1         ,1             ,3.060                ,GPS-3.0       ,5           ,0.102     ,0.110     ,0.234     ,0.797  ,1.762  ,0       ,4                 ,10        ,4             ,0           ,0         ,4          ,           ,           ,           ,           ,           ,           ,           ,           ,           ,           ,0                     ,000000                     ,                 ,                 ,                 ,
000000089,01932-0007,2.4396341500,102.6932245321,44.0597419739,0,0,98.6224606335 ,18.012 ,-0.711   ,4.952     ,-0.087    ,2021-08-05,02:21:01.299999,1628130061      ,299999               ,0000           ,5A4F           ,1         ,1             ,3.179                ,GPS-3.0       ,5           ,0.103     ,0.112     ,0.236     ,0.797  ,1.762  ,0       ,4                 ,10        ,4             ,0           ,0         ,4          ,           ,           ,           ,           ,           ,           ,           ,           ,           ,           ,0                     ,000000                     ,                 ,                 ,                 ,
