#0:imgID,1:camSN,2:lat,3:lon,4:height,5:roll,6:pitch,7:heading,8:speed,9:speed_n,10:speed_e,11:speed_d,12:date,13:time,14:unix_time_sec,15:unix_time_microsec,16:systemStatus,17:filterStatus,18:haveFix,19:extVelocity,20:distancetoprevious,21:releaseMode,22:device_id,23:lat_dev,24:lon_dev,25:hei_dev,26:hdop,27:vdop,28:fs_10,29:gnss_fix_status,30:gps_sat,31:glonass_sat,32:beidu_sat,33:gal_sat,34:sbas_sat,35:custLog0,36:custLog1,37:custLog2,38:custLog3,39:custLog4,40:custLog5,41:custLog6,42:custLog7,43:custLog8,44:custLog9,45:unix_time_sec_fixed,46:unix_time_microsec_fixed,47:pnvgbss_field3,48:pnvgbss_field4,49:pnvgbss_field5,50:pnvgbss_field6,51:pnvgbss_field7
003491-20211003-122123-000000001,220003491       ,2.4375392710,102.8285844623,10.1415367126,0.00000000,0.00000000,31.1563791821,8.342,1.893,1.337,-0.180,2021-10-03,04:21:24.549996,1633234884,549996,0000,5A2F,1,1,0.000,GPS-3.0,5,0.290,0.333,0.639,0.915,1.513,0,2,10,4,0,0,1,,,,,,,,,,,0,000000,,,,,
003491-20211003-122123-000000002,220003491       ,2.4375624722,102.8285990708,10.2050409317,0.00000000,0.00000000,31.8040655305,12.443,2.869,1.928,-0.166,2021-10-03,04:21:25.600045,1633234885,600045,0000,5A2F,1,1,3.048,GPS-3.0,5,0.290,0.334,0.639,1.014,1.539,0,2,10,4,0,0,2,,,,,,,,,,,0,000000,,,,,
003491-20211003-122123-000000003,220003491       ,2.4375858276,102.8286125943,10.1936941147,0.00000000,0.00000000,31.6320608766,15.364,3.618,2.264,-0.089,2021-10-03,04:21:26.350115,1633234886,350115,0000,5A2F,1,1,3.000,GPS-3.0,5,0.290,0.333,0.639,1.014,1.539,0,2,10,4,0,0,3,,,,,,,,,,,0,000000,,,,,
003491-20211003-122123-000000004,220003491       ,2.4376093669,102.8286263857,10.2161102295,0.00000000,0.00000000,31.3620976497,17.602,4.149,2.586,-0.067,2021-10-03,04:21:27.000189,1633234887,000189,0000,5A2F,1,1,3.033,GPS-3.0,5,0.290,0.334,0.640,1.087,1.651,0,2,10,4,0,0,3,,,,,,,,,,,0,000000,,,,,
003491-20211003-122123-000000005,220003491       ,2.4376325884,102.8286406243,10.4078912735,0.00000000,0.00000000,32.1906132564,20.532,4.840,3.017,-0.202,2021-10-03,04:21:27.550045,1633234887,550045,0000,5A2F,1,1,3.028,GPS-3.0,5,0.290,0.334,0.641,2.024,3.215,0,2,10,3,0,0,3,,,,,,,,,,,0,000000,,,,,
003491-20211003-122123-000000006,220003491       ,2.4376567907,102.8286548362,10.6375398636,0.00000000,0.00000000,32.5661131513,23.416,5.523,3.436,-0.297,2021-10-03,04:21:28.049996,1633234888,049996,0000,5A2F,1,1,3.120,GPS-3.0,5,0.290,0.334,0.642,0.875,1.420,0,2,10,3,0,0,3,,,,,,,,,,,0,000000,,,,,
003491-20211003-122123-000000007,220003491       ,2.4376811942,102.8286695970,10.5726175308,0.00000000,0.00000000,32.7001146326,25.787,6.058,3.823,-0.186,2021-10-03,04:21:28.500279,1633234888,500279,0000,5A2F,1,1,3.171,GPS-3.0,5,0.290,0.334,0.642,0.875,1.420,0,2,10,4,0,0,3,,,,,,,,,,,0,000000,,,,,
003491-20211003-122123-000000008,220003491       ,2.4377064990,102.8286855227,10.5670223236,0.00000000,0.00000000,33.4095356458,26.568,6.191,4.018,-0.100,2021-10-03,04:21:28.950131,1633234888,950131,0000,5A2F,1,1,3.324,GPS-3.0,5,0.290,0.334,0.642,0.875,1.419,0,2,10,4,0,0,3,,,,,,,,,,,0,000000,,,,,
003491-20211003-122123-000000009,220003491       ,2.4377295608,102.8287012947,10.7541484833,0.00000000,0.00000000,33.3225292811,27.378,6.382,4.136,-0.141,2021-10-03,04:21:29.349996,1633234889,349996,0000,5A2F,1,1,3.106,GPS-3.0,5,0.289,0.334,0.642,0.970,1.686,0,2,9,4,0,0,2,,,,,,,,,,,0,000000,,,,,
003491-20211003-122123-000000010,220003491       ,2.4377535765,102.8287158152,10.7554960251,0.00000000,0.00000000,31.8183781919,27.865,6.658,3.948,-0.109,2021-10-03,04:21:29.749996,1633234889,749996,0000,5A2F,1,1,3.120,GPS-3.0,5,0.289,0.334,0.642,0.875,1.419,0,2,9,4,0,0,2,,,,,,,,,,,0,000000,,,,,
003491-20211003-122123-000000011,220003491       ,2.4377788652,102.8287298206,10.9006948471,0.00000000,0.00000000,30.7396625106,28.757,6.995,3.858,-0.173,2021-10-03,04:21:30.150067,1633234890,150067,0000,5A2F,1,1,3.214,GPS-3.0,5,0.289,0.334,0.642,0.915,1.512,0,2,9,4,0,0,2,,,,,,,,,,,0,000000,,,,,
003491-20211003-122123-000000012,220003491       ,2.4378045562,102.8287436071,11.0222578049,0.00000000,0.00000000,29.8541558055,29.540,7.185,3.963,-0.176,2021-10-03,04:21:30.549996,1633234890,549996,0000,5A2F,1,1,3.241,GPS-3.0,5,0.289,0.334,0.643,0.939,1.583,0,2,9,4,0,0,2,,,,,,,,,,,0,000000,,,,,
003491-20211003-122123-000000013,220003491       ,2.4378309670,102.8287578240,11.0890808105,0.00000000,0.00000000,29.0508982383,30.056,7.379,3.906,-0.140,2021-10-03,04:21:30.949996,1633234890,949996,0000,5A2F,1,1,3.335,GPS-3.0,5,0.289,0.334,0.643,0.939,1.582,0,2,9,4,0,0,2,,,,,,,,,,,0,000000,,,,,
003491-20211003-122123-000000014,220003491       ,2.4378575442,102.8287718001,11.1066913605,0.00000000,0.00000000,29.2083067779,30.155,7.338,4.039,-0.089,2021-10-03,04:21:31.350006,1633234891,350006,0000,5A2F,1,1,3.338,GPS-3.0,5,0.288,0.334,0.643,0.939,1.582,0,2,9,4,0,0,2,,,,,,,,,,,0,000000,,,,,
003491-20211003-122123-000000015,220003491       ,2.4378840089,102.8287868629,11.1494579315,0.00000000,0.00000000,30.6642059958,30.719,7.358,4.322,-0.087,2021-10-03,04:21:31.750034,1633234891,750034,0000,5A2F,1,1,3.385,GPS-3.0,5,0.288,0.334,0.643,0.857,1.456,0,2,9,4,0,0,2,,,,,,,,,,,0,000000,,,,,
003491-20211003-122123-000000016,220003491       ,2.4379073785,102.8288005313,11.1465291977,0.00000000,0.00000000,31.4149291629,31.199,7.392,4.525,-0.027,2021-10-03,04:21:32.100080,1633234892,100080,0000,5A2F,1,1,3.010,GPS-3.0,5,0.288,0.334,0.643,0.857,1.456,0,2,9,4,0,0,2,,,,,,,,,,,0,000000,,,,,
003491-20211003-122123-000000017,220003491       ,2.4379308496,102.8288147364,11.0569686890,0.00000000,0.00000000,31.1230034627,31.501,7.550,4.423,0.068,2021-10-03,04:21:32.449995,1633234892,449995,0000,5A2F,1,1,3.050,GPS-3.0,5,0.287,0.333,0.643,0.977,1.481,0,2,9,4,0,0,2,,,,,,,,,,,0,000000,,,,,
003491-20211003-122123-000000018,220003491       ,2.4379548879,102.8288288202,10.9890565872,0.00000000,0.00000000,30.7698348713,31.722,7.649,4.374,0.108,2021-10-03,04:21:32.800003,1633234892,800003,0000,5A2F,1,1,3.097,GPS-3.0,5,0.287,0.333,0.643,0.768,1.332,0,2,9,4,0,0,2,,,,,,,,,,,0,000000,,,,,
003491-20211003-122123-000000019,220003491       ,2.4379794535,102.8288427983,11.0838146210,0.00000000,0.00000000,30.3806950886,32.126,7.850,4.245,-0.047,2021-10-03,04:21:33.149995,1633234893,149995,0000,5A2F,1,1,3.142,GPS-3.0,5,0.287,0.333,0.643,0.768,1.332,0,2,9,4,0,0,2,,,,,,,,,,,0,000000,,,,,
003491-20211003-122123-000000020,220003491       ,2.4380044273,102.8288567960,11.1855182648,0.00000000,0.00000000,29.9881880227,32.253,7.775,4.451,-0.076,2021-10-03,04:21:33.500166,1633234893,500166,0000,5A2F,1,1,3.183,GPS-3.0,5,0.287,0.333,0.643,0.814,1.400,0,2,9,4,0,0,3,,,,,,,,,,,0,000000,,,,,
003491-20211003-122123-000000021,220003491       ,2.4380291680,102.8288705991,11.3047494888,0.00000000,0.00000000,29.6487651869,32.053,7.640,4.572,-0.116,2021-10-03,04:21:33.849995,1633234893,849995,0000,5A2F,1,1,3.150,GPS-3.0,5,0.286,0.333,0.643,0.768,1.332,0,2,9,4,0,0,3,,,,,,,,,,,0,000000,,,,,
003491-20211003-122123-000000022,220003491       ,2.4380533154,102.8288841763,11.4710235596,0.00000000,0.00000000,29.4672290041,31.147,7.560,4.207,-0.184,2021-10-03,04:21:34.200003,1633234894,200003,0000,5A2F,1,1,3.080,GPS-3.0,5,0.286,0.333,0.643,0.768,1.332,0,2,9,4,0,0,3,,,,,,,,,,,0,000000,,,,,
003491-20211003-122123-000000023,220003491       ,2.4380775786,102.8288973924,11.6929025650,0.00000000,0.00000000,29.2226877412,30.760,7.355,4.349,-0.281,2021-10-03,04:21:34.549995,1633234894,549995,0000,5A2F,1,1,3.072,GPS-3.0,5,0.286,0.333,0.643,0.857,1.455,0,2,9,4,0,0,3,,,,,,,,,,,0,000000,,,,,
003491-20211003-122123-000000024,220003491       ,2.4381015802,102.8289107268,11.8788261414,0.00000000,0.00000000,29.0008671027,30.992,7.665,3.919,-0.330,2021-10-03,04:21:34.900253,1633234894,900253,0000,5A2F,1,1,3.052,GPS-3.0,5,0.286,0.333,0.643,0.939,1.581,0,2,9,4,0,0,3,,,,,,,,,,,0,000000,,,,,
003491-20211003-122123-000000025,220003491       ,2.4381280889,102.8289258752,12.0464763641,0.00000000,0.00000000,28.9262985124,30.181,7.348,4.037,-0.268,2021-10-03,04:21:35.299999,1633234895,299999,0000,5A2F,1,1,3.394,GPS-3.0,5,0.286,0.333,0.644,0.875,1.419,0,2,9,4,0,0,3,,,,,,,,,,,0,000000,,,,,
003491-20211003-122123-000000026,220003491       ,2.4381545056,102.8289407826,12.1968708038,0.00000000,0.00000000,28.7804603132,30.522,7.467,4.017,-0.341,2021-10-03,04:21:35.699998,1633234895,699998,0000,5A2F,1,1,3.372,GPS-3.0,5,0.286,0.333,0.644,0.768,1.332,0,2,9,4,0,0,3,,,,,,,,,,,0,000000,,,,,
003491-20211003-122123-000000027,220003491       ,2.4381813120,102.8289548756,12.2279739380,0.00000000,0.00000000,28.3904787097,30.989,7.531,4.169,-0.099,2021-10-03,04:21:36.100184,1633234896,100184,0000,5A2F,1,1,3.367,GPS-3.0,5,0.286,0.333,0.644,0.875,1.419,0,2,9,4,0,0,3,,,,,,,,,,,0,000000,,,,,
003491-20211003-122123-000000028,220003491       ,2.4382068711,102.8289695415,12.3493347168,0.00000000,0.00000000,28.7451209145,30.462,7.267,4.334,-0.183,2021-10-03,04:21:36.499999,1633234896,499999,0000,5A2F,1,1,3.276,GPS-3.0,5,0.286,0.333,0.644,0.768,1.332,0,2,9,4,0,0,3,,,,,,,,,,,0,000000,,,,,
003491-20211003-122123-000000029,220003491       ,2.4382336719,102.8289839552,12.4466943741,0.00000000,0.00000000,28.8988411519,30.529,7.352,4.226,-0.211,2021-10-03,04:21:36.899999,1633234896,899999,0000,5A2F,1,1,3.383,GPS-3.0,5,0.286,0.333,0.644,0.884,1.459,0,2,9,4,0,0,3,,,,,,,,,,,0,000000,,,,,
003491-20211003-122123-000000030,220003491       ,2.4382604209,102.8289985339,12.4881315231,0.00000000,0.00000000,28.9226170404,30.969,7.360,4.453,-0.208,2021-10-03,04:21:37.300117,1633234897,300117,0000,5A2F,1,1,3.387,GPS-3.0,5,0.286,0.333,0.644,0.768,1.331,0,2,9,4,0,0,3,,,,,,,,,,,0,000000,,,,,
003491-20211003-122123-000000031,220003491       ,2.4382872943,102.8290130236,12.6344890594,0.00000000,0.00000000,29.0266339913,30.679,7.413,4.203,-0.282,2021-10-03,04:21:37.699999,1633234897,699999,0000,5A2F,1,1,3.394,GPS-3.0,5,0.286,0.333,0.644,0.814,1.399,0,2,9,4,0,0,3,,,,,,,,,,,0,000000,,,,,
003491-20211003-122123-000000032,220003491       ,2.4383141374,102.8290278439,12.8589134216,0.00000000,0.00000000,29.1803713042,30.624,7.483,4.045,-0.415,2021-10-03,04:21:38.099999,1633234898,099999,0000,5A2F,1,1,3.409,GPS-3.0,5,0.286,0.333,0.644,0.814,1.399,0,2,9,4,0,0,3,,,,,,,,,,,0,000000,,,,,
003491-20211003-122123-000000033,220003491       ,2.4383378431,102.8290412085,13.0604038239,0.00000000,0.00000000,29.3636423551,30.825,7.455,4.211,-0.453,2021-10-03,04:21:38.449996,1633234898,449996,0000,5A2F,1,1,3.025,GPS-3.0,5,0.286,0.333,0.644,0.895,1.524,0,2,9,4,0,0,3,,,,,,,,,,,0,000000,,,,,
003491-20211003-122123-000000034,220003491       ,2.4383617090,102.8290546590,13.2974863052,0.00000000,0.00000000,29.4972169496,30.707,7.427,4.194,-0.481,2021-10-03,04:21:38.800270,1633234898,800270,0000,5A2F,1,1,3.046,GPS-3.0,5,0.285,0.332,0.644,0.857,1.454,0,2,9,4,0,0,3,,,,,,,,,,,0,000000,,,,,
003491-20211003-122123-000000035,220003491       ,2.4383882184,102.8290701481,13.6157865524,0.00000000,0.00000000,29.7928275369,30.484,7.347,4.210,-0.497,2021-10-03,04:21:39.200002,1633234899,200002,0000,5A2F,1,1,3.413,GPS-3.0,5,0.285,0.332,0.644,0.857,1.454,0,2,9,4,0,0,3,,,,,,,,,,,0,000000,,,,,
003491-20211003-122123-000000036,220003491       ,2.4384144580,102.8290855466,13.9086465836,0.00000000,0.00000000,30.0432120266,30.156,7.273,4.155,-0.510,2021-10-03,04:21:39.600002,1633234899,600002,0000,5A2F,1,1,3.382,GPS-3.0,5,0.285,0.332,0.643,0.857,1.454,0,2,9,4,0,0,3,,,,,,,,,,,0,000000,,,,,
003491-20211003-122123-000000037,220003491       ,2.4384407767,102.8291012424,14.1076402664,0.00000000,0.00000000,30.3302438963,30.174,7.178,4.328,-0.494,2021-10-03,04:21:40.000218,1633234900,000218,0000,5A2F,1,1,3.407,GPS-3.0,5,0.284,0.331,0.643,0.857,1.454,0,2,9,4,0,0,3,,,,,,,,,,,0,000000,,,,,
003491-20211003-122123-000000038,220003491       ,2.4384664050,102.8291162250,14.4390954971,0.00000000,0.00000000,30.5168139286,29.763,7.090,4.253,-0.609,2021-10-03,04:21:40.400004,1633234900,400004,0000,5A2F,1,1,3.300,GPS-3.0,5,0.284,0.331,0.642,0.857,1.454,0,2,9,4,0,0,3,,,,,,,,,,,0,000000,,,,,
003491-20211003-122123-000000039,220003491       ,2.4384920482,102.8291313426,14.8190317154,0.00000000,0.00000000,30.4595086414,29.506,7.008,4.250,-0.670,2021-10-03,04:21:40.800004,1633234900,800004,0000,5A2F,1,1,3.309,GPS-3.0,5,0.283,0.331,0.642,0.857,1.453,0,2,9,4,0,0,3,,,,,,,,,,,0,000000,,,,,
003491-20211003-122123-000000040,220003491       ,2.4385176056,102.8291464131,15.1936073303,0.00000000,0.00000000,30.3457176899,29.526,7.054,4.184,-0.758,2021-10-03,04:21:41.200146,1633234901,200146,0000,5A2F,1,1,3.298,GPS-3.0,5,0.282,0.330,0.641,0.857,1.453,0,2,9,4,0,0,3,,,,,,,,,,,0,000000,,,,,
003491-20211003-122123-000000041,220003491       ,2.4385431133,102.8291610155,15.5026464462,0.00000000,0.00000000,29.2976285768,29.284,7.001,4.141,-0.687,2021-10-03,04:21:41.600002,1633234901,600002,0000,5A2F,1,1,3.267,GPS-3.0,5,0.282,0.330,0.640,0.939,1.579,0,2,9,4,0,0,3,,,,,,,,,,,0,000000,,,,,
003491-20211003-122123-000000042,220003491       ,2.4385683661,102.8291751109,15.7943420410,0.00000000,0.00000000,28.0818839329,28.176,6.848,3.790,-0.649,2021-10-03,04:21:42.000010,1633234902,000010,0000,5A2F,1,1,3.215,GPS-3.0,5,0.281,0.329,0.640,0.939,1.579,0,2,9,4,0,0,3,,,,,,,,,,,0,000000,,,,,
003491-20211003-122123-000000043,220003491       ,2.4385930246,102.8291875938,16.1119995117,0.00000000,0.00000000,27.0141853467,26.993,6.680,3.406,-0.647,2021-10-03,04:21:42.400082,1633234902,400082,0000,5A2F,1,1,3.073,GPS-3.0,5,0.281,0.329,0.639,0.939,1.579,0,2,9,4,0,0,4,,,,,,,,,,,0,000000,,,,,
003491-20211003-122123-000000044,220003491       ,2.4386195632,102.8292010476,16.4259090424,0.00000000,0.00000000,27.4518860668,25.921,6.398,3.303,-0.552,2021-10-03,04:21:42.849996,1633234902,849996,0000,5A2F,1,1,3.308,GPS-3.0,5,0.280,0.328,0.638,0.939,1.578,0,2,9,4,0,0,4,,,,,,,,,,,0,000000,,,,,
003491-20211003-122123-000000045,220003491       ,2.4386451648,102.8292148598,16.6425876617,0.00000000,0.00000000,28.8904400193,25.724,6.263,3.441,-0.456,2021-10-03,04:21:43.299999,1633234903,299999,0000,5A2F,1,1,3.234,GPS-3.0,5,0.280,0.328,0.638,0.939,1.578,0,2,9,4,0,0,4,,,,,,,,,,,0,000000,,,,,
003491-20211003-122123-000000046,220003491       ,2.4386698678,102.8292290518,16.7932929993,0.00000000,0.00000000,31.0590114204,24.792,5.906,3.542,-0.324,2021-10-03,04:21:43.749996,1633234903,749996,0000,5A2F,1,1,3.167,GPS-3.0,5,0.279,0.328,0.637,0.939,1.578,0,2,9,4,0,0,4,,,,,,,,,,,0,000000,,,,,
003491-20211003-122123-000000047,220003491       ,2.4386927155,102.8292438713,17.0319480896,0.00000000,0.00000000,33.1577680429,23.513,5.455,3.592,-0.295,2021-10-03,04:21:44.200002,1633234904,200002,0000,5A2F,1,1,3.027,GPS-3.0,5,0.279,0.327,0.637,0.939,1.578,0,2,9,4,0,0,3,,,,,,,,,,,0,000000,,,,,
003491-20211003-122123-000000048,220003491       ,2.4387164985,102.8292609038,17.2201004028,0.00000000,0.00000000,35.3144617450,22.676,4.922,3.930,-0.209,2021-10-03,04:21:44.699999,1633234904,699999,0000,5A2F,1,1,3.252,GPS-3.0,5,0.279,0.327,0.637,1.137,1.884,0,2,9,4,0,0,3,,,,,,,,,,,0,000000,,,,,
003491-20211003-122123-000000049,220003491       ,2.4387387894,102.8292769763,17.2962589264,0.00000000,0.00000000,33.3073594310,21.688,5.078,3.242,-0.166,2021-10-03,04:21:45.200246,1633234905,200246,0000,5A2F,1,1,3.055,GPS-3.0,5,0.279,0.327,0.637,1.108,1.709,0,2,9,4,0,0,2,,,,,,,,,,,0,000000,,,,,
003491-20211003-122123-000000050,220003491       ,2.4387643836,102.8292905225,17.1360301971,0.00000000,0.00000000,29.9075098282,19.998,4.989,2.444,0.056,2021-10-03,04:21:45.750169,1633234905,750169,0000,5A2F,1,1,3.219,GPS-3.0,5,0.279,0.327,0.637,1.067,1.619,0,2,9,4,0,0,2,,,,,,,,,,,0,000000,,,,,
003491-20211003-122123-000000051,220003491       ,2.4387888839,102.8293036790,17.1510276794,0.00000000,0.00000000,29.0144557640,19.513,4.776,2.563,0.093,2021-10-03,04:21:46.300115,1633234906,300115,0000,5A2F,1,1,3.092,GPS-3.0,5,0.278,0.327,0.637,1.067,1.619,0,2,9,4,0,0,2,,,,,,,,,,,0,000000,,,,,
003491-20211003-122123-000000052,220003491       ,2.4388139838,102.8293175555,17.2007446289,0.00000000,0.00000000,30.2653878350,18.899,4.593,2.542,0.124,2021-10-03,04:21:46.899998,1633234906,899998,0000,5A2F,1,1,3.188,GPS-3.0,5,0.279,0.328,0.638,0.857,1.585,0,2,9,4,0,0,2,,,,,,,,,,,0,000000,,,,,
003491-20211003-122123-000000053,220003491       ,2.4388386644,102.8293323861,17.0945072174,0.00000000,0.00000000,31.7881750954,19.046,4.530,2.733,0.282,2021-10-03,04:21:47.500039,1633234907,500039,0000,5A2F,1,1,3.201,GPS-3.0,5,0.280,0.329,0.640,1.069,1.773,0,2,9,4,0,0,2,,,,,,,,,,,0,000000,,,,,
003491-20211003-122123-000000054,220003491       ,2.4388624642,102.8293476008,16.7439727783,0.00000000,0.00000000,32.9278024037,18.892,4.533,2.645,0.565,2021-10-03,04:21:48.099999,1633234908,099999,0000,5A2F,1,1,3.140,GPS-3.0,5,0.283,0.331,0.641,1.569,2.027,0,2,9,4,0,0,2,,,,,,,,,,,0,000000,,,,,
003491-20211003-122123-000000055,220003491       ,2.4388869739,102.8293634080,16.3264446259,0.00000000,0.00000000,32.5818362468,19.229,4.523,2.841,0.748,2021-10-03,04:21:48.749995,1633234908,749995,0000,5A2F,1,1,3.242,GPS-3.0,5,0.283,0.331,0.642,0.837,1.331,0,2,9,4,0,0,2,,,,,,,,,,,0,000000,,,,,
003491-20211003-122123-000000056,220003491       ,2.4389089282,102.8293791087,15.9241600037,0.00000000,0.00000000,33.7315175935,20.345,4.683,3.164,0.891,2021-10-03,04:21:49.299999,1633234909,299999,0000,5A2F,1,1,3.000,GPS-3.0,5,0.284,0.332,0.643,0.768,1.330,0,2,9,4,0,0,2,,,,,,,,,,,0,000000,,,,,
003491-20211003-122123-000000057,220003491       ,2.4389336644,102.8293957001,15.4637937546,0.00000000,0.00000000,33.3582101893,22.615,5.223,3.491,0.975,2021-10-03,04:21:49.849996,1633234909,849996,0000,5A2F,1,1,3.311,GPS-3.0,5,0.287,0.335,0.644,0.856,1.390,0,2,9,4,0,0,2,,,,,,,,,,,0,000000,,,,,
003491-20211003-122123-000000058,220003491       ,2.4389583411,102.8294105448,15.0440568924,0.00000000,0.00000000,30.7774129662,23.385,5.631,3.239,1.014,2021-10-03,04:21:50.349996,1633234910,349996,0000,5A2F,1,1,3.201,GPS-3.0,5,0.289,0.337,0.646,1.085,1.650,0,2,9,3,0,0,0,,,,,,,,,,,0,000000,,,,,
003491-20211003-122123-000000059,220003491       ,2.4389817118,102.8294243281,14.5182428360,0.00000000,0.00000000,32.6412144963,25.253,5.881,3.823,1.105,2021-10-03,04:21:50.800002,1633234910,800002,0000,5A2F,1,1,3.016,GPS-3.0,5,0.292,0.338,0.648,1.217,1.987,0,2,9,3,0,0,0,,,,,,,,,,,0,000000,,,,,
003491-20211003-122123-000000060,220003491       ,2.4390062598,102.8294397713,13.9064769745,0.00000000,0.00000000,36.1769199768,26.228,5.912,4.258,1.229,2021-10-03,04:21:51.249996,1633234911,249996,0000,5A2F,1,1,3.224,GPS-3.0,5,0.293,0.339,0.649,1.039,1.630,0,2,9,4,0,0,0,,,,,,,,,,,0,000000,,,,,
003491-20211003-122123-000000061,220003491       ,2.4390294324,102.8294548176,13.2718086243,0.00000000,0.00000000,35.7946547795,27.538,6.206,4.472,1.345,2021-10-03,04:21:51.649996,1633234911,649996,0000,5A2F,1,1,3.071,GPS-3.0,5,0.294,0.340,0.650,1.024,1.582,0,2,9,4,0,0,0,,,,,,,,,,,0,000000,,,,,
003491-20211003-122123-000000062,220003491       ,2.4390532361,102.8294712214,12.7711849213,0.00000000,0.00000000,34.6416778665,29.299,6.739,4.563,1.403,2021-10-03,04:21:52.050067,1633234912,050067,0000,5A2F,1,1,3.214,GPS-3.0,5,0.296,0.342,0.652,1.039,1.630,0,2,9,4,0,0,0,,,,,,,,,,,0,000000,,,,,
003491-20211003-122123-000000063,220003491       ,2.4390764290,102.8294869544,12.2127418518,0.00000000,0.00000000,33.5733440727,31.191,7.248,4.748,1.484,2021-10-03,04:21:52.400002,1633234912,400002,0000,5A2F,1,1,3.115,GPS-3.0,5,0.298,0.344,0.653,1.039,1.630,0,2,10,4,0,0,1,,,,,,,,,,,0,000000,,,,,
003491-20211003-122123-000000064,220003491       ,2.4391021126,102.8295032546,11.9296150208,0.00000000,0.00000000,32.4776382959,32.525,7.725,4.684,1.402,2021-10-03,04:21:52.749996,1633234912,749996,0000,5A2F,1,1,3.382,GPS-3.0,5,0.297,0.343,0.653,1.194,1.851,0,2,10,4,0,0,1,,,,,,,,,,,0,000000,,,,,
003491-20211003-122123-000000065,220003491       ,2.4391274849,102.8295188494,11.4392137527,0.00000000,0.00000000,31.4065929170,32.860,7.877,4.612,1.435,2021-10-03,04:21:53.100000,1633234913,100000,0000,5A2F,1,1,3.311,GPS-3.0,5,0.298,0.343,0.654,1.222,1.818,0,2,10,4,0,0,1,,,,,,,,,,,0,000000,,,,,
003491-20211003-122123-000000066,220003491       ,2.4391526340,102.8295333542,10.7888031006,0.00000000,0.00000000,30.4681112647,31.772,7.623,4.448,1.464,2021-10-03,04:21:53.450143,1633234913,450143,0000,5A2F,1,1,3.228,GPS-3.0,5,0.298,0.344,0.654,1.535,2.517,0,2,10,4,0,0,1,,,,,,,,,,,0,000000,,,,,
003491-20211003-122123-000000067,220003491       ,2.4391763601,102.8295472267,10.3166027069,0.00000000,0.00000000,31.3781349338,30.502,7.339,4.235,1.323,2021-10-03,04:21:53.800002,1633234913,800002,0000,5A2F,1,1,3.055,GPS-3.0,5,0.300,0.345,0.656,2.040,3.578,0,2,10,4,0,0,1,,,,,,,,,,,0,000000,,,,,
003491-20211003-122123-000000068,220003491       ,2.4392021049,102.8295623965,9.8317728043,0.00000000,0.00000000,31.2667550391,28.477,6.851,3.954,1.212,2021-10-03,04:21:54.200230,1633234914,200230,0000,5A2F,1,1,3.322,GPS-3.0,5,0.303,0.348,0.658,1.365,1.946,0,2,10,4,0,0,1,,,,,,,,,,,0,000000,,,,,
003491-20211003-122123-000000069,220003491       ,2.4392268277,102.8295756464,9.4342184067,0.00000000,0.00000000,30.5729888194,26.777,6.476,3.658,1.094,2021-10-03,04:21:54.600002,1633234914,600002,0000,5A2F,1,1,3.118,GPS-3.0,5,0.304,0.349,0.660,1.365,1.946,0,2,10,4,0,0,1,,,,,,,,,,,0,000000,,,,,
003491-20211003-122123-000000070,220003491       ,2.4392532841,102.8295898026,9.0969257355,0.00000000,0.00000000,30.0666429906,25.735,6.291,3.394,1.003,2021-10-03,04:21:55.049996,1633234915,049996,0000,5A2F,1,1,3.336,GPS-3.0,5,0.306,0.351,0.661,1.365,1.946,0,2,10,4,0,0,1,,,,,,,,,,,0,000000,,,,,
003491-20211003-122123-000000071,220003491       ,2.4392769239,102.8296031757,8.9189538956,0.00000000,0.00000000,29.8410896536,26.271,6.429,3.452,0.907,2021-10-03,04:21:55.449996,1633234915,449996,0000,5A2F,1,1,3.019,GPS-3.0,5,0.305,0.350,0.661,1.024,1.582,0,2,10,4,0,0,2,,,,,,,,,,,0,000000,,,,,
003491-20211003-122123-000000072,220003491       ,2.4393012675,102.8296164595,8.7258472443,0.00000000,0.00000000,29.5593272749,26.662,6.530,3.494,0.947,2021-10-03,04:21:55.850004,1633234915,850004,0000,5A2F,1,1,3.083,GPS-3.0,5,0.306,0.350,0.662,0.947,1.563,0,2,10,4,0,0,2,,,,,,,,,,,0,000000,,,,,
003491-20211003-122123-000000073,220003491       ,2.4393255429,102.8296303012,8.4701633453,0.00000000,0.00000000,29.5973065417,27.638,6.792,3.579,0.808,2021-10-03,04:21:56.250001,1633234916,250001,0000,5A2F,1,1,3.107,GPS-3.0,5,0.307,0.351,0.663,0.947,1.563,0,2,10,3,0,0,2,,,,,,,,,,,0,000000,,,,,
003491-20211003-122123-000000074,220003491       ,2.4393515693,102.8296447980,8.4388847351,0.00000000,0.00000000,29.8334466719,28.473,6.895,3.875,0.750,2021-10-03,04:21:56.649996,1633234916,649996,0000,5A2F,1,1,3.312,GPS-3.0,5,0.306,0.351,0.663,0.942,1.424,0,2,10,3,0,0,2,,,,,,,,,,,0,000000,,,,,
003491-20211003-122123-000000075,220003491       ,2.4393770859,102.8296585248,8.2616729736,0.00000000,0.00000000,30.3547198792,29.277,7.120,3.930,0.660,2021-10-03,04:21:57.049995,1633234917,049995,0000,5A2F,1,1,3.221,GPS-3.0,5,0.307,0.351,0.663,0.942,1.424,0,2,10,3,0,0,2,,,,,,,,,,,0,000000,,,,,
003491-20211003-122123-000000076,220003491       ,2.4394027110,102.8296724890,8.1153907776,0.00000000,0.00000000,30.3040501208,29.676,7.214,3.989,0.679,2021-10-03,04:21:57.450242,1633234917,450242,0000,5A2F,1,1,3.244,GPS-3.0,5,0.307,0.352,0.664,0.942,1.424,0,2,10,3,0,0,2,,,,,,,,,,,0,000000,,,,,
003491-20211003-122123-000000077,220003491       ,2.4394289481,102.8296868095,7.7566270828,0.00000000,0.00000000,30.2734577035,30.066,7.288,4.079,0.772,2021-10-03,04:21:57.849995,1633234917,849995,0000,5A2F,1,1,3.323,GPS-3.0,5,0.308,0.353,0.664,0.942,1.424,0,2,10,3,0,0,2,,,,,,,,,,,0,000000,,,,,
003491-20211003-122123-000000078,220003491       ,2.4394524856,102.8297003391,7.6920404434,0.00000000,0.00000000,30.4506567163,30.710,7.374,4.288,0.697,2021-10-03,04:21:58.200016,1633234918,200016,0000,5A2F,1,1,3.018,GPS-3.0,5,0.307,0.352,0.664,1.065,1.513,0,2,9,3,0,0,2,,,,,,,,,,,0,000000,,,,,
003491-20211003-122123-000000079,220003491       ,2.4394757890,102.8297141376,7.6584482193,0.00000000,0.00000000,30.4359137529,31.119,7.386,4.492,0.631,2021-10-03,04:21:58.550097,1633234918,550097,0000,5A2F,1,1,3.011,GPS-3.0,5,0.307,0.351,0.663,0.958,1.488,0,2,9,3,0,0,2,,,,,,,,,,,0,000000,,,,,
003491-20211003-122123-000000080,220003491       ,2.4394992781,102.8297276738,7.5335159302,0.00000000,0.00000000,30.6403481450,30.986,7.488,4.244,0.517,2021-10-03,04:21:58.899998,1633234918,899998,0000,5A2F,1,1,3.014,GPS-3.0,5,0.307,0.351,0.662,0.857,1.450,0,2,9,3,0,0,2,,,,,,,,,,,0,000000,,,,,
003491-20211003-122123-000000081,220003491       ,2.4395222108,102.8297421597,7.4029817581,0.00000000,0.00000000,30.8853709362,31.058,7.454,4.344,0.467,2021-10-03,04:21:59.249995,1633234919,249995,0000,5A2F,1,1,3.015,GPS-3.0,5,0.307,0.351,0.662,0.835,1.392,0,2,10,3,0,0,2,,,,,,,,,,,0,000000,,,,,
003491-20211003-122123-000000082,220003491       ,2.4395457062,102.8297559717,7.1737647057,0.00000000,0.00000000,30.7341744536,31.395,7.477,4.488,0.457,2021-10-03,04:21:59.600001,1633234919,600001,0000,5A2F,1,1,3.030,GPS-3.0,5,0.307,0.351,0.662,0.876,1.462,0,2,10,3,0,0,2,,,,,,,,,,,0,000000,,,,,
003491-20211003-122123-000000083,220003491       ,2.4395698913,102.8297698396,7.0559840202,0.00000000,0.00000000,30.6294335027,31.378,7.501,4.439,0.434,2021-10-03,04:21:59.950181,1633234919,950181,0000,5A2F,1,1,3.099,GPS-3.0,5,0.307,0.351,0.663,0.835,1.392,0,2,10,3,0,0,2,,,,,,,,,,,0,000000,,,,,
003491-20211003-122123-000000084,220003491       ,2.4395936659,102.8297842512,7.0760679245,0.00000000,0.00000000,30.8210134787,31.402,7.478,4.491,0.300,2021-10-03,04:22:00.299998,1633234920,299998,0000,5A2F,1,1,3.091,GPS-3.0,5,0.308,0.352,0.663,1.124,1.629,0,2,10,3,0,0,3,,,,,,,,,,,0,000000,,,,,
003491-20211003-122123-000000085,220003491       ,2.4396176827,102.8297974247,7.0683565140,0.00000000,0.00000000,31.0497121178,31.367,7.498,4.438,0.243,2021-10-03,04:22:00.649995,1633234920,649995,0000,5A2F,1,1,3.045,GPS-3.0,5,0.308,0.352,0.663,0.926,1.482,0,2,10,3,0,0,3,,,,,,,,,,,0,000000,,,,,
003491-20211003-122123-000000086,220003491       ,2.4396414605,102.8298105369,7.1976442337,0.00000000,0.00000000,31.4218788804,31.236,7.467,4.420,0.179,2021-10-03,04:22:01.000009,1633234921,000009,0000,5A2F,1,1,3.019,GPS-3.0,5,0.308,0.352,0.664,0.926,1.482,0,2,10,3,0,0,3,,,,,,,,,,,0,000000,,,,,
003491-20211003-122123-000000087,220003491       ,2.4396647462,102.8298249127,6.9939479828,0.00000000,0.00000000,32.0422752080,31.487,7.353,4.737,0.381,2021-10-03,04:22:01.350261,1633234921,350261,0000,5A2F,1,1,3.042,GPS-3.0,5,0.308,0.352,0.664,0.870,1.382,0,2,10,3,0,0,2,,,,,,,,,,,0,000000,,,,,
003491-20211003-122123-000000088,220003491       ,2.4396882220,102.8298391436,6.8547983170,0.00000000,0.00000000,32.4199163672,31.493,7.381,4.695,0.561,2021-10-03,04:22:01.700044,1633234921,700044,0000,5A2F,1,1,3.052,GPS-3.0,5,0.309,0.352,0.664,1.157,1.927,0,2,10,3,0,0,2,,,,,,,,,,,0,000000,,,,,
003491-20211003-122123-000000089,220003491       ,2.4397123255,102.8298539925,6.7971701622,0.00000000,0.00000000,32.8198000374,31.955,7.484,4.773,0.650,2021-10-03,04:22:02.049996,1633234922,049996,0000,5A2F,1,1,3.147,GPS-3.0,5,0.309,0.353,0.665,1.592,2.715,0,2,10,3,0,0,2,,,,,,,,,,,0,000000,,,,,
003491-20211003-122123-000000090,220003491       ,2.4397359087,102.8298689164,6.6808085442,0.00000000,0.00000000,33.1413346077,32.271,7.448,4.988,0.683,2021-10-03,04:22:02.400002,1633234922,400002,0000,5A2F,1,1,3.102,GPS-3.0,5,0.309,0.353,0.665,1.334,1.958,0,2,10,3,0,0,2,,,,,,,,,,,0,000000,,,,,
003491-20211003-122123-000000091,220003491       ,2.4397596927,102.8298847783,6.5153665543,0.00000000,0.00000000,33.7283757065,32.809,7.663,4.933,0.643,2021-10-03,04:22:02.749996,1633234922,749996,0000,5A2F,1,1,3.178,GPS-3.0,5,0.310,0.353,0.665,1.334,1.958,0,2,10,3,0,0,2,,,,,,,,,,,0,000000,,,,,
003491-20211003-122123-000000092,220003491       ,2.4397836838,102.8299007279,6.3209190369,0.00000000,0.00000000,34.4107799065,32.982,7.681,4.994,0.641,2021-10-03,04:22:03.100150,1633234923,100150,0000,5A2F,1,1,3.203,GPS-3.0,5,0.310,0.353,0.666,1.334,1.958,0,2,10,3,0,0,2,,,,,,,,,,,0,000000,,,,,
003491-20211003-122123-000000093,220003491       ,2.4398078542,102.8299170256,6.0611715317,0.00000000,0.00000000,35.0873442947,33.512,7.600,5.375,0.621,2021-10-03,04:22:03.449996,1633234923,449996,0000,5A2F,1,1,3.241,GPS-3.0,5,0.312,0.355,0.667,1.607,2.422,0,2,10,3,0,0,2,,,,,,,,,,,0,000000,,,,,
003491-20211003-122123-000000094,220003491       ,2.4398315312,102.8299332889,6.1066312790,0.00000000,0.00000000,35.0598459531,33.422,7.561,5.387,0.377,2021-10-03,04:22:03.800002,1633234923,800002,0000,5A2F,1,1,3.193,GPS-3.0,5,0.311,0.354,0.667,1.375,1.918,0,2,10,3,0,0,2,,,,,,,,,,,0,000000,,,,,
003491-20211003-122123-000000095,220003491       ,2.4398549969,102.8299501004,6.0112924576,0.00000000,0.00000000,35.2928783472,33.191,7.545,5.298,0.240,2021-10-03,04:22:04.149996,1633234924,149996,0000,5A2F,1,1,3.209,GPS-3.0,5,0.311,0.354,0.667,1.277,1.913,0,2,10,3,0,0,2,,,,,,,,,,,0,000000,,,,,
003491-20211003-122123-000000096,220003491       ,2.4398793380,102.8299668738,5.9538464546,0.00000000,0.00000000,35.5711334238,33.210,7.605,5.221,0.162,2021-10-03,04:22:04.500216,1633234924,500216,0000,5A2F,1,1,3.286,GPS-3.0,5,0.312,0.355,0.668,0.952,1.446,0,2,10,3,0,0,3,,,,,,,,,,,0,000000,,,,,
003491-20211003-122123-000000097,220003491       ,2.4399023912,102.8299842322,6.0048589706,0.00000000,0.00000000,35.9931161711,33.321,7.370,5.599,0.065,2021-10-03,04:22:04.849996,1633234924,849996,0000,5A2F,1,1,3.208,GPS-3.0,5,0.312,0.355,0.668,0.952,1.446,0,2,10,3,0,0,3,,,,,,,,,,,0,000000,,,,,
003491-20211003-122123-000000098,220003491       ,2.4399263279,102.8300014955,5.9254145622,0.00000000,0.00000000,36.1278689732,32.551,7.412,5.178,0.336,2021-10-03,04:22:05.200003,1633234925,200003,0000,5A2F,1,1,3.281,GPS-3.0,5,0.313,0.356,0.669,1.039,1.629,0,2,9,3,0,0,2,,,,,,,,,,,0,000000,,,,,
003491-20211003-122123-000000099,220003491       ,2.4399498037,102.8300181777,5.8359470367,0.00000000,0.00000000,36.4766116021,33.945,7.722,5.411,0.118,2021-10-03,04:22:05.549996,1633234925,549996,0000,5A2F,1,1,3.201,GPS-3.0,5,0.314,0.356,0.670,1.039,1.629,0,2,9,3,0,0,2,,,,,,,,,,,0,000000,,,,,
003491-20211003-122123-000000100,220003491       ,2.4399740239,102.8300359200,5.8814458847,0.00000000,0.00000000,36.7098454868,33.844,7.573,5.570,0.191,2021-10-03,04:22:05.900029,1633234925,900029,0000,5A2F,1,1,3.337,GPS-3.0,5,0.314,0.356,0.670,1.334,1.958,0,2,9,3,0,0,2,,,,,,,,,,,0,000000,,,,,
003491-20211003-122123-000000101,220003491       ,2.4399979895,102.8300531471,5.9141540527,0.00000000,0.00000000,36.9825202988,34.590,7.789,5.626,-0.029,2021-10-03,04:22:06.250070,1633234926,250070,0000,5A2F,1,1,3.281,GPS-3.0,5,0.313,0.356,0.669,1.095,1.634,0,2,10,3,0,0,1,,,,,,,,,,,0,000000,,,,,
003491-20211003-122123-000000102,220003491       ,2.4400224066,102.8300710891,5.9646687508,0.00000000,0.00000000,37.2415620533,34.504,7.730,5.666,-0.067,2021-10-03,04:22:06.600004,1633234926,600004,0000,5A2F,1,1,3.368,GPS-3.0,5,0.313,0.356,0.669,0.794,1.370,0,2,10,3,0,0,1,,,,,,,,,,,0,000000,,,,,
003491-20211003-122123-000000103,220003491       ,2.4400473982,102.8300891017,6.0400571823,0.00000000,0.00000000,37.3584709862,34.486,7.776,5.594,-0.127,2021-10-03,04:22:06.949996,1633234926,949996,0000,5A2F,1,1,3.424,GPS-3.0,5,0.313,0.356,0.669,0.813,1.396,0,2,10,3,0,0,1,,,,,,,,,,,0,000000,,,,,
003491-20211003-122123-000000104,220003491       ,2.4400719964,102.8301079070,6.1620359421,0.00000000,0.00000000,37.3618348544,35.236,7.686,6.060,-0.216,2021-10-03,04:22:07.299999,1633234927,299999,0000,5A2F,1,1,3.442,GPS-3.0,5,0.313,0.355,0.669,0.865,1.412,0,2,10,3,0,0,1,,,,,,,,,,,0,000000,,,,,
003491-20211003-122123-000000105,220003491       ,2.4400969350,102.8301261336,6.3118185997,0.00000000,0.00000000,36.9521669381,34.971,7.882,5.678,-0.307,2021-10-03,04:22:07.650155,1633234927,650155,0000,5A2F,1,1,3.434,GPS-3.0,5,0.312,0.355,0.669,0.865,1.412,0,2,10,3,0,0,1,,,,,,,,,,,0,000000,,,,,
003491-20211003-122123-000000106,220003491       ,2.4401219928,102.8301441543,6.4861702919,0.00000000,0.00000000,36.5169916804,35.209,7.905,5.758,-0.390,2021-10-03,04:22:08.000010,1633234928,000010,0000,5A2F,1,1,3.431,GPS-3.0,5,0.312,0.355,0.669,0.953,1.539,0,2,10,3,0,0,1,,,,,,,,,,,0,000000,,,,,
003491-20211003-122123-000000107,220003491       ,2.4401465257,102.8301623682,6.6462745667,0.00000000,0.00000000,36.1713704481,35.343,7.847,5.900,-0.409,2021-10-03,04:22:08.349996,1633234928,349996,0000,5A2F,1,1,3.396,GPS-3.0,5,0.312,0.355,0.669,0.953,1.539,0,2,10,3,0,0,1,,,,,,,,,,,0,000000,,,,,
003491-20211003-122123-000000108,220003491       ,2.4401711618,102.8301805300,6.7723760605,0.00000000,0.00000000,35.8229351777,34.725,7.822,5.645,-0.218,2021-10-03,04:22:08.700000,1633234928,700000,0000,5A2F,1,1,3.402,GPS-3.0,5,0.312,0.355,0.669,0.915,1.449,0,2,10,3,0,0,1,,,,,,,,,,,0,000000,,,,,
003491-20211003-122123-000000109,220003491       ,2.4401958832,102.8301984252,6.8814263344,0.00000000,0.00000000,35.5325462701,35.203,7.923,5.732,-0.406,2021-10-03,04:22:09.050240,1633234929,050240,0000,5A2F,1,1,3.392,GPS-3.0,5,0.312,0.355,0.669,1.135,1.872,0,2,10,3,0,0,1,,,,,,,,,,,0,000000,,,,,
003491-20211003-122123-000000110,220003491       ,2.4402211755,102.8302159163,6.9995698929,0.00000000,0.00000000,35.3114837825,35.063,7.988,5.572,-0.300,2021-10-03,04:22:09.400030,1633234929,400030,0000,5A2F,1,1,3.418,GPS-3.0,5,0.313,0.355,0.670,0.915,1.449,0,2,10,3,0,0,2,,,,,,,,,,,0,000000,,,,,
003491-20211003-122123-000000111,220003491       ,2.4402461253,102.8302338641,7.2523403168,0.00000000,0.00000000,35.3984491661,34.979,7.969,5.559,-0.343,2021-10-03,04:22:09.749996,1633234929,749996,0000,5A2F,1,1,3.416,GPS-3.0,5,0.313,0.355,0.670,0.915,1.449,0,2,10,3,0,0,2,,,,,,,,,,,0,000000,,,,,
003491-20211003-122123-000000112,220003491       ,2.4402683395,102.8302498352,7.4045100212,0.00000000,0.00000000,35.5224683260,35.358,7.942,5.778,-0.321,2021-10-03,04:22:10.050028,1633234930,050028,0000,5A2F,1,1,3.041,GPS-3.0,5,0.313,0.355,0.670,1.135,1.872,0,2,10,3,0,0,2,,,,,,,,,,,0,000000,,,,,
003491-20211003-122123-000000113,220003491       ,2.4402938532,102.8302680562,7.5404682159,0.00000000,0.00000000,35.5929763688,35.628,7.996,5.831,-0.360,2021-10-03,04:22:10.400001,1633234930,400001,0000,5A2F,1,1,3.485,GPS-3.0,5,0.313,0.356,0.671,1.135,1.872,0,2,10,3,0,0,3,,,,,,,,,,,0,000000,,,,,
003491-20211003-122123-000000114,220003491       ,2.4403197400,102.8302854664,7.6136126518,0.00000000,0.00000000,35.4806539079,35.437,8.054,5.660,-0.348,2021-10-03,04:22:10.749995,1633234930,749995,0000,5A2F,1,1,3.468,GPS-3.0,5,0.314,0.356,0.671,1.135,1.871,0,2,10,3,0,0,3,,,,,,,,,,,0,000000,,,,,
003491-20211003-122123-000000115,220003491       ,2.4403449414,102.8303031268,7.8324851990,0.00000000,0.00000000,35.3908539958,35.247,7.945,5.722,-0.447,2021-10-03,04:22:11.100014,1633234931,100014,0000,5A2F,1,1,3.421,GPS-3.0,5,0.314,0.356,0.671,0.915,1.449,0,2,10,3,0,0,3,,,,,,,,,,,0,000000,,,,,
003491-20211003-122123-000000116,220003491       ,2.4403698128,102.8303206794,8.0596523285,0.00000000,0.00000000,35.1584055828,34.866,7.902,5.599,-0.477,2021-10-03,04:22:11.450103,1633234931,450103,0000,5A2F,1,1,3.384,GPS-3.0,5,0.315,0.357,0.672,0.915,1.449,0,2,10,3,0,0,3,,,,,,,,,,,0,000000,,,,,
003491-20211003-122123-000000117,220003491       ,2.4403938874,102.8303372055,8.3683652878,0.00000000,0.00000000,35.1253372220,34.073,7.734,5.455,-0.575,2021-10-03,04:22:11.800001,1633234931,800001,0000,5A2F,1,1,3.246,GPS-3.0,5,0.315,0.357,0.672,1.000,1.453,0,2,10,3,0,0,3,,,,,,,,,,,0,000000,,,,,
003491-20211003-122123-000000118,220003491       ,2.4404183122,102.8303541110,8.6577758789,0.00000000,0.00000000,35.1090028246,33.684,7.496,5.600,-0.599,2021-10-03,04:22:12.149995,1633234932,149995,0000,5A2F,1,1,3.302,GPS-3.0,5,0.316,0.357,0.672,0.961,1.420,0,2,10,3,0,0,3,,,,,,,,,,,0,000000,,,,,
003491-20211003-122123-000000119,220003491       ,2.4404424958,102.8303712914,8.9370927811,0.00000000,0.00000000,35.3518023892,33.146,7.539,5.286,-0.752,2021-10-03,04:22:12.499999,1633234932,499999,0000,5A2F,1,1,3.298,GPS-3.0,5,0.316,0.358,0.672,0.961,1.420,0,2,10,2,0,0,3,,,,,,,,,,,0,000000,,,,,
003491-20211003-122123-000000120,220003491       ,2.4404667234,102.8303882885,9.3159399033,0.00000000,0.00000000,35.2751949874,32.687,7.397,5.265,-0.852,2021-10-03,04:22:12.850188,1633234932,850188,0000,5A2F,1,1,3.290,GPS-3.0,5,0.316,0.358,0.673,0.876,1.413,0,2,10,2,0,0,3,,,,,,,,,,,0,000000,,,,,
003491-20211003-122123-000000121,220003491       ,2.4404904649,102.8304050487,9.8707761765,0.00000000,0.00000000,35.2784188367,32.204,7.410,5.012,-0.984,2021-10-03,04:22:13.200000,1633234933,200000,0000,5A2F,1,1,3.230,GPS-3.0,5,0.316,0.358,0.672,0.876,1.413,0,2,10,3,0,0,3,,,,,,,,,,,0,000000,,,,,
003491-20211003-122123-000000122,220003491       ,2.4405122990,102.8304219178,10.3069849014,0.00000000,0.00000000,35.5647198762,31.537,7.043,5.210,-0.981,2021-10-03,04:22:13.549995,1633234933,549995,0000,5A2F,1,1,3.067,GPS-3.0,5,0.316,0.358,0.673,0.876,1.413,0,2,10,3,0,0,3,,,,,,,,,,,0,000000,,,,,
003491-20211003-122123-000000123,220003491       ,2.4405342457,102.8304377938,10.7732162476,0.00000000,0.00000000,35.6311946923,30.768,6.869,5.086,-0.940,2021-10-03,04:22:13.899999,1633234933,899999,0000,5A2F,1,1,3.011,GPS-3.0,5,0.316,0.358,0.673,0.876,1.413,0,2,10,3,0,0,3,,,,,,,,,,,0,000000,,,,,
003491-20211003-122123-000000124,220003491       ,2.4405565400,102.8304539362,11.1013727188,0.00000000,0.00000000,35.7538375690,30.331,6.757,5.032,-0.887,2021-10-03,04:22:14.250264,1633234934,250264,0000,5A2F,1,1,3.060,GPS-3.0,5,0.316,0.358,0.673,0.876,1.413,0,2,10,3,0,0,3,,,,,,,,,,,0,000000,,,,,
003491-20211003-122123-000000125,220003491       ,2.4405802531,102.8304720483,11.6662893295,0.00000000,0.00000000,35.9667277352,29.945,6.691,4.941,-0.953,2021-10-03,04:22:14.649995,1633234934,649995,0000,5A2F,1,1,3.317,GPS-3.0,5,0.316,0.358,0.673,0.876,1.413,0,2,10,3,0,0,3,,,,,,,,,,,0,000000,,,,,
003491-20211003-122123-000000126,220003491       ,2.4406036661,102.8304894462,12.1471357346,0.00000000,0.00000000,36.0076576439,29.480,6.590,4.861,-0.929,2021-10-03,04:22:15.049996,1633234935,049996,0000,5A2F,1,1,3.242,GPS-3.0,5,0.316,0.358,0.673,0.876,1.413,0,2,10,3,0,0,3,,,,,,,,,,,0,000000,,,,,
003491-20211003-122123-000000127,220003491       ,2.4406271918,102.8305059757,12.5111417770,0.00000000,0.00000000,36.0246818904,29.354,6.474,4.957,-0.840,2021-10-03,04:22:15.450207,1633234935,450207,0000,5A2F,1,1,3.196,GPS-3.0,5,0.316,0.358,0.673,0.876,1.413,0,2,10,3,0,0,2,,,,,,,,,,,0,000000,,,,,
003491-20211003-122123-000000128,220003491       ,2.4406508909,102.8305229017,12.8517980576,0.00000000,0.00000000,36.0099935685,29.513,6.554,4.925,-0.766,2021-10-03,04:22:15.849996,1633234935,849996,0000,5A2F,1,1,3.237,GPS-3.0,5,0.316,0.358,0.673,0.876,1.413,0,2,10,3,0,0,2,,,,,,,,,,,0,000000,,,,,
003491-20211003-122123-000000129,220003491       ,2.4406749767,102.8305399328,13.1617336273,0.00000000,0.00000000,35.7741744573,29.658,6.667,4.839,-0.645,2021-10-03,04:22:16.249996,1633234936,249996,0000,5A2F,1,1,3.279,GPS-3.0,5,0.315,0.358,0.673,0.876,1.413,0,2,9,3,0,0,2,,,,,,,,,,,0,000000,,,,,
003491-20211003-122123-000000130,220003491       ,2.4406995128,102.8305567137,13.3925933838,0.00000000,0.00000000,35.3305605009,29.917,6.779,4.806,-0.511,2021-10-03,04:22:16.650145,1633234936,650145,0000,5A2F,1,1,3.304,GPS-3.0,5,0.315,0.358,0.672,0.768,1.327,0,2,9,3,0,0,2,,,,,,,,,,,0,000000,,,,,
003491-20211003-122123-000000131,220003491       ,2.4407247845,102.8305738154,13.7005147934,0.00000000,0.00000000,35.1240736370,30.393,6.936,4.813,-0.495,2021-10-03,04:22:17.049996,1633234937,049996,0000,5A2F,1,1,3.392,GPS-3.0,5,0.313,0.357,0.671,0.768,1.327,0,2,9,3,0,0,2,,,,,,,,,,,0,000000,,,,,
003491-20211003-122123-000000132,220003491       ,2.4407472463,102.8305891728,13.9968614578,0.00000000,0.00000000,35.1836328865,30.521,6.998,4.786,-0.504,2021-10-03,04:22:17.400222,1633234937,400222,0000,5A2F,1,1,3.025,GPS-3.0,5,0.312,0.356,0.670,0.768,1.327,0,2,9,3,0,0,4,,,,,,,,,,,0,000000,,,,,
003491-20211003-122123-000000133,220003491       ,2.4407699164,102.8306047482,14.3611488342,0.00000000,0.00000000,35.1466030159,31.080,7.123,4.878,-0.652,2021-10-03,04:22:17.749996,1633234937,749996,0000,5A2F,1,1,3.058,GPS-3.0,5,0.311,0.356,0.669,0.768,1.327,0,2,9,3,0,0,4,,,,,,,,,,,0,000000,,,,,
003491-20211003-122123-000000134,220003491       ,2.4407930989,102.8306205644,14.7530908585,0.00000000,0.00000000,34.8725758264,31.921,7.327,4.993,-0.750,2021-10-03,04:22:18.100000,1633234938,100000,0000,5A2F,1,1,3.120,GPS-3.0,5,0.310,0.355,0.667,0.768,1.327,0,2,9,3,0,0,4,,,,,,,,,,,0,000000,,,,,
003491-20211003-122123-000000135,220003491       ,2.4408170050,102.8306366382,15.1362848282,0.00000000,0.00000000,34.4927285161,32.653,7.581,4.979,-0.703,2021-10-03,04:22:18.449996,1633234938,449996,0000,5A2F,1,1,3.202,GPS-3.0,5,0.310,0.354,0.666,0.906,1.350,0,2,9,3,0,0,4,,,,,,,,,,,0,000000,,,,,
003491-20211003-122123-000000136,220003491       ,2.4408413684,102.8306528204,15.5344915390,0.00000000,0.00000000,33.9056259456,33.479,7.747,5.145,-0.753,2021-10-03,04:22:18.800034,1633234938,800034,0000,5A2F,1,1,3.251,GPS-3.0,5,0.309,0.354,0.665,1.467,1.834,0,2,9,3,0,0,4,,,,,,,,,,,0,000000,,,,,
003491-20211003-122123-000000137,220003491       ,2.4408661609,102.8306698988,15.8895683289,0.00000000,0.00000000,33.5032424262,34.371,7.887,5.380,-0.679,2021-10-03,04:22:19.150075,1633234939,150075,0000,5A2F,1,1,3.347,GPS-3.0,5,0.309,0.355,0.665,1.051,1.517,0,2,9,3,0,0,4,,,,,,,,,,,0,000000,,,,,
003491-20211003-122123-000000138,220003491       ,2.4408919084,102.8306866467,16.1843986511,0.00000000,0.00000000,32.9047914964,35.399,8.173,5.467,-0.650,2021-10-03,04:22:19.500000,1633234939,500000,0000,5A2F,1,1,3.414,GPS-3.0,5,0.309,0.355,0.665,1.517,2.097,0,2,9,3,0,0,3,,,,,,,,,,,0,000000,,,,,
003491-20211003-122123-000000139,220003491       ,2.4409184718,102.8307030991,16.3307228088,0.00000000,0.00000000,32.2354022219,35.776,8.469,5.199,-0.552,2021-10-03,04:22:19.849996,1633234939,849996,0000,5A2F,1,1,3.473,GPS-3.0,5,0.309,0.355,0.665,1.114,1.703,0,2,9,3,0,0,3,,,,,,,,,,,0,000000,,,,,
003491-20211003-122123-000000140,220003491       ,2.4409417840,102.8307170021,16.6218795776,0.00000000,0.00000000,31.5382823793,36.241,8.616,5.206,-0.636,2021-10-03,04:22:20.149996,1633234940,149996,0000,5A2F,1,1,3.017,GPS-3.0,5,0.309,0.355,0.665,1.114,1.703,0,2,9,3,0,0,3,,,,,,,,,,,0,000000,,,,,
003491-20211003-122123-000000141,220003491       ,2.4409656311,102.8307309173,16.9723491669,0.00000000,0.00000000,30.9565585828,36.061,8.651,5.050,-0.733,2021-10-03,04:22:20.450086,1633234940,450086,0000,5A2F,1,1,3.069,GPS-3.0,5,0.309,0.355,0.666,1.114,1.703,0,2,9,3,0,0,3,,,,,,,,,,,0,000000,,,,,
003491-20211003-122123-000000142,220003491       ,2.4409892555,102.8307448946,17.2596511841,0.00000000,0.00000000,30.5914747264,35.835,8.568,5.068,-0.738,2021-10-03,04:22:20.750039,1633234940,750039,0000,5A2F,1,1,3.052,GPS-3.0,5,0.310,0.355,0.666,1.114,1.703,0,2,9,3,0,0,3,,,,,,,,,,,0,000000,,,,,
003491-20211003-122123-000000143,220003491       ,2.4410163102,102.8307602568,17.4894161224,0.00000000,0.00000000,30.4588461131,34.870,8.355,4.900,-0.655,2021-10-03,04:22:21.100105,1633234941,100105,0000,5A2F,1,1,3.459,GPS-3.0,5,0.310,0.356,0.667,1.233,1.587,0,2,9,3,0,0,3,,,,,,,,,,,0,000000,,,,,
003491-20211003-122123-000000144,220003491       ,2.4410428384,102.8307755611,17.6592350006,0.00000000,0.00000000,30.7768904567,33.685,8.149,4.598,-0.478,2021-10-03,04:22:21.449996,1633234941,449996,0000,5A2F,1,1,3.405,GPS-3.0,5,0.311,0.357,0.668,0.975,1.470,0,2,9,3,0,0,3,,,,,,,,,,,0,000000,,,,,
003491-20211003-122123-000000145,220003491       ,2.4410654891,102.8307903647,17.7764587402,0.00000000,0.00000000,30.9911842268,33.373,7.983,4.713,-0.357,2021-10-03,04:22:21.750098,1633234941,750098,0000,5A2F,1,1,3.008,GPS-3.0,5,0.310,0.357,0.667,1.021,1.573,0,2,9,3,0,0,3,,,,,,,,,,,0,000000,,,,,
003491-20211003-122123-000000146,220003491       ,2.4410905467,102.8308064860,17.9076118469,0.00000000,0.00000000,31.0235490782,33.260,7.831,4.902,-0.149,2021-10-03,04:22:22.099998,1633234942,099998,0000,5A2F,1,1,3.312,GPS-3.0,5,0.310,0.357,0.668,1.021,1.573,0,2,9,3,0,0,3,,,,,,,,,,,0,000000,,,,,
003491-20211003-122123-000000147,220003491       ,2.4411152405,102.8308214711,18.0463218689,0.00000000,0.00000000,31.2419785278,33.937,8.097,4.827,0.033,2021-10-03,04:22:22.449995,1633234942,449995,0000,5A2F,1,1,3.211,GPS-3.0,5,0.310,0.357,0.668,1.021,1.573,0,2,9,3,0,0,3,,,,,,,,,,,0,000000,,,,,
003491-20211003-122123-000000148,220003491       ,2.4411408352,102.8308361540,17.9590663910,0.00000000,0.00000000,31.1744655230,34.451,8.234,4.877,0.334,2021-10-03,04:22:22.800003,1633234942,800003,0000,5A2F,1,1,3.280,GPS-3.0,5,0.310,0.357,0.668,1.021,1.573,0,2,9,3,0,0,3,,,,,,,,,,,0,000000,,,,,
003491-20211003-122123-000000149,220003491       ,2.4411663322,102.8308510933,17.7708702087,0.00000000,0.00000000,31.1763779760,34.280,8.174,4.885,0.570,2021-10-03,04:22:23.150176,1633234943,150176,0000,5A2F,1,1,3.285,GPS-3.0,5,0.310,0.357,0.668,1.160,1.708,0,2,9,3,0,0,3,,,,,,,,,,,0,000000,,,,,
003491-20211003-122123-000000150,220003491       ,2.4411928129,102.8308660430,17.4396228790,0.00000000,0.00000000,31.0969701967,35.127,8.429,4.916,0.902,2021-10-03,04:22:23.499999,1633234943,499999,0000,5A2F,1,1,3.381,GPS-3.0,5,0.310,0.356,0.668,0.971,1.669,0,2,9,3,0,0,3,,,,,,,,,,,0,000000,,,,,
003491-20211003-122123-000000151,220003491       ,2.4412200005,102.8308818980,17.0926990509,0.00000000,0.00000000,31.0725215345,36.909,8.857,5.164,1.132,2021-10-03,04:22:23.849995,1633234943,849995,0000,5A2F,1,1,3.499,GPS-3.0,5,0.310,0.357,0.669,0.896,1.681,0,2,9,3,0,0,3,,,,,,,,,,,0,000000,,,,,
003491-20211003-122123-000000152,220003491       ,2.4412439492,102.8308963144,16.9015464783,0.00000000,0.00000000,31.1324564445,38.449,9.125,5.549,1.206,2021-10-03,04:22:24.149995,1633234944,149995,0000,5A2F,1,1,3.107,GPS-3.0,5,0.310,0.357,0.669,0.813,1.394,0,2,9,3,0,0,3,,,,,,,,,,,0,000000,,,,,
003491-20211003-122123-000000153,220003491       ,2.4412690456,102.8309119490,16.6215648651,0.00000000,0.00000000,31.2414696787,39.151,9.279,5.672,1.323,2021-10-03,04:22:24.450188,1633234944,450188,0000,5A2F,1,1,3.287,GPS-3.0,5,0.311,0.357,0.669,0.894,1.515,0,2,9,3,0,0,3,,,,,,,,,,,0,000000,,,,,
003491-20211003-122123-000000154,220003491       ,2.4412945220,102.8309274710,16.2448825836,0.00000000,0.00000000,31.0790375350,39.748,9.455,5.701,1.297,2021-10-03,04:22:24.749996,1633234944,749996,0000,5A2F,1,1,3.316,GPS-3.0,5,0.311,0.357,0.669,0.971,1.669,0,2,9,3,0,0,3,,,,,,,,,,,0,000000,,,,,
003491-20211003-122123-000000155,220003491       ,2.4413203028,102.8309429819,15.8501005173,0.00000000,0.00000000,30.7907830615,39.793,9.454,5.727,1.370,2021-10-03,04:22:25.049995,1633234945,049995,0000,5A2F,1,1,3.345,GPS-3.0,5,0.312,0.358,0.670,0.916,1.504,0,2,9,3,0,0,3,,,,,,,,,,,0,000000,,,,,
003491-20211003-122123-000000156,220003491       ,2.4413466641,102.8309580654,15.4410238266,0.00000000,0.00000000,30.2747998357,40.389,9.683,5.667,1.324,2021-10-03,04:22:25.349995,1633234945,349995,0000,5A2F,1,1,3.376,GPS-3.0,5,0.312,0.359,0.671,1.512,2.373,0,2,9,3,0,0,2,,,,,,,,,,,0,000000,,,,,
003491-20211003-122123-000000157,220003491       ,2.4413730974,102.8309732245,15.0491971970,0.00000000,0.00000000,29.6415115260,40.415,9.750,5.566,1.300,2021-10-03,04:22:25.650122,1633234945,650122,0000,5A2F,1,1,3.388,GPS-3.0,5,0.313,0.359,0.672,0.971,1.669,0,2,9,3,0,0,2,,,,,,,,,,,0,000000,,,,,
003491-20211003-122123-000000158,220003491       ,2.4413995477,102.8309880720,14.6459827423,0.00000000,0.00000000,29.1003112419,40.004,9.686,5.445,1.279,2021-10-03,04:22:25.949995,1633234945,949995,0000,5A2F,1,1,3.372,GPS-3.0,5,0.314,0.361,0.673,0.971,1.669,0,2,9,3,0,0,2,,,,,,,,,,,0,000000,,,,,
003491-20211003-122123-000000159,220003491       ,2.4414265399,102.8310031940,14.3060493469,0.00000000,0.00000000,28.8984210953,39.470,9.594,5.307,1.223,2021-10-03,04:22:26.249995,1633234946,249995,0000,5A2F,1,1,3.440,GPS-3.0,5,0.315,0.361,0.673,0.971,1.669,0,2,10,3,0,0,2,,,,,,,,,,,0,000000,,,,,
003491-20211003-122123-000000160,220003491       ,2.4414525765,102.8310184572,14.0691156387,0.00000000,0.00000000,29.0112524053,38.172,9.250,5.185,1.074,2021-10-03,04:22:26.549995,1633234946,549995,0000,5A2F,1,1,3.355,GPS-3.0,5,0.315,0.361,0.674,0.927,1.523,0,2,10,3,0,0,2,,,,,,,,,,,0,000000,,,,,
003491-20211003-122123-000000161,220003491       ,2.4414773590,102.8310327478,13.8285102844,0.00000000,0.00000000,29.1969891545,36.640,8.900,4.938,0.930,2021-10-03,04:22:26.850050,1633234946,850050,0000,5A2F,1,1,3.180,GPS-3.0,5,0.316,0.362,0.674,0.916,1.504,0,2,10,3,0,0,2,,,,,,,,,,,0,000000,,,,,
003491-20211003-122123-000000162,220003491       ,2.4415008208,102.8310471029,13.7518854141,0.00000000,0.00000000,29.2428743653,34.884,8.494,4.662,0.778,2021-10-03,04:22:27.150266,1633234947,150266,0000,5A2F,1,1,3.058,GPS-3.0,5,0.316,0.362,0.675,1.040,1.628,0,2,10,3,0,0,2,,,,,,,,,,,0,000000,,,,,
003491-20211003-122123-000000163,220003491       ,2.4415267107,102.8310618147,13.5910711288,0.00000000,0.00000000,29.1712427564,33.235,8.084,4.458,0.720,2021-10-03,04:22:27.500052,1633234947,500052,0000,5A2F,1,1,3.310,GPS-3.0,5,0.316,0.362,0.676,1.124,1.628,0,2,10,3,0,0,2,,,,,,,,,,,0,000000,,,,,
003491-20211003-122123-000000164,220003491       ,2.4415525030,102.8310751624,13.4150295258,0.00000000,0.00000000,28.9175592854,31.928,7.760,4.295,0.730,2021-10-03,04:22:27.849996,1633234947,849996,0000,5A2F,1,1,3.229,GPS-3.0,5,0.317,0.363,0.676,1.040,1.628,0,2,10,3,0,0,2,,,,,,,,,,,0,000000,,,,,
003491-20211003-122123-000000165,220003491       ,2.4415763148,102.8310884272,13.3671350479,0.00000000,0.00000000,28.7986217862,30.544,7.449,4.062,0.696,2021-10-03,04:22:28.200002,1633234948,200002,0000,5A2F,1,1,3.030,GPS-3.0,5,0.317,0.362,0.676,1.040,1.628,0,2,10,3,0,0,2,,,,,,,,,,,0,000000,,,,,
003491-20211003-122123-000000166,220003491       ,2.4416030796,102.8311024707,13.0851716995,0.00000000,0.00000000,28.7366617252,29.992,7.410,3.807,0.775,2021-10-03,04:22:28.600004,1633234948,600004,0000,5A2F,1,1,3.360,GPS-3.0,5,0.317,0.363,0.677,1.512,2.372,0,2,10,3,0,0,2,,,,,,,,,,,0,000000,,,,,
003491-20211003-122123-000000167,220003491       ,2.4416292209,102.8311170154,12.6573877335,0.00000000,0.00000000,28.8618932436,30.279,7.380,4.034,0.898,2021-10-03,04:22:29.000223,1633234949,000223,0000,5A2F,1,1,3.326,GPS-3.0,5,0.317,0.363,0.677,1.512,2.372,0,2,10,3,0,0,2,,,,,,,,,,,0,000000,,,,,
003491-20211003-122123-000000168,220003491       ,2.4416561002,102.8311311080,12.3271579742,0.00000000,0.00000000,28.9180169080,30.699,7.471,4.112,0.909,2021-10-03,04:22:29.400003,1633234949,400003,0000,5A2F,1,1,3.374,GPS-3.0,5,0.317,0.363,0.677,0.794,1.368,0,2,10,3,0,0,2,,,,,,,,,,,0,000000,,,,,
003491-20211003-122123-000000169,220003491       ,2.4416831007,102.8311457577,12.2059469223,0.00000000,0.00000000,29.0287581801,30.964,7.559,4.104,0.777,2021-10-03,04:22:29.800002,1633234949,800002,0000,5A2F,1,1,3.415,GPS-3.0,5,0.317,0.363,0.677,0.859,1.426,0,2,10,3,0,0,2,,,,,,,,,,,0,000000,,,,,
003491-20211003-122123-000000170,220003491       ,2.4417073728,102.8311585857,12.0893316269,0.00000000,0.00000000,29.0090428391,31.510,7.666,4.224,0.732,2021-10-03,04:22:30.149996,1633234950,149996,0000,5A2F,1,1,3.052,GPS-3.0,5,0.317,0.363,0.677,0.794,1.368,0,2,10,3,0,0,2,,,,,,,,,,,0,000000,,,,,
003491-20211003-122123-000000171,220003491       ,2.4417323595,102.8311711100,11.9541234970,0.00000000,0.00000000,28.5623348070,32.009,7.901,4.078,0.754,2021-10-03,04:22:30.500000,1633234950,500000,0000,5A2F,1,1,3.107,GPS-3.0,5,0.317,0.363,0.677,0.794,1.368,0,2,10,3,0,0,2,,,,,,,,,,,0,000000,,,,,
003491-20211003-122123-000000172,220003491       ,2.4417575752,102.8311843231,11.8431940079,0.00000000,0.00000000,27.8310793865,32.479,8.037,4.099,0.791,2021-10-03,04:22:30.850146,1633234950,850146,0000,5A2F,1,1,3.165,GPS-3.0,5,0.317,0.363,0.677,1.025,1.582,0,2,10,3,0,0,2,,,,,,,,,,,0,000000,,,,,
003491-20211003-122123-000000173,220003491       ,2.4417831156,102.8311972301,11.6401014328,0.00000000,0.00000000,27.0554772553,33.186,8.226,4.161,0.864,2021-10-03,04:22:31.200002,1633234951,200002,0000,5A2F,1,1,3.181,GPS-3.0,5,0.317,0.363,0.677,0.794,1.368,0,2,10,3,0,0,2,,,,,,,,,,,0,000000,,,,,
003491-20211003-122123-000000174,220003491       ,2.4418092743,102.8312102312,11.4059009552,0.00000000,0.00000000,26.2567293206,34.039,8.450,4.243,0.985,2021-10-03,04:22:31.549996,1633234951,549996,0000,5A2F,1,1,3.248,GPS-3.0,5,0.317,0.363,0.677,0.794,1.368,0,2,10,3,0,0,2,,,,,,,,,,,0,000000,,,,,
003491-20211003-122123-000000175,220003491       ,2.4418369216,102.8312234864,11.1232280731,0.00000000,0.00000000,25.4801351044,35.851,9.016,4.228,1.079,2021-10-03,04:22:31.899999,1633234951,899999,0000,5A2F,1,1,3.409,GPS-3.0,5,0.317,0.363,0.677,0.794,1.368,0,2,10,3,0,0,2,,,,,,,,,,,0,000000,,,,,
003491-20211003-122123-000000176,220003491       ,2.4418622325,102.8312350549,10.8493785858,0.00000000,0.00000000,24.9378402824,37.428,9.454,4.327,1.170,2021-10-03,04:22:32.200002,1633234952,200002,0000,5A2F,1,1,3.094,GPS-3.0,5,0.317,0.363,0.677,0.794,1.368,0,2,10,3,0,0,3,,,,,,,,,,,0,000000,,,,,
003491-20211003-122123-000000177,220003491       ,2.4418884010,102.8312466240,10.5609712601,0.00000000,0.00000000,24.5346576308,38.588,9.922,4.056,1.103,2021-10-03,04:22:32.500000,1633234952,500000,0000,5A2F,1,1,3.181,GPS-3.0,5,0.317,0.363,0.677,0.794,1.368,0,2,10,3,0,0,3,,,,,,,,,,,0,000000,,,,,
003491-20211003-122123-000000178,220003491       ,2.4419159760,102.8312587538,10.2287588120,0.00000000,0.00000000,24.2693064891,39.912,10.182,4.387,1.257,2021-10-03,04:22:32.800172,1633234952,800172,0000,5A2F,1,1,3.349,GPS-3.0,5,0.317,0.363,0.677,0.875,1.458,0,2,10,3,0,0,3,,,,,,,,,,,0,000000,,,,,
003491-20211003-122123-000000179,220003491       ,2.4419440859,102.8312715510,9.9599189758,0.00000000,0.00000000,24.5872432572,41.544,10.451,4.894,1.039,2021-10-03,04:22:33.100000,1633234953,100000,0000,5A2F,1,1,3.434,GPS-3.0,5,0.317,0.362,0.677,0.875,1.458,0,2,10,3,0,0,3,,,,,,,,,,,0,000000,,,,,
003491-20211003-122123-000000180,220003491       ,2.4419734083,102.8312853319,9.7341747284,0.00000000,0.00000000,25.1618619495,44.081,10.955,5.470,1.039,2021-10-03,04:22:33.400002,1633234953,400002,0000,5A2F,1,1,3.602,GPS-3.0,5,0.317,0.362,0.677,0.875,1.458,0,2,10,3,0,0,4,,,,,,,,,,,0,000000,,,,,
003491-20211003-122123-000000181,220003491       ,2.4419981376,102.8312973394,9.4082403183,0.00000000,0.00000000,25.9308029387,43.259,10.925,5.004,1.267,2021-10-03,04:22:33.650001,1633234953,650001,0000,5A2F,1,1,3.056,GPS-3.0,5,0.317,0.362,0.677,0.835,1.388,0,2,10,3,0,0,4,,,,,,,,,,,0,000000,,,,,
003491-20211003-122123-000000182,220003491       ,2.4420231184,102.8313099862,9.2102899551,0.00000000,0.00000000,26.8904991586,45.238,11.260,5.578,0.882,2021-10-03,04:22:33.900012,1633234953,900012,0000,5A2F,1,1,3.113,GPS-3.0,5,0.317,0.362,0.676,0.835,1.388,0,2,10,3,0,0,4,,,,,,,,,,,0,000000,,,,,
003491-20211003-122123-000000183,220003491       ,2.4420486360,102.8313234116,9.0187520981,0.00000000,0.00000000,27.8253659333,45.661,11.224,5.908,0.895,2021-10-03,04:22:34.149996,1633234954,149996,0000,5A2F,1,1,3.206,GPS-3.0,5,0.317,0.362,0.676,0.835,1.388,0,2,10,3,0,0,4,,,,,,,,,,,0,000000,,,,,
003491-20211003-122123-000000184,220003491       ,2.4420744225,102.8313371943,8.9236774445,0.00000000,0.00000000,28.4856181222,46.976,11.472,6.219,0.676,2021-10-03,04:22:34.400004,1633234954,400004,0000,5A2F,1,1,3.251,GPS-3.0,5,0.316,0.362,0.676,0.835,1.388,0,2,9,3,0,0,3,,,,,,,,,,,0,000000,,,,,
003491-20211003-122123-000000185,220003491       ,2.4421010546,102.8313514926,8.8475971222,0.00000000,0.00000000,28.9908472151,47.301,11.540,6.283,0.638,2021-10-03,04:22:34.650099,1633234954,650099,0000,5A2F,1,1,3.360,GPS-3.0,5,0.316,0.361,0.676,0.835,1.387,0,2,9,3,0,0,3,,,,,,,,,,,0,000000,,,,,
003491-20211003-122123-000000186,220003491       ,2.4421272339,102.8313659787,8.7824897766,0.00000000,0.00000000,29.5350493675,47.467,11.543,6.373,0.388,2021-10-03,04:22:34.900000,1633234954,900000,0000,5A2F,1,1,3.326,GPS-3.0,5,0.316,0.361,0.676,0.835,1.387,0,2,9,3,0,0,3,,,,,,,,,,,0,000000,,,,,
003491-20211003-122123-000000187,220003491       ,2.4421534540,102.8313808372,8.7347831726,0.00000000,0.00000000,30.0240396856,47.523,11.430,6.604,0.256,2021-10-03,04:22:35.149996,1633234955,149996,0000,5A2F,1,1,3.350,GPS-3.0,5,0.316,0.361,0.675,0.835,1.387,0,2,9,3,0,0,3,,,,,,,,,,,0,000000,,,,,
003491-20211003-122123-000000188,220003491       ,2.4421794922,102.8313958187,8.7407016754,0.00000000,0.00000000,30.3697428803,47.207,11.220,6.787,0.162,2021-10-03,04:22:35.400177,1633234955,400177,0000,5A2F,1,1,3.340,GPS-3.0,5,0.316,0.361,0.675,0.835,1.387,0,2,9,3,0,0,3,,,,,,,,,,,0,000000,,,,,
003491-20211003-122123-000000189,220003491       ,2.4422047692,102.8314106431,8.7724781036,0.00000000,0.00000000,30.5327248542,45.800,10.968,6.447,0.090,2021-10-03,04:22:35.649996,1633234955,649996,0000,5A2F,1,1,3.258,GPS-3.0,5,0.316,0.361,0.675,0.835,1.387,0,2,9,3,0,0,3,,,,,,,,,,,0,000000,,,,,
003491-20211003-122123-000000190,220003491       ,2.4422296538,102.8314252535,8.8593521118,0.00000000,0.00000000,30.6745639776,44.913,10.738,6.351,-0.047,2021-10-03,04:22:35.900000,1633234955,900000,0000,5A2F,1,1,3.208,GPS-3.0,5,0.316,0.361,0.675,0.835,1.387,0,2,9,3,0,0,3,,,,,,,,,,,0,000000,,,,,
003491-20211003-122123-000000191,220003491       ,2.4422541466,102.8314396096,8.9405717850,0.00000000,0.00000000,30.7842021742,43.860,10.454,6.257,0.011,2021-10-03,04:22:36.150251,1633234956,150251,0000,5A2F,1,1,3.156,GPS-3.0,5,0.315,0.361,0.674,0.957,1.410,0,2,9,3,0,0,3,,,,,,,,,,,0,000000,,,,,
003491-20211003-122123-000000192,220003491       ,2.4422819585,102.8314558209,9.0463581085,0.00000000,0.00000000,30.7098179990,41.828,9.960,5.983,-0.022,2021-10-03,04:22:36.449995,1633234956,449995,0000,5A2F,1,1,3.579,GPS-3.0,5,0.315,0.360,0.673,0.835,1.387,0,2,9,3,0,0,3,,,,,,,,,,,0,000000,,,,,
003491-20211003-122123-000000193,220003491       ,2.4423088799,102.8314712334,9.1459646225,0.00000000,0.00000000,30.1099258993,40.810,9.779,5.734,-0.072,2021-10-03,04:22:36.749995,1633234956,749995,0000,5A2F,1,1,3.449,GPS-3.0,5,0.315,0.360,0.672,0.835,1.387,0,2,9,3,0,0,3,,,,,,,,,,,0,000000,,,,,
003491-20211003-122123-000000194,220003491       ,2.4423354418,102.8314856296,9.3680868149,0.00000000,0.00000000,29.3169136159,40.363,9.798,5.450,-0.124,2021-10-03,04:22:37.049995,1633234957,049995,0000,5A2F,1,1,3.359,GPS-3.0,5,0.315,0.360,0.672,0.835,1.387,0,2,9,3,0,0,3,,,,,,,,,,,0,000000,,,,,
003491-20211003-122123-000000195,220003491       ,2.4423616939,102.8315000048,9.5096168518,0.00000000,0.00000000,28.3652633589,39.961,9.774,5.263,-0.223,2021-10-03,04:22:37.350189,1633234957,350189,0000,5A2F,1,1,3.327,GPS-3.0,5,0.315,0.360,0.671,1.067,1.764,0,2,9,3,0,0,2,,,,,,,,,,,0,000000,,,,,
003491-20211003-122123-000000196,220003491       ,2.4423881066,102.8315138716,9.5666475296,0.00000000,0.00000000,27.2399914007,39.965,9.784,5.246,-0.132,2021-10-03,04:22:37.649995,1633234957,649995,0000,5A2F,1,1,3.316,GPS-3.0,5,0.315,0.360,0.672,0.977,1.926,0,2,9,3,0,0,2,,,,,,,,,,,0,000000,,,,,
003491-20211003-122123-000000197,220003491       ,2.4424147344,102.8315271477,9.5636940002,0.00000000,0.00000000,25.9996153870,39.250,9.787,4.804,-0.001,2021-10-03,04:22:37.949995,1633234957,949995,0000,5A2F,1,1,3.308,GPS-3.0,5,0.315,0.361,0.673,0.896,1.679,0,2,9,3,0,0,2,,,,,,,,,,,0,000000,,,,,
003491-20211003-122123-000000198,220003491       ,2.4424415790,102.8315398762,9.5569057465,0.00000000,0.00000000,24.6683790744,39.654,10.048,4.513,-0.021,2021-10-03,04:22:38.249995,1633234958,249995,0000,5A2F,1,1,3.303,GPS-3.0,5,0.316,0.362,0.673,1.566,1.982,0,2,9,2,0,0,2,,,,,,,,,,,0,000000,,,,,
003491-20211003-122123-000000199,220003491       ,2.4424688889,102.8315517116,9.5205144882,0.00000000,0.00000000,23.0327229380,40.213,10.225,4.498,-0.009,2021-10-03,04:22:38.550122,1633234958,550122,0000,5A2F,1,1,3.309,GPS-3.0,5,0.318,0.363,0.674,1.751,2.458,0,2,9,2,0,0,2,,,,,,,,,,,0,000000,,,,,
