#0:imgID ,1:camSN   ,2:lat       ,3:lon         ,4:height     ,5:roll       ,6:pitch       ,7:heading     ,8:speed,9:speed_n,10:speed_e,11:speed_d,12:date   ,13:time        ,14:unix_time_sec,15:unix_time_microsec,16:systemStatus,17:filterStatus,18:haveFix,19:extVelocity,20:distancetoprevious,21:releaseMode,22:device_id,23:lat_dev,24:lon_dev,25:hei_dev,26:hdop,27:vdop,28:fs_10,29:gnss_fix_status,30:gps_sat,31:glonass_sat,32:beidu_sat,33:gal_sat,34:sbas_sat,35:custLog0,36:custLog1,37:custLog2,38:custLog3,39:custLog4,40:custLog5,41:custLog6,42:custLog7,43:custLog8,44:custLog9,45:unix_time_sec_fixed,46:unix_time_microsec_fixed,47:pnvgbss_field3,48:pnvgbss_field4,49:pnvgbss_field5,50:pnvgbss_field6,51:pnvgbss_field7
000000001,01932-0007,2.4119719413,102.7306331897,25.6124172211,0,0,54.6436170584 ,9.367  ,1.367    ,2.214     ,-0.016    ,2021-08-05,03:03:56.250041,1628132636      ,250041               ,0000           ,5A4F           ,1         ,1             ,0.000                ,GPS-3.0       ,5           ,0.183     ,0.197     ,0.517     ,1.142  ,2.581  ,0       ,4                 ,10        ,4             ,0           ,0         ,4          ,           ,           ,           ,           ,           ,           ,           ,           ,           ,           ,0                     ,000000                     ,                 ,                 ,                 ,
000000002,01932-0007,2.4119877057,102.7306564274,25.6059570312,0,0,54.8166633161 ,10.210 ,1.590    ,2.349     ,-0.027    ,2021-08-05,03:03:57.300000,1628132637      ,300000               ,0000           ,5A4F           ,1         ,1             ,3.121                ,GPS-3.0       ,5           ,0.183     ,0.197     ,0.515     ,1.306  ,4.102  ,0       ,4                 ,10        ,4             ,0           ,0         ,4          ,           ,           ,           ,           ,           ,           ,           ,           ,           ,           ,0                     ,000000                     ,                 ,                 ,                 ,
000000003,01932-0007,2.4120035495,102.7306785513,25.8852958679,0,0,54.6655522109 ,9.536  ,1.477    ,2.199     ,-0.185    ,2021-08-05,03:03:58.350165,1628132638      ,350165               ,0000           ,5A4F           ,1         ,1             ,3.024                ,GPS-3.0       ,5           ,0.184     ,0.196     ,0.515     ,1.306  ,4.102  ,0       ,4                 ,10        ,4             ,0           ,0         ,4          ,           ,           ,           ,           ,           ,           ,           ,           ,           ,           ,0                     ,000000                     ,                 ,                 ,                 ,
000000004,01932-0007,2.4120197438,102.7307014740,26.1756763458,0,0,54.5295699747 ,9.742  ,1.604    ,2.179     ,-0.272    ,2021-08-05,03:03:59.549996,1628132639      ,549996               ,0000           ,5A4F           ,1         ,1             ,3.119                ,GPS-3.0       ,5           ,0.185     ,0.196     ,0.515     ,1.322  ,4.125  ,0       ,4                 ,10        ,4             ,0           ,0         ,4          ,           ,           ,           ,           ,           ,           ,           ,           ,           ,           ,0                     ,000000                     ,                 ,                 ,                 ,
000000005,01932-0007,2.4120356548,102.7307237457,26.4454097748,0,0,55.3439983162 ,10.154 ,1.578    ,2.338     ,-0.343    ,2021-08-05,03:04:00.649996,1628132640      ,649996               ,0000           ,5A4F           ,1         ,1             ,3.042                ,GPS-3.0       ,5           ,0.188     ,0.199     ,0.518     ,1.306  ,4.101  ,0       ,4                 ,10        ,4             ,0           ,0         ,2          ,           ,           ,           ,           ,           ,           ,           ,           ,           ,           ,0                     ,000000                     ,                 ,                 ,                 ,
000000006,01932-0007,2.4120517227,102.7307466209,26.8062248230,0,0,55.5886010508 ,10.907 ,1.668    ,2.529     ,-0.378    ,2021-08-05,03:04:01.700070,1628132641      ,700070               ,0000           ,5A4F           ,1         ,1             ,3.107                ,GPS-3.0       ,5           ,0.190     ,0.200     ,0.519     ,1.306  ,4.101  ,0       ,4                 ,10        ,4             ,0           ,0         ,2          ,           ,           ,           ,           ,           ,           ,           ,           ,           ,           ,0                     ,000000                     ,                 ,                 ,                 ,
000000007,01932-0007,2.4120669019,102.7307696382,26.9762840271,0,0,55.2200952696 ,11.466 ,1.827    ,2.609     ,-0.246    ,2021-08-05,03:04:02.700084,1628132642      ,700084               ,0000           ,5A4F           ,1         ,1             ,3.064                ,GPS-3.0       ,5           ,0.194     ,0.204     ,0.523     ,1.306  ,4.100  ,0       ,4                 ,9         ,4             ,0           ,0         ,3          ,           ,           ,           ,           ,           ,           ,           ,           ,           ,           ,0                     ,000000                     ,                 ,                 ,                 ,
000000008,01932-0007,2.4120825291,102.7307931372,27.1494846344,0,0,54.8406133744 ,11.122 ,1.744    ,2.550     ,-0.125    ,2021-08-05,03:04:03.649996,1628132643      ,649996               ,0000           ,5A4F           ,1         ,1             ,3.136                ,GPS-3.0       ,5           ,0.196     ,0.206     ,0.525     ,1.422  ,4.107  ,0       ,4                 ,10        ,3             ,0           ,0         ,2          ,           ,           ,           ,           ,           ,           ,           ,           ,           ,           ,0                     ,000000                     ,                 ,                 ,                 ,
000000009,01932-0007,2.4120983142,102.7308166628,27.3601627350,0,0,54.6078541879 ,11.346 ,1.757    ,2.617     ,-0.175    ,2021-08-05,03:04:04.649996,1628132644      ,649996               ,0000           ,5A2F           ,1         ,1             ,3.148                ,GPS-3.0       ,5           ,0.198     ,0.207     ,0.526     ,0.750  ,1.495  ,0       ,2                 ,10        ,3             ,0           ,0         ,2          ,           ,           ,           ,           ,           ,           ,           ,           ,           ,           ,0                     ,000000                     ,                 ,                 ,                 ,
000000010,01932-0007,2.4121135461,102.7308391814,27.6693916321,0,0,54.8923554725 ,12.561 ,1.994    ,2.863     ,-0.242    ,2021-08-05,03:04:05.549995,1628132645      ,549995               ,0000           ,5A4F           ,1         ,1             ,3.021                ,GPS-3.0       ,5           ,0.198     ,0.208     ,0.526     ,1.306  ,4.099  ,0       ,4                 ,10        ,4             ,0           ,0         ,3          ,           ,           ,           ,           ,           ,           ,           ,           ,           ,           ,0                     ,000000                     ,                 ,                 ,                 ,
000000011,01932-0007,2.4121302164,102.7308626620,27.8617553711,0,0,54.5002274820 ,14.894 ,2.340    ,3.412     ,-0.204    ,2021-08-05,03:04:06.400001,1628132646      ,400001               ,0000           ,5A4F           ,1         ,1             ,3.200                ,GPS-3.0       ,5           ,0.201     ,0.210     ,0.529     ,1.306  ,4.099  ,0       ,4                 ,10        ,4             ,0           ,0         ,2          ,           ,           ,           ,           ,           ,           ,           ,           ,           ,           ,0                     ,000000                     ,                 ,                 ,                 ,
000000012,01932-0007,2.4121468081,102.7308861785,27.9629917145,0,0,53.9246201199 ,15.857 ,2.502    ,3.625     ,-0.138    ,2021-08-05,03:04:07.150139,1628132647      ,150139               ,0000           ,5A4F           ,1         ,1             ,3.198                ,GPS-3.0       ,5           ,0.203     ,0.212     ,0.530     ,1.306  ,4.099  ,0       ,4                 ,10        ,4             ,0           ,0         ,2          ,           ,           ,           ,           ,           ,           ,           ,           ,           ,           ,0                     ,000000                     ,                 ,                 ,                 ,
000000013,01932-0007,2.4121619193,102.7309095669,27.9126930237,0,0,54.2082471403 ,15.238 ,2.336    ,3.530     ,-0.073    ,2021-08-05,03:04:07.849995,1628132647      ,849995               ,0000           ,5A4F           ,1         ,1             ,3.094                ,GPS-3.0       ,5           ,0.203     ,0.211     ,0.530     ,1.306  ,4.099  ,0       ,4                 ,10        ,4             ,0           ,0         ,2          ,           ,           ,           ,           ,           ,           ,           ,           ,           ,           ,0                     ,000000                     ,                 ,                 ,                 ,
000000014,01932-0007,2.4121766819,102.7309323488,27.8709964752,0,0,54.6424593413 ,16.305 ,2.489    ,3.784     ,-0.054    ,2021-08-05,03:04:08.549995,1628132648      ,549995               ,0000           ,5A4F           ,1         ,1             ,3.017                ,GPS-3.0       ,5           ,0.205     ,0.213     ,0.532     ,1.306  ,4.098  ,0       ,4                 ,10        ,4             ,0           ,0         ,3          ,           ,           ,           ,           ,           ,           ,           ,           ,           ,           ,0                     ,000000                     ,                 ,                 ,                 ,
000000015,01932-0007,2.4121923106,102.7309548218,27.9483165741,0,0,55.2017869475 ,16.957 ,2.591    ,3.934     ,-0.088    ,2021-08-05,03:04:09.200001,1628132649      ,200001               ,0000           ,5A4F           ,1         ,1             ,3.042                ,GPS-3.0       ,5           ,0.206     ,0.214     ,0.533     ,1.306  ,4.098  ,0       ,4                 ,10        ,4             ,0           ,0         ,2          ,           ,           ,           ,           ,           ,           ,           ,           ,           ,           ,0                     ,000000                     ,                 ,                 ,                 ,
000000016,01932-0007,2.4122076946,102.7309773817,27.9905490875,0,0,55.7416143637 ,16.725 ,2.593    ,3.855     ,-0.065    ,2021-08-05,03:04:09.849995,1628132649      ,849995               ,0000           ,5A4F           ,1         ,1             ,3.034                ,GPS-3.0       ,5           ,0.209     ,0.217     ,0.536     ,1.306  ,4.098  ,0       ,4                 ,10        ,4             ,0           ,0         ,2          ,           ,           ,           ,           ,           ,           ,           ,           ,           ,           ,0                     ,000000                     ,                 ,                 ,                 ,
000000017,01932-0007,2.4122235263,102.7309998979,28.0410842896,0,0,55.8716850711 ,17.649 ,2.691    ,4.098     ,-0.056    ,2021-08-05,03:04:10.499999,1628132650      ,499999               ,0000           ,5A4F           ,1         ,1             ,3.059                ,GPS-3.0       ,5           ,0.214     ,0.222     ,0.539     ,1.306  ,4.097  ,0       ,4                 ,10        ,4             ,0           ,0         ,3          ,           ,           ,           ,           ,           ,           ,           ,           ,           ,           ,0                     ,000000                     ,                 ,                 ,                 ,
000000018,01932-0007,2.4122395128,102.7310224639,27.9293060303,0,0,57.0953988383 ,17.022 ,2.653    ,3.914     ,0.060     ,2021-08-05,03:04:11.150147,1628132651      ,150147               ,0000           ,5A4F           ,1         ,1             ,3.073                ,GPS-3.0       ,5           ,0.216     ,0.224     ,0.541     ,1.143  ,2.581  ,0       ,4                 ,10        ,4             ,0           ,0         ,3          ,           ,           ,           ,           ,           ,           ,           ,           ,           ,           ,0                     ,000000                     ,                 ,                 ,                 ,
000000019,01932-0007,2.4122551651,102.7310449449,27.6744899750,0,0,57.1662859566 ,16.240 ,2.482    ,3.767     ,0.229     ,2021-08-05,03:04:11.800039,1628132651      ,800039               ,0000           ,5A4F           ,1         ,1             ,3.044                ,GPS-3.0       ,5           ,0.217     ,0.225     ,0.543     ,1.322  ,4.122  ,0       ,4                 ,10        ,4             ,0           ,0         ,3          ,           ,           ,           ,           ,           ,           ,           ,           ,           ,           ,0                     ,000000                     ,                 ,                 ,                 ,
000000020,01932-0007,2.4122710077,102.7310690008,27.5675888062,0,0,56.6856592051 ,15.290 ,2.399    ,3.505     ,0.183     ,2021-08-05,03:04:12.500024,1628132652      ,500024               ,0000           ,5A4F           ,1         ,1             ,3.201                ,GPS-3.0       ,5           ,0.216     ,0.224     ,0.543     ,1.321  ,4.122  ,0       ,4                 ,10        ,4             ,0           ,0         ,3          ,           ,           ,           ,           ,           ,           ,           ,           ,           ,           ,0                     ,000000                     ,                 ,                 ,                 ,
000000021,01932-0007,2.4122870506,102.7310927892,27.6715564728,0,0,56.5761746878 ,14.713 ,2.298    ,3.380     ,-0.009    ,2021-08-05,03:04:13.250285,1628132653      ,250285               ,0000           ,5A4F           ,1         ,1             ,3.189                ,GPS-3.0       ,5           ,0.217     ,0.225     ,0.544     ,1.306  ,4.097  ,0       ,4                 ,10        ,4             ,0           ,0         ,3          ,           ,           ,           ,           ,           ,           ,           ,           ,           ,           ,0                     ,000000                     ,                 ,                 ,                 ,
000000022,01932-0007,2.4123018647,102.7311154792,27.6655158997,0,0,56.5697235741 ,13.105 ,2.045    ,3.012     ,-0.049    ,2021-08-05,03:04:14.050094,1628132654      ,050094               ,0000           ,5A4F           ,1         ,1             ,3.011                ,GPS-3.0       ,5           ,0.218     ,0.226     ,0.545     ,1.306  ,4.097  ,0       ,4                 ,10        ,4             ,0           ,0         ,3          ,           ,           ,           ,           ,           ,           ,           ,           ,           ,           ,0                     ,000000                     ,                 ,                 ,                 ,
000000023,01932-0007,2.4123174332,102.7311389461,27.7341423035,0,0,56.8613555762 ,11.315 ,1.695    ,2.647     ,-0.061    ,2021-08-05,03:04:15.000011,1628132655      ,000011               ,0000           ,5A4F           ,1         ,1             ,3.129                ,GPS-3.0       ,5           ,0.221     ,0.229     ,0.548     ,0.866  ,2.101  ,0       ,4                 ,10        ,4             ,0           ,0         ,3          ,           ,           ,           ,           ,           ,           ,           ,           ,           ,           ,0                     ,000000                     ,                 ,                 ,                 ,
000000024,01932-0007,2.4123329591,102.7311626370,27.7080879211,0,0,56.8699103881 ,10.967 ,1.654    ,2.559     ,-0.059    ,2021-08-05,03:04:16.050134,1628132656      ,050134               ,0000           ,5A4F           ,1         ,1             ,3.148                ,GPS-3.0       ,5           ,0.222     ,0.230     ,0.550     ,0.897  ,2.752  ,0       ,4                 ,10        ,4             ,0           ,0         ,3          ,           ,           ,           ,           ,           ,           ,           ,           ,           ,           ,0                     ,000000                     ,                 ,                 ,                 ,
000000025,01932-0007,2.4123484070,102.7311861970,28.0913505554,0,0,56.7547329082 ,10.208 ,1.455    ,2.434     ,-0.204    ,2021-08-05,03:04:17.100000,1628132657      ,100000               ,0000           ,5A4F           ,1         ,1             ,3.131                ,GPS-3.0       ,5           ,0.223     ,0.231     ,0.550     ,0.897  ,2.752  ,0       ,4                 ,10        ,4             ,0           ,0         ,2          ,           ,           ,           ,           ,           ,           ,           ,           ,           ,           ,0                     ,000000                     ,                 ,                 ,                 ,
000000026,01932-0007,2.4123641943,102.7312087109,28.2510242462,0,0,56.0947727098 ,9.949  ,1.661    ,2.208     ,-0.185    ,2021-08-05,03:04:18.150258,1628132658      ,150258               ,0000           ,5A4F           ,1         ,1             ,3.056                ,GPS-3.0       ,5           ,0.224     ,0.231     ,0.551     ,0.821  ,2.101  ,0       ,4                 ,10        ,4             ,0           ,0         ,2          ,           ,           ,           ,           ,           ,           ,           ,           ,           ,           ,0                     ,000000                     ,                 ,                 ,                 ,
000000027,01932-0007,2.4123804657,102.7312316974,28.5553836823,0,0,55.7356140425 ,9.855  ,1.631    ,2.199     ,-0.143    ,2021-08-05,03:04:19.200003,1628132659      ,200003               ,0000           ,5A4F           ,1         ,1             ,3.130                ,GPS-3.0       ,5           ,0.226     ,0.233     ,0.551     ,0.821  ,2.101  ,0       ,4                 ,10        ,4             ,0           ,0         ,2          ,           ,           ,           ,           ,           ,           ,           ,           ,           ,           ,0                     ,000000                     ,                 ,                 ,                 ,
000000028,01932-0007,2.4123954514,102.7312547567,28.9861335754,0,0,55.4622903625 ,9.031  ,1.464    ,2.037     ,-0.218    ,2021-08-05,03:04:20.349996,1628132660      ,349996               ,0000           ,5A4F           ,1         ,1             ,3.056                ,GPS-3.0       ,5           ,0.227     ,0.234     ,0.553     ,0.898  ,2.753  ,0       ,4                 ,10        ,4             ,0           ,0         ,2          ,           ,           ,           ,           ,           ,           ,           ,           ,           ,           ,0                     ,000000                     ,                 ,                 ,                 ,
000000029,01932-0007,2.4124116321,102.7312773744,29.4761695862,0,0,54.2171981032 ,6.819  ,1.063    ,1.567     ,-0.247    ,2021-08-05,03:04:21.749995,1628132661      ,749995               ,0000           ,5A4F           ,1         ,1             ,3.090                ,GPS-3.0       ,5           ,0.229     ,0.236     ,0.556     ,0.821  ,2.102  ,0       ,4                 ,10        ,4             ,0           ,0         ,2          ,           ,           ,           ,           ,           ,           ,           ,           ,           ,           ,0                     ,000000                     ,                 ,                 ,                 ,
000000030,01932-0007,2.4124270693,102.7312996986,29.9084281921,0,0,55.2310645534 ,7.418  ,1.072    ,1.760     ,-0.190    ,2021-08-05,03:04:23.249995,1628132663      ,249995               ,0000           ,5A4F           ,1         ,1             ,3.016                ,GPS-3.0       ,5           ,0.219     ,0.228     ,0.542     ,0.885  ,2.236  ,0       ,4                 ,10        ,4             ,0           ,0         ,2          ,           ,           ,           ,           ,           ,           ,           ,           ,           ,           ,0                     ,000000                     ,                 ,                 ,                 ,
000000031,01932-0007,2.4124415239,102.7313227854,30.8000450134,0,0,56.1434992793 ,2.314  ,0.396    ,0.506     ,-0.146    ,2021-08-05,03:04:32.150013,1628132672      ,150013               ,0000           ,5A4F           ,1         ,1             ,3.027                ,GPS-3.0       ,5           ,0.218     ,0.222     ,0.543     ,0.822  ,2.104  ,0       ,4                 ,10        ,4             ,0           ,0         ,3          ,           ,           ,           ,           ,           ,           ,           ,           ,           ,           ,0                     ,000000                     ,                 ,                 ,                 ,
000000032,01932-0007,2.4124502731,102.7313486449,31.4512577057,0,0,77.9143242776 ,6.166  ,-0.012   ,1.713     ,-0.256    ,2021-08-05,03:04:34.500074,1628132674      ,500074               ,0000           ,5A4F           ,1         ,1             ,3.033                ,GPS-3.0       ,5           ,0.218     ,0.218     ,0.542     ,0.822  ,2.105  ,0       ,4                 ,10        ,4             ,0           ,0         ,2          ,           ,           ,           ,           ,           ,           ,           ,           ,           ,           ,0                     ,000000                     ,                 ,                 ,                 ,
000000033,01932-0007,2.4124405709,102.7313742311,31.9619388580,0,0,117.0066046337,10.336 ,-1.734   ,2.288     ,-0.223    ,2021-08-05,03:04:35.850223,1628132675      ,850223               ,0000           ,5A4F           ,1         ,1             ,3.040                ,GPS-3.0       ,5           ,0.217     ,0.213     ,0.536     ,0.822  ,2.105  ,0       ,4                 ,10        ,4             ,0           ,0         ,2          ,           ,           ,           ,           ,           ,           ,           ,           ,           ,           ,0                     ,000000                     ,                 ,                 ,                 ,
000000034,01932-0007,2.4124195908,102.7313933834,31.9383735657,0,0,145.5508940809,13.299 ,-3.168   ,1.900     ,0.134     ,2021-08-05,03:04:36.850266,1628132676      ,850266               ,0000           ,5A4F           ,1         ,1             ,3.157                ,GPS-3.0       ,5           ,0.223     ,0.218     ,0.540     ,0.822  ,2.105  ,0       ,4                 ,10        ,4             ,0           ,0         ,2          ,           ,           ,           ,           ,           ,           ,           ,           ,           ,           ,0                     ,000000                     ,                 ,                 ,                 ,
000000035,01932-0007,2.4123953502,102.7314083535,31.5054435730,0,0,144.1819602467,14.698 ,-3.272   ,2.442     ,0.339     ,2021-08-05,03:04:37.699999,1628132677      ,699999               ,0000           ,5A4F           ,1         ,1             ,3.167                ,GPS-3.0       ,5           ,0.224     ,0.220     ,0.542     ,0.822  ,2.105  ,0       ,4                 ,10        ,4             ,0           ,0         ,1          ,           ,           ,           ,           ,           ,           ,           ,           ,           ,           ,0                     ,000000                     ,                 ,                 ,                 ,
000000036,01932-0007,2.4123731608,102.7314254364,31.1594085693,0,0,141.0120967736,14.550 ,-3.210   ,2.456     ,0.490     ,2021-08-05,03:04:38.449995,1628132678      ,449995               ,0000           ,5A4F           ,1         ,1             ,3.113                ,GPS-3.0       ,5           ,0.229     ,0.225     ,0.545     ,0.822  ,2.105  ,0       ,4                 ,10        ,4             ,0           ,0         ,2          ,           ,           ,           ,           ,           ,           ,           ,           ,           ,           ,0                     ,000000                     ,                 ,                 ,                 ,
000000037,01932-0007,2.4123515864,102.7314436527,30.7045593262,0,0,140.1071376897,11.677 ,-2.554   ,1.999     ,0.484     ,2021-08-05,03:04:39.249995,1628132679      ,249995               ,0000           ,5A4F           ,1         ,1             ,3.139                ,GPS-3.0       ,5           ,0.229     ,0.223     ,0.546     ,0.822  ,2.105  ,0       ,4                 ,10        ,4             ,0           ,0         ,2          ,           ,           ,           ,           ,           ,           ,           ,           ,           ,           ,0                     ,000000                     ,                 ,                 ,                 ,
000000038,01932-0007,2.4123302993,102.7314605636,30.4637699127,0,0,139.5906934262,2.849  ,-0.663   ,0.432     ,0.178     ,2021-08-05,03:04:40.750187,1628132680      ,750187               ,0000           ,5A4F           ,1         ,1             ,3.022                ,GPS-3.0       ,5           ,0.229     ,0.223     ,0.547     ,0.822  ,2.106  ,0       ,4                 ,10        ,4             ,0           ,0         ,2          ,           ,           ,           ,           ,           ,           ,           ,           ,           ,           ,0                     ,000000                     ,                 ,                 ,                 ,
000000039,01932-0007,2.4123073842,102.7314762732,30.8378944397,0,0,140.7378236973,9.864  ,-2.115   ,1.742     ,0.051     ,2021-08-05,03:04:48.699999,1628132688      ,699999               ,0000           ,5A4F           ,1         ,1             ,3.088                ,GPS-3.0       ,5           ,0.218     ,0.207     ,0.518     ,0.823  ,2.107  ,0       ,4                 ,10        ,4             ,0           ,0         ,4          ,           ,           ,           ,           ,           ,           ,           ,           ,           ,           ,0                     ,000000                     ,                 ,                 ,                 ,
000000040,01932-0007,2.4122849808,102.7314939109,30.7681789398,0,0,140.4368036002,14.648 ,-3.155   ,2.569     ,0.036     ,2021-08-05,03:04:49.600002,1628132689      ,600002               ,0000           ,5A4F           ,1         ,1             ,3.169                ,GPS-3.0       ,5           ,0.217     ,0.205     ,0.516     ,0.739  ,1.708  ,0       ,4                 ,10        ,4             ,0           ,0         ,3          ,           ,           ,           ,           ,           ,           ,           ,           ,           ,           ,0                     ,000000                     ,                 ,                 ,                 ,
000000041,01932-0007,2.4122636880,102.7315109760,30.5440063477,0,0,140.2607486441,17.556 ,-3.715   ,3.160     ,0.167     ,2021-08-05,03:04:50.249996,1628132690      ,249996               ,0000           ,5A4F           ,1         ,1             ,3.033                ,GPS-3.0       ,5           ,0.216     ,0.203     ,0.512     ,0.868  ,2.108  ,0       ,4                 ,10        ,4             ,0           ,0         ,3          ,           ,           ,           ,           ,           ,           ,           ,           ,           ,           ,0                     ,000000                     ,                 ,                 ,                 ,
000000042,01932-0007,2.4122430231,102.7315289884,30.4347686768,0,0,141.3390852499,18.565 ,-3.868   ,3.411     ,0.176     ,2021-08-05,03:04:50.849996,1628132690      ,849996               ,0000           ,5A4F           ,1         ,1             ,3.047                ,GPS-3.0       ,5           ,0.217     ,0.202     ,0.510     ,0.868  ,2.109  ,0       ,4                 ,10        ,4             ,0           ,0         ,3          ,           ,           ,           ,           ,           ,           ,           ,           ,           ,           ,0                     ,000000                     ,                 ,                 ,                 ,
000000043,01932-0007,2.4122207415,102.7315477350,30.3738498688,0,0,140.8887981987,19.796 ,-4.181   ,3.571     ,0.157     ,2021-08-05,03:04:51.450034,1628132691      ,450034               ,0000           ,5A4F           ,1         ,1             ,3.237                ,GPS-3.0       ,5           ,0.217     ,0.201     ,0.509     ,0.907  ,2.111  ,0       ,4                 ,9         ,4             ,0           ,0         ,3          ,           ,           ,           ,           ,           ,           ,           ,           ,           ,           ,0                     ,000000                     ,                 ,                 ,                 ,
000000044,01932-0007,2.4121990926,102.7315650263,30.4296493530,0,0,141.7592784877,20.256 ,-4.394   ,3.514     ,0.112     ,2021-08-05,03:04:52.000109,1628132692      ,000109               ,0000           ,5A4F           ,1         ,1             ,3.080                ,GPS-3.0       ,5           ,0.216     ,0.201     ,0.508     ,0.823  ,2.108  ,0       ,4                 ,9         ,4             ,0           ,0         ,3          ,           ,           ,           ,           ,           ,           ,           ,           ,           ,           ,0                     ,000000                     ,                 ,                 ,                 ,
000000045,01932-0007,2.4121766322,102.7315829921,30.3086357117,0,0,142.4281315923,20.854 ,-4.570   ,3.559     ,0.136     ,2021-08-05,03:04:52.550150,1628132692      ,550150               ,0000           ,5A4F           ,1         ,1             ,3.197                ,GPS-3.0       ,5           ,0.216     ,0.200     ,0.505     ,0.823  ,2.108  ,0       ,4                 ,10        ,4             ,0           ,0         ,3          ,           ,           ,           ,           ,           ,           ,           ,           ,           ,           ,0                     ,000000                     ,                 ,                 ,                 ,
000000046,01932-0007,2.4121528968,102.7316005375,30.1891784668,0,0,143.6133743190,21.369 ,-4.827   ,3.454     ,0.178     ,2021-08-05,03:04:53.100235,1628132693      ,100235               ,0000           ,5A4F           ,1         ,1             ,3.281                ,GPS-3.0       ,5           ,0.216     ,0.199     ,0.503     ,0.823  ,2.108  ,0       ,4                 ,10        ,4             ,0           ,0         ,3          ,           ,           ,           ,           ,           ,           ,           ,           ,           ,           ,0                     ,000000                     ,                 ,                 ,                 ,
000000047,01932-0007,2.4121289702,102.7316176033,30.0110282898,0,0,144.9654649067,20.720 ,-4.763   ,3.232     ,0.262     ,2021-08-05,03:04:53.650273,1628132693      ,650273               ,0000           ,5A4F           ,1         ,1             ,3.267                ,GPS-3.0       ,5           ,0.216     ,0.199     ,0.502     ,0.869  ,2.109  ,0       ,4                 ,10        ,4             ,0           ,0         ,4          ,           ,           ,           ,           ,           ,           ,           ,           ,           ,           ,0                     ,000000                     ,                 ,                 ,                 ,
000000048,01932-0007,2.4121064280,102.7316330627,29.8555469513,0,0,146.0689229483,19.530 ,-4.494   ,3.039     ,0.307     ,2021-08-05,03:04:54.200009,1628132694      ,200009               ,0000           ,5A4F           ,1         ,1             ,3.039                ,GPS-3.0       ,5           ,0.217     ,0.200     ,0.502     ,0.869  ,2.109  ,0       ,4                 ,10        ,4             ,0           ,0         ,4          ,           ,           ,           ,           ,           ,           ,           ,           ,           ,           ,0                     ,000000                     ,                 ,                 ,                 ,
000000049,01932-0007,2.4120824765,102.7316479322,29.5825061798,0,0,147.6921857064,18.305 ,-4.275   ,2.753     ,0.395     ,2021-08-05,03:04:54.800001,1628132694      ,800001               ,0000           ,5A4F           ,1         ,1             ,3.134                ,GPS-3.0       ,5           ,0.219     ,0.202     ,0.504     ,1.145  ,2.582  ,0       ,4                 ,10        ,4             ,0           ,0         ,4          ,           ,           ,           ,           ,           ,           ,           ,           ,           ,           ,0                     ,000000                     ,                 ,                 ,                 ,
000000050,01932-0007,2.4120593108,102.7316623927,29.2990207672,0,0,148.0637616576,18.232 ,-4.311   ,2.658     ,0.448     ,2021-08-05,03:04:55.400001,1628132695      ,400001               ,0000           ,5A4F           ,1         ,1             ,3.036                ,GPS-3.0       ,5           ,0.222     ,0.206     ,0.507     ,0.869  ,2.110  ,0       ,4                 ,10        ,4             ,0           ,0         ,3          ,           ,           ,           ,           ,           ,           ,           ,           ,           ,           ,0                     ,000000                     ,                 ,                 ,                 ,
000000051,01932-0007,2.4120358243,102.7316777200,28.6692295074,0,0,147.1170154764,16.592 ,-3.859   ,2.520     ,0.672     ,2021-08-05,03:04:56.100249,1628132696      ,100249               ,0000           ,5A4F           ,1         ,1             ,3.118                ,GPS-3.0       ,5           ,0.223     ,0.208     ,0.509     ,0.869  ,2.110  ,0       ,4                 ,10        ,4             ,0           ,0         ,3          ,           ,           ,           ,           ,           ,           ,           ,           ,           ,           ,0                     ,000000                     ,                 ,                 ,                 ,
000000052,01932-0007,2.4120122695,102.7316938177,28.1522293091,0,0,146.3089631165,15.377 ,-3.567   ,2.349     ,0.716     ,2021-08-05,03:04:56.800001,1628132696      ,800001               ,0000           ,5A4F           ,1         ,1             ,3.172                ,GPS-3.0       ,5           ,0.225     ,0.209     ,0.511     ,0.869  ,2.110  ,0       ,4                 ,10        ,4             ,0           ,0         ,3          ,           ,           ,           ,           ,           ,           ,           ,           ,           ,           ,0                     ,000000                     ,                 ,                 ,                 ,
000000053,01932-0007,2.4119889067,102.7317096998,27.6782455444,0,0,145.1194173706,12.608 ,-2.888   ,1.981     ,0.642     ,2021-08-05,03:04:57.600001,1628132697      ,600001               ,0000           ,5A4F           ,1         ,1             ,3.140                ,GPS-3.0       ,5           ,0.229     ,0.214     ,0.514     ,0.869  ,2.110  ,0       ,4                 ,10        ,4             ,0           ,0         ,3          ,           ,           ,           ,           ,           ,           ,           ,           ,           ,           ,0                     ,000000                     ,                 ,                 ,                 ,
000000054,01932-0007,2.4119672355,102.7317266204,27.2593097687,0,0,143.8441527507,9.449  ,-2.147   ,1.510     ,0.528     ,2021-08-05,03:04:58.649995,1628132698      ,649995               ,0000           ,5A4F           ,1         ,1             ,3.056                ,GPS-3.0       ,5           ,0.231     ,0.216     ,0.517     ,0.823  ,2.109  ,0       ,4                 ,10        ,4             ,0           ,0         ,3          ,           ,           ,           ,           ,           ,           ,           ,           ,           ,           ,0                     ,000000                     ,                 ,                 ,                 ,
000000055,01932-0007,2.4119435302,102.7317415630,26.9075984955,0,0,144.6251575615,8.699  ,-2.030   ,1.311     ,0.440     ,2021-08-05,03:05:00.000298,1628132700      ,000298               ,0000           ,5A4F           ,1         ,1             ,3.115                ,GPS-3.0       ,5           ,0.233     ,0.219     ,0.520     ,0.877  ,2.837  ,0       ,4                 ,10        ,4             ,0           ,0         ,3          ,           ,           ,           ,           ,           ,           ,           ,           ,           ,           ,0                     ,000000                     ,                 ,                 ,                 ,
000000056,01932-0007,2.4119196886,102.7317553069,26.4976844788,0,0,147.7165421610,10.300 ,-2.492   ,1.406     ,0.481     ,2021-08-05,03:05:01.100014,1628132701      ,100014               ,0000           ,5A4F           ,1         ,1             ,3.059                ,GPS-3.0       ,5           ,0.234     ,0.221     ,0.522     ,0.978  ,2.123  ,0       ,4                 ,10        ,4             ,0           ,0         ,2          ,           ,           ,           ,           ,           ,           ,           ,           ,           ,           ,0                     ,000000                     ,                 ,                 ,                 ,
000000057,01932-0007,2.4118953508,102.7317687497,26.1705169678,0,0,150.2080585664,11.162 ,-2.701   ,1.523     ,0.463     ,2021-08-05,03:05:02.100000,1628132702      ,100000               ,0000           ,5A4F           ,1         ,1             ,3.091                ,GPS-3.0       ,5           ,0.234     ,0.222     ,0.524     ,0.869  ,2.111  ,0       ,4                 ,10        ,4             ,0           ,0         ,2          ,           ,           ,           ,           ,           ,           ,           ,           ,           ,           ,0                     ,000000                     ,                 ,                 ,                 ,
000000058,01932-0007,2.4118705138,102.7317817925,25.5664710999,0,0,152.2693959976,9.624  ,-2.378   ,1.222     ,0.488     ,2021-08-05,03:05:03.149996,1628132703      ,149996               ,0000           ,5A4F           ,1         ,1             ,3.119                ,GPS-3.0       ,5           ,0.238     ,0.226     ,0.528     ,0.823  ,2.110  ,0       ,4                 ,10        ,4             ,0           ,0         ,2          ,           ,           ,           ,           ,           ,           ,           ,           ,           ,           ,0                     ,000000                     ,                 ,                 ,                 ,
000000059,01932-0007,2.4118448798,102.7317938964,24.8983230591,0,0,155.0337921207,11.335 ,-2.809   ,1.423     ,0.636     ,2021-08-05,03:05:04.200002,1628132704      ,200002               ,0000           ,5A4F           ,1         ,1             ,3.152                ,GPS-3.0       ,5           ,0.240     ,0.229     ,0.531     ,0.823  ,2.110  ,0       ,4                 ,10        ,4             ,0           ,0         ,3          ,           ,           ,           ,           ,           ,           ,           ,           ,           ,           ,0                     ,000000                     ,                 ,                 ,                 ,
000000060,01932-0007,2.4118188552,102.7318034390,24.2698097229,0,0,157.2301760521,10.695 ,-2.808   ,0.970     ,0.683     ,2021-08-05,03:05:05.200002,1628132705      ,200002               ,0000           ,5A4F           ,1         ,1             ,3.082                ,GPS-3.0       ,5           ,0.241     ,0.230     ,0.533     ,0.883  ,2.118  ,0       ,4                 ,10        ,4             ,0           ,0         ,2          ,           ,           ,           ,           ,           ,           ,           ,           ,           ,           ,0                     ,000000                     ,                 ,                 ,                 ,
000000061,01932-0007,2.4117929879,102.7318134383,23.5325737000,0,0,161.1823557323,9.561  ,-2.543   ,0.767     ,0.730     ,2021-08-05,03:05:06.250054,1628132706      ,250054               ,0000           ,5A4F           ,1         ,1             ,3.083                ,GPS-3.0       ,5           ,0.242     ,0.232     ,0.535     ,0.883  ,2.118  ,0       ,4                 ,10        ,4             ,0           ,0         ,2          ,           ,           ,           ,           ,           ,           ,           ,           ,           ,           ,0                     ,000000                     ,                 ,                 ,                 ,
000000062,01932-0007,2.4117662313,102.7318203545,22.6859245300,0,0,169.6120112814,8.615  ,-2.370   ,0.328     ,0.706     ,2021-08-05,03:05:07.500000,1628132707      ,500000               ,0000           ,5A4F           ,1         ,1             ,3.073                ,GPS-3.0       ,5           ,0.244     ,0.234     ,0.538     ,0.824  ,2.111  ,0       ,4                 ,10        ,4             ,0           ,0         ,1          ,           ,           ,           ,           ,           ,           ,           ,           ,           ,           ,0                     ,000000                     ,                 ,                 ,                 ,
000000063,01932-0007,2.4117384674,102.7318203671,21.8810710907,0,0,180.8864132991,9.108  ,-2.527   ,-0.129    ,0.746     ,2021-08-05,03:05:08.749995,1628132708      ,749995               ,0000           ,5A4F           ,1         ,1             ,3.087                ,GPS-3.0       ,5           ,0.246     ,0.237     ,0.541     ,0.824  ,2.111  ,0       ,4                 ,10        ,4             ,0           ,0         ,2          ,           ,           ,           ,           ,           ,           ,           ,           ,           ,           ,0                     ,000000                     ,                 ,                 ,                 ,
000000064,01932-0007,2.4117107727,102.7318168966,21.0473175049,0,0,188.5998552118,9.780  ,-2.672   ,-0.490    ,0.694     ,2021-08-05,03:05:09.900294,1628132709      ,900294               ,0000           ,5A4F           ,1         ,1             ,3.104                ,GPS-3.0       ,5           ,0.247     ,0.239     ,0.543     ,0.900  ,2.771  ,0       ,4                 ,10        ,4             ,0           ,0         ,2          ,           ,           ,           ,           ,           ,           ,           ,           ,           ,           ,0                     ,000000                     ,                 ,                 ,                 ,
000000065,01932-0007,2.4116833765,102.7318124062,20.5168724060,0,0,193.4888772989,8.738  ,-2.366   ,-0.543    ,0.479     ,2021-08-05,03:05:11.099998,1628132711      ,099998               ,0000           ,5A4F           ,1         ,1             ,3.087                ,GPS-3.0       ,5           ,0.248     ,0.234     ,0.541     ,1.102  ,2.773  ,0       ,4                 ,10        ,4             ,0           ,0         ,1          ,           ,           ,           ,           ,           ,           ,           ,           ,           ,           ,0                     ,000000                     ,                 ,                 ,                 ,
000000066,01932-0007,2.4116571066,102.7318060822,19.9801769257,0,0,195.4112477012,7.719  ,-2.068   ,-0.567    ,0.287     ,2021-08-05,03:05:12.400001,1628132712      ,400001               ,0000           ,5A4F           ,1         ,1             ,3.004                ,GPS-3.0       ,5           ,0.249     ,0.233     ,0.541     ,0.959  ,2.775  ,0       ,4                 ,10        ,4             ,0           ,0         ,0          ,           ,           ,           ,           ,           ,           ,           ,           ,           ,           ,0                     ,000000                     ,                 ,                 ,                 ,
000000067,01932-0007,2.4116311472,102.7317985081,19.4492416382,0,0,196.5305791024,8.250  ,-2.184   ,-0.693    ,0.392     ,2021-08-05,03:05:13.649995,1628132713      ,649995               ,0000           ,5A4F           ,1         ,1             ,3.007                ,GPS-3.0       ,5           ,0.249     ,0.233     ,0.542     ,0.900  ,2.772  ,0       ,4                 ,10        ,4             ,0           ,0         ,1          ,           ,           ,           ,           ,           ,           ,           ,           ,           ,           ,0                     ,000000                     ,                 ,                 ,                 ,
000000068,01932-0007,2.4116049377,102.7317919592,19.5314884186,0,0,197.9134875036,7.389  ,-1.953   ,-0.631    ,0.164     ,2021-08-05,03:05:15.000009,1628132715      ,000009               ,0000           ,5A4F           ,1         ,1             ,3.004                ,GPS-3.0       ,5           ,0.248     ,0.231     ,0.542     ,0.884  ,2.120  ,0       ,4                 ,10        ,4             ,0           ,0         ,2          ,           ,           ,           ,           ,           ,           ,           ,           ,           ,           ,0                     ,000000                     ,                 ,                 ,                 ,
000000069,01932-0007,2.4115790408,102.7317829987,19.5037155151,0,0,201.9633662097,6.084  ,-1.569   ,-0.628    ,0.120     ,2021-08-05,03:05:16.700163,1628132716      ,700163               ,0000           ,5A4F           ,1         ,1             ,3.047                ,GPS-3.0       ,5           ,0.247     ,0.229     ,0.542     ,0.824  ,2.113  ,0       ,4                 ,10        ,4             ,0           ,0         ,4          ,           ,           ,           ,           ,           ,           ,           ,           ,           ,           ,0                     ,000000                     ,                 ,                 ,                 ,
000000070,01932-0007,2.4115555937,102.7317691487,19.7993965149,0,0,210.8883060963,6.582  ,-1.306   ,-1.280    ,-0.044    ,2021-08-05,03:05:18.349996,1628132718      ,349996               ,0000           ,5A4F           ,1         ,1             ,3.027                ,GPS-3.0       ,5           ,0.247     ,0.230     ,0.544     ,0.980  ,2.127  ,0       ,4                 ,10        ,4             ,0           ,0         ,2          ,           ,           ,           ,           ,           ,           ,           ,           ,           ,           ,0                     ,000000                     ,                 ,                 ,                 ,
000000071,01932-0007,2.4115370128,102.7317495254,20.1187324524,0,0,228.9145276934,5.929  ,-0.911   ,-1.372    ,-0.116    ,2021-08-05,03:05:20.150162,1628132720      ,150162               ,0000           ,5A4F           ,1         ,1             ,3.004                ,GPS-3.0       ,5           ,0.247     ,0.232     ,0.547     ,1.303  ,4.071  ,0       ,4                 ,10        ,4             ,0           ,0         ,2          ,           ,           ,           ,           ,           ,           ,           ,           ,           ,           ,0                     ,000000                     ,                 ,                 ,                 ,
000000072,01932-0007,2.4115235948,102.7317258819,20.3297481537,0,0,241.7789431083,5.348  ,-0.326   ,-1.449    ,-0.056    ,2021-08-05,03:05:22.150192,1628132722      ,150192               ,0000           ,5A4F           ,1         ,1             ,3.021                ,GPS-3.0       ,5           ,0.248     ,0.232     ,0.546     ,1.104  ,2.582  ,0       ,4                 ,10        ,4             ,0           ,0         ,0          ,           ,           ,           ,           ,           ,           ,           ,           ,           ,           ,0                     ,000000                     ,                 ,                 ,                 ,
000000073,01932-0007,2.4115117052,102.7317015494,20.5798835754,0,0,244.3993042023,6.017  ,-0.599   ,-1.560    ,-0.052    ,2021-08-05,03:05:24.150222,1628132724      ,150222               ,0000           ,5A4F           ,1         ,1             ,3.009                ,GPS-3.0       ,5           ,0.246     ,0.228     ,0.537     ,0.825  ,2.114  ,0       ,4                 ,10        ,4             ,0           ,0         ,3          ,           ,           ,           ,           ,           ,           ,           ,           ,           ,           ,0                     ,000000                     ,                 ,                 ,                 ,
000000074,01932-0007,2.4114982950,102.7316775886,20.5432109833,0,0,244.0182889296,6.619  ,-0.976   ,-1.558    ,0.035     ,2021-08-05,03:05:26.000010,1628132726      ,000010               ,0000           ,5A4F           ,1         ,1             ,3.051                ,GPS-3.0       ,5           ,0.244     ,0.225     ,0.538     ,0.825  ,2.114  ,0       ,4                 ,10        ,4             ,0           ,0         ,4          ,           ,           ,           ,           ,           ,           ,           ,           ,           ,           ,0                     ,000000                     ,                 ,                 ,                 ,
000000075,01932-0007,2.4114821596,102.7316552045,20.4164276123,0,0,241.5222372786,7.246  ,-1.116   ,-1.675    ,0.106     ,2021-08-05,03:05:27.549995,1628132727      ,549995               ,0000           ,5A4F           ,1         ,1             ,3.066                ,GPS-3.0       ,5           ,0.228     ,0.224     ,0.540     ,0.825  ,2.115  ,0       ,4                 ,10        ,4             ,0           ,0         ,4          ,           ,           ,           ,           ,           ,           ,           ,           ,           ,           ,0                     ,000000                     ,                 ,                 ,                 ,
000000076,01932-0007,2.4114662478,102.7316328565,20.2910175323,0,0,237.6620602465,7.363  ,-1.179   ,-1.671    ,0.104     ,2021-08-05,03:05:29.050197,1628132729      ,050197               ,0000           ,5A4F           ,1         ,1             ,3.049                ,GPS-3.0       ,5           ,0.229     ,0.224     ,0.542     ,0.825  ,2.115  ,0       ,4                 ,10        ,4             ,0           ,0         ,3          ,           ,           ,           ,           ,           ,           ,           ,           ,           ,           ,0                     ,000000                     ,                 ,                 ,                 ,
000000077,01932-0007,2.4114498462,102.7316114027,20.6309566498,0,0,236.5455155625,7.491  ,-1.346   ,-1.587    ,0.027     ,2021-08-05,03:05:30.449995,1628132730      ,449995               ,0000           ,5A4F           ,1         ,1             ,3.001                ,GPS-3.0       ,5           ,0.219     ,0.218     ,0.529     ,0.962  ,2.870  ,0       ,4                 ,10        ,4             ,0           ,0         ,0          ,           ,           ,           ,           ,           ,           ,           ,           ,           ,           ,0                     ,000000                     ,                 ,                 ,                 ,
000000078,01932-0007,2.4114358284,102.7315874194,20.7318649292,0,0,243.6646490551,7.210  ,-0.562   ,-1.922    ,0.010     ,2021-08-05,03:05:31.950140,1628132731      ,950140               ,0000           ,5A4F           ,1         ,1             ,3.087                ,GPS-3.0       ,5           ,0.215     ,0.215     ,0.521     ,1.076  ,2.937  ,0       ,4                 ,10        ,4             ,0           ,0         ,0          ,           ,           ,           ,           ,           ,           ,           ,           ,           ,           ,0                     ,000000                     ,                 ,                 ,                 ,
000000079,01932-0007,2.4114277577,102.7315615264,20.9064140320,0,0,254.9512088095,6.461  ,-0.296   ,-1.770    ,0.014     ,2021-08-05,03:05:33.549996,1628132733      ,549996               ,0000           ,5A4F           ,1         ,1             ,3.013                ,GPS-3.0       ,5           ,0.209     ,0.213     ,0.510     ,0.901  ,2.779  ,0       ,4                 ,10        ,4             ,0           ,0         ,2          ,           ,           ,           ,           ,           ,           ,           ,           ,           ,           ,0                     ,000000                     ,                 ,                 ,                 ,
000000080,01932-0007,2.4114217478,102.7315345791,21.3812999725,0,0,263.4106166626,5.801  ,-0.137   ,-1.605    ,0.040     ,2021-08-05,03:05:35.249996,1628132735      ,249996               ,0000           ,5A4F           ,1         ,1             ,3.067                ,GPS-3.0       ,5           ,0.189     ,0.203     ,0.474     ,0.901  ,2.780  ,0       ,4                 ,10        ,4             ,0           ,0         ,2          ,           ,           ,           ,           ,           ,           ,           ,           ,           ,           ,0                     ,000000                     ,                 ,                 ,                 ,
000000081,01932-0007,2.4114221155,102.7315073821,21.6899909973,0,0,272.6070019272,5.856  ,0.175    ,-1.617    ,-0.006    ,2021-08-05,03:05:37.149997,1628132737      ,149997               ,0000           ,5A4F           ,1         ,1             ,3.022                ,GPS-3.0       ,5           ,0.179     ,0.195     ,0.460     ,0.901  ,2.780  ,0       ,4                 ,10        ,4             ,0           ,0         ,2          ,           ,           ,           ,           ,           ,           ,           ,           ,           ,           ,0                     ,000000                     ,                 ,                 ,                 ,
