#0:imgID ,1:camSN   ,2:lat       ,3:lon         ,4:height     ,5:roll       ,6:pitch      ,7:heading     ,8:speed,9:speed_n,10:speed_e,11:speed_d,12:date   ,13:time        ,14:unix_time_sec,15:unix_time_microsec,16:systemStatus,17:filterStatus,18:haveFix,19:extVelocity,20:distancetoprevious,21:releaseMode,22:device_id,23:lat_dev,24:lon_dev,25:hei_dev,26:hdop,27:vdop,28:fs_10,29:gnss_fix_status,30:gps_sat,31:glonass_sat,32:beidu_sat,33:gal_sat,34:sbas_sat,35:custLog0,36:custLog1,37:custLog2,38:custLog3,39:custLog4,40:custLog5,41:custLog6,42:custLog7,43:custLog8,44:custLog9,45:unix_time_sec_fixed,46:unix_time_microsec_fixed,47:pnvgbss_field3,48:pnvgbss_field4,49:pnvgbss_field5,50:pnvgbss_field6,51:pnvgbss_field7
000000001,01932-0007,2.4050209440,102.7283083619,24.4622268677,0,0,40.6196814092 ,0.739  ,-0.204   ,0.023     ,-0.006    ,2021-08-05,03:39:47.600004,1628134787      ,600004               ,0000           ,5A6F           ,1         ,1             ,0.000                ,GPS-3.0       ,5           ,0.141     ,0.140     ,0.320     ,2.311  ,3.013  ,0       ,6                 ,10        ,4             ,0           ,0         ,4          ,           ,           ,           ,           ,           ,           ,           ,           ,           ,           ,0                     ,000000                     ,                 ,                 ,                 ,
000000002,01932-0007,2.4050491588,102.7283051983,24.3234424591,0,0,28.1381783520 ,5.746  ,1.563    ,-0.322    ,-0.001    ,2021-08-05,03:39:50.900154,1628134790      ,900154               ,0000           ,5A6F           ,1         ,1             ,3.157                ,GPS-3.0       ,5           ,0.139     ,0.140     ,0.316     ,1.102  ,2.849  ,0       ,6                 ,10        ,4             ,0           ,0         ,4          ,           ,           ,           ,           ,           ,           ,           ,           ,           ,           ,0                     ,000000                     ,                 ,                 ,                 ,
000000003,01932-0007,2.4050766957,102.7282996108,24.3636817932,0,0,24.6800979714 ,8.506  ,2.343    ,-0.307    ,-0.021    ,2021-08-05,03:39:52.250038,1628134792      ,250038               ,0000           ,5A6F           ,1         ,1             ,3.124                ,GPS-3.0       ,5           ,0.141     ,0.140     ,0.316     ,1.316  ,2.966  ,0       ,6                 ,10        ,4             ,0           ,0         ,4          ,           ,           ,           ,           ,           ,           ,           ,           ,           ,           ,0                     ,000000                     ,                 ,                 ,                 ,
000000004,01932-0007,2.4051018903,102.7282879688,24.4798889160,0,0,12.2609878385 ,10.426 ,2.287    ,-1.777    ,-0.171    ,2021-08-05,03:39:53.350159,1628134793      ,350159               ,0000           ,5A6F           ,1         ,1             ,3.086                ,GPS-3.0       ,5           ,0.141     ,0.140     ,0.317     ,0.880  ,1.845  ,0       ,6                 ,10        ,4             ,0           ,0         ,4          ,           ,           ,           ,           ,           ,           ,           ,           ,           ,           ,0                     ,000000                     ,                 ,                 ,                 ,
000000005,01932-0007,2.4051209474,102.7282674842,24.6243934631,0,0,354.7057118262,9.435  ,1.461    ,-2.176    ,-0.021    ,2021-08-05,03:39:54.600004,1628134794      ,600004               ,0000           ,5A4F           ,1         ,1             ,3.110                ,GPS-3.0       ,5           ,0.142     ,0.140     ,0.317     ,0.753  ,1.579  ,0       ,4                 ,10        ,4             ,0           ,0         ,4          ,           ,           ,           ,           ,           ,           ,           ,           ,           ,           ,0                     ,000000                     ,                 ,                 ,                 ,
000000006,01932-0007,2.4051303897,102.7282415128,24.5681285858,0,0,340.1506606672,5.688  ,0.237    ,-1.562    ,0.014     ,2021-08-05,03:39:56.350235,1628134796      ,350235               ,0000           ,5A4F           ,1         ,1             ,3.070                ,GPS-3.0       ,5           ,0.149     ,0.146     ,0.324     ,0.880  ,1.845  ,0       ,4                 ,10        ,4             ,0           ,0         ,4          ,           ,           ,           ,           ,           ,           ,           ,           ,           ,           ,0                     ,000000                     ,                 ,                 ,                 ,
000000007,01932-0007,2.4051439926,102.7282175413,24.4362869263,0,0,314.9555408191,6.336  ,1.088    ,-1.384    ,-0.083    ,2021-08-05,03:39:59.150111,1628134799      ,150111               ,0000           ,5A4F           ,1         ,1             ,3.063                ,GPS-3.0       ,5           ,0.152     ,0.147     ,0.327     ,0.719  ,1.574  ,0       ,4                 ,10        ,4             ,0           ,0         ,3          ,           ,           ,           ,           ,           ,           ,           ,           ,           ,           ,0                     ,000000                     ,                 ,                 ,                 ,
000000008,01932-0007,2.4051589037,102.7281943932,24.3639488220,0,0,308.0711472678,9.665  ,1.582    ,-2.169    ,0.208     ,2021-08-05,03:40:00.549996,1628134800      ,549996               ,0000           ,5A4F           ,1         ,1             ,3.060                ,GPS-3.0       ,5           ,0.153     ,0.148     ,0.328     ,0.713  ,1.572  ,0       ,4                 ,10        ,4             ,0           ,0         ,3          ,           ,           ,           ,           ,           ,           ,           ,           ,           ,           ,0                     ,000000                     ,                 ,                 ,                 ,
000000009,01932-0007,2.4051759274,102.7281724523,24.3838996887,0,0,315.2155524604,9.670  ,1.759    ,-2.030    ,-0.022    ,2021-08-05,03:40:01.649996,1628134801      ,649996               ,0000           ,5A4F           ,1         ,1             ,3.086                ,GPS-3.0       ,5           ,0.152     ,0.143     ,0.321     ,0.847  ,1.841  ,0       ,4                 ,10        ,4             ,0           ,0         ,3          ,           ,           ,           ,           ,           ,           ,           ,           ,           ,           ,0                     ,000000                     ,                 ,                 ,                 ,
000000010,01932-0007,2.4051955874,102.7281532115,24.4606857300,0,0,322.0377912902,10.763 ,2.023    ,-2.201    ,-0.091    ,2021-08-05,03:40:02.749996,1628134802      ,749996               ,0000           ,5A4F           ,1         ,1             ,3.058                ,GPS-3.0       ,5           ,0.148     ,0.141     ,0.314     ,0.719  ,1.574  ,0       ,4                 ,10        ,4             ,0           ,0         ,3          ,           ,           ,           ,           ,           ,           ,           ,           ,           ,           ,0                     ,000000                     ,                 ,                 ,                 ,
000000011,01932-0007,2.4052168716,102.7281354326,24.4307346344,0,0,324.8969084768,9.675  ,2.221    ,-1.513    ,0.060     ,2021-08-05,03:40:03.800010,1628134803      ,800010               ,0000           ,5A4F           ,1         ,1             ,3.083                ,GPS-3.0       ,5           ,0.150     ,0.142     ,0.315     ,0.749  ,1.763  ,0       ,4                 ,10        ,4             ,0           ,0         ,3          ,           ,           ,           ,           ,           ,           ,           ,           ,           ,           ,0                     ,000000                     ,                 ,                 ,                 ,
000000012,01932-0007,2.4052364326,102.7281167262,24.3776550293,0,0,316.3240921627,8.964  ,1.450    ,-2.024    ,-0.019    ,2021-08-05,03:40:04.900000,1628134804      ,900000               ,0000           ,5A4F           ,1         ,1             ,3.008                ,GPS-3.0       ,5           ,0.150     ,0.143     ,0.315     ,0.749  ,1.763  ,0       ,4                 ,10        ,4             ,0           ,0         ,3          ,           ,           ,           ,           ,           ,           ,           ,           ,           ,           ,0                     ,000000                     ,                 ,                 ,                 ,
000000013,01932-0007,2.4052498270,102.7280932690,24.5686225891,0,0,299.1320142482,8.139  ,0.652    ,-2.165    ,-0.116    ,2021-08-05,03:40:06.150026,1628134806      ,150026               ,0000           ,5A4F           ,1         ,1             ,3.002                ,GPS-3.0       ,5           ,0.151     ,0.144     ,0.317     ,0.804  ,1.789  ,0       ,4                 ,10        ,4             ,0           ,0         ,3          ,           ,           ,           ,           ,           ,           ,           ,           ,           ,           ,0                     ,000000                     ,                 ,                 ,                 ,
000000014,01932-0007,2.4052519714,102.7280652032,24.6185874939,0,0,274.4865333830,9.369  ,-0.119   ,-2.600    ,-0.037    ,2021-08-05,03:40:07.549996,1628134807      ,549996               ,0000           ,5A4F           ,1         ,1             ,3.127                ,GPS-3.0       ,5           ,0.152     ,0.145     ,0.318     ,0.886  ,2.179  ,0       ,4                 ,10        ,4             ,0           ,0         ,3          ,           ,           ,           ,           ,           ,           ,           ,           ,           ,           ,0                     ,000000                     ,                 ,                 ,                 ,
000000015,01932-0007,2.4052450765,102.7280387145,24.6338558197,0,0,256.2634247528,9.112  ,-0.781   ,-2.408    ,-0.015    ,2021-08-05,03:40:08.749996,1628134808      ,749996               ,0000           ,5A4F           ,1         ,1             ,3.041                ,GPS-3.0       ,5           ,0.152     ,0.144     ,0.316     ,0.719  ,1.575  ,0       ,4                 ,10        ,4             ,0           ,0         ,3          ,           ,           ,           ,           ,           ,           ,           ,           ,           ,           ,0                     ,000000                     ,                 ,                 ,                 ,
000000016,01932-0007,2.4052373617,102.7280124221,24.5574874878,0,0,250.4008275014,8.171  ,-0.730   ,-2.149    ,0.081     ,2021-08-05,03:40:10.100001,1628134810      ,100001               ,0000           ,5A4F           ,1         ,1             ,3.044                ,GPS-3.0       ,5           ,0.153     ,0.145     ,0.316     ,0.719  ,1.575  ,0       ,4                 ,10        ,4             ,0           ,0         ,3          ,           ,           ,           ,           ,           ,           ,           ,           ,           ,           ,0                     ,000000                     ,                 ,                 ,                 ,
000000017,01932-0007,2.4052282320,102.7279858883,24.5231170654,0,0,247.1419256823,12.746 ,-1.323   ,-3.284    ,0.036     ,2021-08-05,03:40:11.300086,1628134811      ,300086               ,0000           ,5A4F           ,1         ,1             ,3.118                ,GPS-3.0       ,5           ,0.154     ,0.146     ,0.317     ,0.749  ,1.763  ,0       ,4                 ,11        ,4             ,0           ,0         ,4          ,           ,           ,           ,           ,           ,           ,           ,           ,           ,           ,0                     ,000000                     ,                 ,                 ,                 ,
000000018,01932-0007,2.4052183444,102.7279592991,24.4232063293,0,0,249.3885115041,13.894 ,-1.329   ,-3.623    ,0.123     ,2021-08-05,03:40:12.150004,1628134812      ,150004               ,0000           ,5A4F           ,1         ,1             ,3.152                ,GPS-3.0       ,5           ,0.156     ,0.148     ,0.319     ,0.912  ,2.220  ,0       ,4                 ,11        ,4             ,0           ,0         ,4          ,           ,           ,           ,           ,           ,           ,           ,           ,           ,           ,0                     ,000000                     ,                 ,                 ,                 ,
000000019,01932-0007,2.4052105200,102.7279334363,24.2444648743,0,0,250.4125207853,13.247 ,-0.929   ,-3.561    ,0.203     ,2021-08-05,03:40:12.950261,1628134812      ,950261               ,0000           ,5A4F           ,1         ,1             ,3.002                ,GPS-3.0       ,5           ,0.157     ,0.149     ,0.321     ,0.719  ,1.575  ,0       ,4                 ,11        ,4             ,0           ,0         ,4          ,           ,           ,           ,           ,           ,           ,           ,           ,           ,           ,0                     ,000000                     ,                 ,                 ,                 ,
000000020,01932-0007,2.4052031725,102.7279066660,24.2913665771,0,0,252.2624638616,11.149 ,-1.110   ,-2.891    ,0.063     ,2021-08-05,03:40:13.850194,1628134813      ,850194               ,0000           ,5A4F           ,1         ,1             ,3.084                ,GPS-3.0       ,5           ,0.159     ,0.152     ,0.323     ,0.719  ,1.575  ,0       ,4                 ,11        ,4             ,0           ,0         ,4          ,           ,           ,           ,           ,           ,           ,           ,           ,           ,           ,0                     ,000000                     ,                 ,                 ,                 ,
000000021,01932-0007,2.4051954808,102.7278802653,24.3689613342,0,0,252.2150896695,10.216 ,-0.708   ,-2.748    ,-0.002    ,2021-08-05,03:40:14.850223,1628134814      ,850223               ,0000           ,5A4F           ,1         ,1             ,3.055                ,GPS-3.0       ,5           ,0.160     ,0.152     ,0.323     ,0.749  ,1.763  ,0       ,4                 ,11        ,4             ,0           ,0         ,4          ,           ,           ,           ,           ,           ,           ,           ,           ,           ,           ,0                     ,000000                     ,                 ,                 ,                 ,
000000022,01932-0007,2.4051882473,102.7278539140,24.3415222168,0,0,252.4287653075,9.027  ,-0.670   ,-2.416    ,0.065     ,2021-08-05,03:40:15.949996,1628134815      ,949996               ,0000           ,5A4F           ,1         ,1             ,3.036                ,GPS-3.0       ,5           ,0.161     ,0.153     ,0.325     ,0.771  ,1.673  ,0       ,4                 ,11        ,4             ,0           ,0         ,4          ,           ,           ,           ,           ,           ,           ,           ,           ,           ,           ,0                     ,000000                     ,                 ,                 ,                 ,
000000023,01932-0007,2.4051822600,102.7278272512,24.4761428833,0,0,255.0357665514,11.574 ,-0.709   ,-3.136    ,-0.116    ,2021-08-05,03:40:17.100036,1628134817      ,100036               ,0000           ,5A4F           ,1         ,1             ,3.036                ,GPS-3.0       ,5           ,0.162     ,0.153     ,0.326     ,0.811  ,1.774  ,0       ,4                 ,11        ,4             ,0           ,0         ,4          ,           ,           ,           ,           ,           ,           ,           ,           ,           ,           ,0                     ,000000                     ,                 ,                 ,                 ,
000000024,01932-0007,2.4051769841,102.7278003550,24.5353240967,0,0,256.4263384249,13.471 ,-0.655   ,-3.684    ,0.074     ,2021-08-05,03:40:18.000011,1628134818      ,000011               ,0000           ,5A4F           ,1         ,1             ,3.045                ,GPS-3.0       ,5           ,0.163     ,0.153     ,0.326     ,0.821  ,1.837  ,0       ,4                 ,11        ,4             ,0           ,0         ,4          ,           ,           ,           ,           ,           ,           ,           ,           ,           ,           ,0                     ,000000                     ,                 ,                 ,                 ,
000000025,01932-0007,2.4051710614,102.7277732891,24.4967708588,0,0,256.3413981924,13.038 ,-0.974   ,-3.488    ,-0.064    ,2021-08-05,03:40:18.800003,1628134818      ,800003               ,0000           ,5A4F           ,1         ,1             ,3.078                ,GPS-3.0       ,5           ,0.164     ,0.154     ,0.327     ,0.719  ,1.576  ,0       ,4                 ,11        ,4             ,0           ,0         ,3          ,           ,           ,           ,           ,           ,           ,           ,           ,           ,           ,0                     ,000000                     ,                 ,                 ,                 ,
000000026,01932-0007,2.4051650760,102.7277453043,24.5671539307,0,0,256.7340794282,13.477 ,-0.827   ,-3.651    ,-0.179    ,2021-08-05,03:40:19.600003,1628134819      ,600003               ,0000           ,5A4F           ,1         ,1             ,3.179                ,GPS-3.0       ,5           ,0.164     ,0.153     ,0.327     ,0.796  ,1.867  ,0       ,4                 ,11        ,4             ,0           ,0         ,3          ,           ,           ,           ,           ,           ,           ,           ,           ,           ,           ,0                     ,000000                     ,                 ,                 ,                 ,
000000027,01932-0007,2.4051586696,102.7277179587,24.4675846100,0,0,254.7919287981,12.631 ,-1.003   ,-3.362    ,0.094     ,2021-08-05,03:40:20.449995,1628134820      ,449995               ,0000           ,5A4F           ,1         ,1             ,3.120                ,GPS-3.0       ,5           ,0.165     ,0.153     ,0.327     ,0.753  ,1.582  ,0       ,4                 ,11        ,4             ,0           ,0         ,3          ,           ,           ,           ,           ,           ,           ,           ,           ,           ,           ,0                     ,000000                     ,                 ,                 ,                 ,
000000028,01932-0007,2.4051516992,102.7276914989,24.5492553711,0,0,253.9518155301,12.367 ,-0.970   ,-3.295    ,0.026     ,2021-08-05,03:40:21.300000,1628134821      ,300000               ,0000           ,5A4F           ,1         ,1             ,3.040                ,GPS-3.0       ,5           ,0.166     ,0.153     ,0.328     ,0.719  ,1.576  ,0       ,4                 ,11        ,4             ,0           ,0         ,3          ,           ,           ,           ,           ,           ,           ,           ,           ,           ,           ,0                     ,000000                     ,                 ,                 ,                 ,
000000029,01932-0007,2.4051457569,102.7276646498,24.5312252045,0,0,254.0794854261,12.798 ,-0.980   ,-3.417    ,-0.011    ,2021-08-05,03:40:22.149996,1628134822      ,149996               ,0000           ,5A4F           ,1         ,1             ,3.055                ,GPS-3.0       ,5           ,0.166     ,0.153     ,0.327     ,0.747  ,1.645  ,0       ,4                 ,11        ,4             ,0           ,0         ,3          ,           ,           ,           ,           ,           ,           ,           ,           ,           ,           ,0                     ,000000                     ,                 ,                 ,                 ,
000000030,01932-0007,2.4051394844,102.7276378667,24.5522918701,0,0,254.6657342229,12.202 ,-0.611   ,-3.334    ,0.082     ,2021-08-05,03:40:23.000112,1628134823      ,000112               ,0000           ,5A4F           ,1         ,1             ,3.056                ,GPS-3.0       ,5           ,0.167     ,0.154     ,0.329     ,0.749  ,1.763  ,0       ,4                 ,11        ,4             ,0           ,0         ,3          ,           ,           ,           ,           ,           ,           ,           ,           ,           ,           ,0                     ,000000                     ,                 ,                 ,                 ,
000000031,01932-0007,2.4051339574,102.7276111310,24.5137424469,0,0,255.1118821795,8.824  ,-0.750   ,-2.334    ,-0.043    ,2021-08-05,03:40:24.049997,1628134824      ,049997               ,0000           ,5A4F           ,1         ,1             ,3.033                ,GPS-3.0       ,5           ,0.168     ,0.154     ,0.330     ,0.771  ,1.673  ,0       ,4                 ,11        ,4             ,0           ,0         ,3          ,           ,           ,           ,           ,           ,           ,           ,           ,           ,           ,0                     ,000000                     ,                 ,                 ,                 ,
000000032,01932-0007,2.4051271373,102.7275839423,24.6369266510,0,0,254.3782925419,9.250  ,-0.714   ,-2.468    ,-0.003    ,2021-08-05,03:40:25.200004,1628134825      ,200004               ,0000           ,5A4F           ,1         ,1             ,3.114                ,GPS-3.0       ,5           ,0.169     ,0.155     ,0.331     ,0.749  ,1.763  ,0       ,4                 ,11        ,4             ,0           ,0         ,4          ,           ,           ,           ,           ,           ,           ,           ,           ,           ,           ,0                     ,000000                     ,                 ,                 ,                 ,
000000033,01932-0007,2.4051217623,102.7275565590,24.4003963470,0,0,254.6152454646,8.442  ,-0.642   ,-2.256    ,0.238     ,2021-08-05,03:40:26.450133,1628134826      ,450133               ,0000           ,5A4F           ,1         ,1             ,3.100                ,GPS-3.0       ,5           ,0.170     ,0.156     ,0.333     ,0.748  ,1.763  ,0       ,4                 ,11        ,4             ,0           ,0         ,4          ,           ,           ,           ,           ,           ,           ,           ,           ,           ,           ,0                     ,000000                     ,                 ,                 ,                 ,
000000034,01932-0007,2.4051155039,102.7275299861,24.3878192902,0,0,254.8385106882,7.684  ,-0.579   ,-2.054    ,-0.071    ,2021-08-05,03:40:27.849996,1628134827      ,849996               ,0000           ,5A4F           ,1         ,1             ,3.033                ,GPS-3.0       ,5           ,0.171     ,0.158     ,0.336     ,0.885  ,2.172  ,0       ,4                 ,11        ,4             ,0           ,0         ,4          ,           ,           ,           ,           ,           ,           ,           ,           ,           ,           ,0                     ,000000                     ,                 ,                 ,                 ,
000000035,01932-0007,2.4051100144,102.7275034527,24.3264579773,0,0,254.6762527143,5.721  ,-0.435   ,-1.528    ,0.069     ,2021-08-05,03:40:29.649996,1628134829      ,649996               ,0000           ,5A4F           ,1         ,1             ,3.010                ,GPS-3.0       ,5           ,0.173     ,0.160     ,0.339     ,0.918  ,2.350  ,0       ,4                 ,11        ,4             ,0           ,0         ,4          ,           ,           ,           ,           ,           ,           ,           ,           ,           ,           ,0                     ,000000                     ,                 ,                 ,                 ,
000000036,01932-0007,2.4051009438,102.7274780198,24.3749446869,0,0,249.1230357115,6.076  ,-0.617   ,-1.571    ,0.053     ,2021-08-05,03:40:31.450255,1628134831      ,450255               ,0000           ,5A4F           ,1         ,1             ,3.000                ,GPS-3.0       ,5           ,0.175     ,0.162     ,0.341     ,0.911  ,2.214  ,0       ,4                 ,11        ,4             ,0           ,0         ,4          ,           ,           ,           ,           ,           ,           ,           ,           ,           ,           ,0                     ,000000                     ,                 ,                 ,                 ,
000000037,01932-0007,2.4050939292,102.7274512001,24.2340412140,0,0,252.3118597897,9.557  ,-1.044   ,-2.441    ,0.091     ,2021-08-05,03:40:32.949995,1628134832      ,949995               ,0000           ,5A4F           ,1         ,1             ,3.080                ,GPS-3.0       ,5           ,0.176     ,0.163     ,0.342     ,0.770  ,1.578  ,0       ,4                 ,11        ,4             ,0           ,0         ,4          ,           ,           ,           ,           ,           ,           ,           ,           ,           ,           ,0                     ,000000                     ,                 ,                 ,                 ,
000000038,01932-0007,2.4050850244,102.7274245981,24.1832046509,0,0,254.0993202955,9.537  ,-0.948   ,-2.474    ,0.093     ,2021-08-05,03:40:34.049996,1628134834      ,049996               ,0000           ,5A4F           ,1         ,1             ,3.117                ,GPS-3.0       ,5           ,0.177     ,0.163     ,0.342     ,0.796  ,1.865  ,0       ,4                 ,11        ,4             ,0           ,0         ,3          ,           ,           ,           ,           ,           ,           ,           ,           ,           ,           ,0                     ,000000                     ,                 ,                 ,                 ,
000000039,01932-0007,2.4050782400,102.7273977860,24.1571426392,0,0,253.1493775857,9.357  ,-0.750   ,-2.489    ,0.075     ,2021-08-05,03:40:35.200003,1628134835      ,200003               ,0000           ,5A4F           ,1         ,1             ,3.073                ,GPS-3.0       ,5           ,0.179     ,0.165     ,0.345     ,0.719  ,1.577  ,0       ,4                 ,11        ,4             ,0           ,0         ,2          ,           ,           ,           ,           ,           ,           ,           ,           ,           ,           ,0                     ,000000                     ,                 ,                 ,                 ,
000000040,01932-0007,2.4050695757,102.7273717866,24.0418472290,0,0,250.4421091648,8.556  ,-0.985   ,-2.163    ,0.056     ,2021-08-05,03:40:36.400003,1628134836      ,400003               ,0000           ,5A4F           ,1         ,1             ,3.045                ,GPS-3.0       ,5           ,0.180     ,0.166     ,0.345     ,0.796  ,1.865  ,0       ,4                 ,11        ,4             ,0           ,0         ,2          ,           ,           ,           ,           ,           ,           ,           ,           ,           ,           ,0                     ,000000                     ,                 ,                 ,                 ,
000000041,01932-0007,2.4050601254,102.7273463707,24.0169639587,0,0,248.9482921518,8.525  ,-1.047   ,-2.124    ,0.207     ,2021-08-05,03:40:37.700169,1628134837      ,700169               ,0000           ,5A4F           ,1         ,1             ,3.013                ,GPS-3.0       ,5           ,0.181     ,0.167     ,0.347     ,0.743  ,1.490  ,0       ,4                 ,11        ,4             ,0           ,0         ,3          ,           ,           ,           ,           ,           ,           ,           ,           ,           ,           ,0                     ,000000                     ,                 ,                 ,                 ,
000000042,01932-0007,2.4050486121,102.7273205871,24.0913448334,0,0,248.4064942260,12.852 ,-1.195   ,-3.364    ,0.040     ,2021-08-05,03:40:38.649996,1628134838      ,649996               ,0000           ,5A4F           ,1         ,1             ,3.138                ,GPS-3.0       ,5           ,0.181     ,0.167     ,0.347     ,0.753  ,1.584  ,0       ,4                 ,11        ,4             ,0           ,0         ,3          ,           ,           ,           ,           ,           ,           ,           ,           ,           ,           ,0                     ,000000                     ,                 ,                 ,                 ,
000000043,01932-0007,2.4050386894,102.7272947170,24.0647754669,0,0,248.2181995710,13.087 ,-1.249   ,-3.414    ,-0.024    ,2021-08-05,03:40:39.500015,1628134839      ,500015               ,0000           ,5A4F           ,1         ,1             ,3.079                ,GPS-3.0       ,5           ,0.182     ,0.168     ,0.349     ,0.713  ,1.571  ,0       ,4                 ,11        ,4             ,0           ,0         ,4          ,           ,           ,           ,           ,           ,           ,           ,           ,           ,           ,0                     ,000000                     ,                 ,                 ,                 ,
000000044,01932-0007,2.4050282780,102.7272684093,24.1701946259,0,0,250.0492366837,12.018 ,-0.999   ,-3.186    ,-0.082    ,2021-08-05,03:40:40.400017,1628134840      ,400017               ,0000           ,5A4F           ,1         ,1             ,3.144                ,GPS-3.0       ,5           ,0.183     ,0.170     ,0.351     ,0.820  ,1.688  ,0       ,4                 ,11        ,4             ,0           ,0         ,4          ,           ,           ,           ,           ,           ,           ,           ,           ,           ,           ,0                     ,000000                     ,                 ,                 ,                 ,
000000045,01932-0007,2.4050192648,102.7272427018,24.3157615662,0,0,251.7714552225,11.358 ,-1.077   ,-2.966    ,-0.059    ,2021-08-05,03:40:41.349995,1628134841      ,349995               ,0000           ,5A4F           ,1         ,1             ,3.027                ,GPS-3.0       ,5           ,0.184     ,0.171     ,0.352     ,0.771  ,1.674  ,0       ,4                 ,11        ,4             ,0           ,0         ,4          ,           ,           ,           ,           ,           ,           ,           ,           ,           ,           ,0                     ,000000                     ,                 ,                 ,                 ,
000000046,01932-0007,2.4050112272,102.7272159314,24.3254489899,0,0,252.6355561148,10.689 ,-0.886   ,-2.834    ,-0.099    ,2021-08-05,03:40:42.349997,1628134842      ,349997               ,0000           ,5A4F           ,1         ,1             ,3.105                ,GPS-3.0       ,5           ,0.185     ,0.172     ,0.354     ,0.680  ,1.417  ,0       ,4                 ,11        ,4             ,0           ,0         ,3          ,           ,           ,           ,           ,           ,           ,           ,           ,           ,           ,0                     ,000000                     ,                 ,                 ,                 ,
000000047,01932-0007,2.4050025011,102.7271893137,24.3844032288,0,0,250.8194907768,9.314  ,-0.894   ,-2.428    ,0.026     ,2021-08-05,03:40:43.449996,1628134843      ,449996               ,0000           ,5A4F           ,1         ,1             ,3.112                ,GPS-3.0       ,5           ,0.187     ,0.174     ,0.357     ,0.787  ,1.550  ,0       ,4                 ,11        ,4             ,0           ,0         ,3          ,           ,           ,           ,           ,           ,           ,           ,           ,           ,           ,0                     ,000000                     ,                 ,                 ,                 ,
000000048,01932-0007,2.4049929444,102.7271640235,24.4496612549,0,0,249.3667915026,7.584  ,-0.827   ,-1.938    ,-0.050    ,2021-08-05,03:40:44.700000,1628134844      ,700000               ,0000           ,5A4F           ,1         ,1             ,3.004                ,GPS-3.0       ,5           ,0.188     ,0.174     ,0.358     ,0.680  ,1.417  ,0       ,4                 ,10        ,4             ,0           ,0         ,3          ,           ,           ,           ,           ,           ,           ,           ,           ,           ,           ,0                     ,000000                     ,                 ,                 ,                 ,
000000049,01932-0007,2.4049819790,102.7271391920,24.4025077820,0,0,248.7450530428,7.221  ,-0.778   ,-1.849    ,0.038     ,2021-08-05,03:40:46.200001,1628134846      ,200001               ,0000           ,5A4F           ,1         ,1             ,3.016                ,GPS-3.0       ,5           ,0.186     ,0.174     ,0.359     ,0.842  ,1.657  ,0       ,4                 ,11        ,4             ,0           ,0         ,3          ,           ,           ,           ,           ,           ,           ,           ,           ,           ,           ,0                     ,000000                     ,                 ,                 ,                 ,
000000050,01932-0007,2.4049734574,102.7271125221,24.4588508606,0,0,252.1085387185,9.305  ,-0.621   ,-2.509    ,-0.031    ,2021-08-05,03:40:47.500218,1628134847      ,500218               ,0000           ,5A4F           ,1         ,1             ,3.111                ,GPS-3.0       ,5           ,0.188     ,0.176     ,0.361     ,0.992  ,1.670  ,0       ,4                 ,11        ,4             ,0           ,0         ,4          ,           ,           ,           ,           ,           ,           ,           ,           ,           ,           ,0                     ,000000                     ,                 ,                 ,                 ,
000000051,01932-0007,2.4049659298,102.7270857121,24.6566619873,0,0,252.9475864769,10.567 ,-0.736   ,-2.842    ,-0.112    ,2021-08-05,03:40:48.600003,1628134848      ,600003               ,0000           ,5A4F           ,1         ,1             ,3.094                ,GPS-3.0       ,5           ,0.189     ,0.177     ,0.363     ,0.771  ,1.674  ,0       ,4                 ,11        ,4             ,0           ,0         ,4          ,           ,           ,           ,           ,           ,           ,           ,           ,           ,           ,0                     ,000000                     ,                 ,                 ,                 ,
000000052,01932-0007,2.4049577164,102.7270594567,24.7870483398,0,0,252.7160977055,10.906 ,-0.721   ,-2.942    ,-0.158    ,2021-08-05,03:40:49.549999,1628134849      ,549999               ,0000           ,5A4F           ,1         ,1             ,3.057                ,GPS-3.0       ,5           ,0.189     ,0.177     ,0.364     ,0.797  ,1.678  ,0       ,4                 ,11        ,4             ,0           ,0         ,4          ,           ,           ,           ,           ,           ,           ,           ,           ,           ,           ,0                     ,000000                     ,                 ,                 ,                 ,
000000053,01932-0007,2.4049512615,102.7270330862,24.7571201324,0,0,252.4208422881,10.061 ,-0.876   ,-2.654    ,0.002     ,2021-08-05,03:40:50.600003,1628134850      ,600003               ,0000           ,5A4F           ,1         ,1             ,3.016                ,GPS-3.0       ,5           ,0.190     ,0.178     ,0.365     ,0.719  ,1.579  ,0       ,4                 ,11        ,4             ,0           ,0         ,4          ,           ,           ,           ,           ,           ,           ,           ,           ,           ,           ,0                     ,000000                     ,                 ,                 ,                 ,
000000054,01932-0007,2.4049432889,102.7270068066,24.8536930084,0,0,252.1355589468,6.844  ,-0.562   ,-1.816    ,-0.075    ,2021-08-05,03:40:51.900006,1628134851      ,900006               ,0000           ,5A4F           ,1         ,1             ,3.051                ,GPS-3.0       ,5           ,0.190     ,0.178     ,0.366     ,0.788  ,1.551  ,0       ,4                 ,11        ,4             ,0           ,0         ,3          ,           ,           ,           ,           ,           ,           ,           ,           ,           ,           ,0                     ,000000                     ,                 ,                 ,                 ,
000000055,01932-0007,2.4049382159,102.7269802612,24.8891448975,0,0,258.1056906965,1.348  ,-0.041   ,-0.372    ,0.022     ,2021-08-05,03:40:54.850250,1628134854      ,850250               ,0000           ,5A4F           ,1         ,1             ,3.003                ,GPS-3.0       ,5           ,0.192     ,0.180     ,0.369     ,0.797  ,1.863  ,0       ,4                 ,11        ,4             ,0           ,0         ,2          ,           ,           ,           ,           ,           ,           ,           ,           ,           ,           ,0                     ,000000                     ,                 ,                 ,                 ,
000000056,01932-0007,2.4049330718,102.7269535918,25.1579780579,0,0,255.5298624360,2.284  ,-0.239   ,-0.588    ,-0.055    ,2021-08-05,03:41:05.849997,1628134865      ,849997               ,0000           ,5A4F           ,1         ,1             ,3.018                ,GPS-3.0       ,5           ,0.198     ,0.185     ,0.379     ,0.799  ,1.497  ,0       ,4                 ,10        ,4             ,0           ,0         ,2          ,           ,           ,           ,           ,           ,           ,           ,           ,           ,           ,0                     ,000000                     ,                 ,                 ,                 ,
000000057,01932-0007,2.4049227587,102.7269286101,25.2368183136,0,0,248.8565217301,5.980  ,-0.751   ,-1.482    ,-0.053    ,2021-08-05,03:41:09.350122,1628134869      ,350122               ,0000           ,5A4F           ,1         ,1             ,3.003                ,GPS-3.0       ,5           ,0.199     ,0.187     ,0.381     ,0.899  ,1.795  ,0       ,4                 ,10        ,4             ,0           ,0         ,2          ,           ,           ,           ,           ,           ,           ,           ,           ,           ,           ,0                     ,000000                     ,                 ,                 ,                 ,
000000058,01932-0007,2.4049126939,102.7269026152,25.2112884521,0,0,248.4173132457,7.683  ,-0.733   ,-2.004    ,0.005     ,2021-08-05,03:41:10.900211,1628134870      ,900211               ,0000           ,5A4F           ,1         ,1             ,3.097                ,GPS-3.0       ,5           ,0.198     ,0.188     ,0.382     ,0.743  ,1.491  ,0       ,4                 ,10        ,4             ,0           ,0         ,2          ,           ,           ,           ,           ,           ,           ,           ,           ,           ,           ,0                     ,000000                     ,                 ,                 ,                 ,
000000059,01932-0007,2.4049029756,102.7268771879,25.4018192291,0,0,251.3712334579,7.140  ,-0.705   ,-1.854    ,-0.068    ,2021-08-05,03:41:12.500000,1628134872      ,500000               ,0000           ,5A4F           ,1         ,1             ,3.025                ,GPS-3.0       ,5           ,0.200     ,0.189     ,0.385     ,0.916  ,2.326  ,0       ,4                 ,10        ,4             ,0           ,0         ,2          ,           ,           ,           ,           ,           ,           ,           ,           ,           ,           ,0                     ,000000                     ,                 ,                 ,                 ,
000000060,01932-0007,2.4048929675,102.7268512377,25.4879531860,0,0,250.9620778059,7.101  ,-0.855   ,-1.777    ,-0.003    ,2021-08-05,03:41:13.949996,1628134873      ,949996               ,0000           ,5A4F           ,1         ,1             ,3.090                ,GPS-3.0       ,5           ,0.201     ,0.190     ,0.387     ,0.773  ,1.643  ,0       ,4                 ,10        ,4             ,0           ,0         ,2          ,           ,           ,           ,           ,           ,           ,           ,           ,           ,           ,0                     ,000000                     ,                 ,                 ,                 ,
000000061,01932-0007,2.4048852858,102.7268249829,25.4384574890,0,0,252.3440709618,3.454  ,-0.283   ,-0.917    ,-0.032    ,2021-08-05,03:41:17.200003,1628134877      ,200003               ,0000           ,5A4F           ,1         ,1             ,3.039                ,GPS-3.0       ,5           ,0.200     ,0.187     ,0.387     ,0.876  ,1.664  ,0       ,4                 ,10        ,4             ,0           ,0         ,2          ,           ,           ,           ,           ,           ,           ,           ,           ,           ,           ,0                     ,000000                     ,                 ,                 ,                 ,
000000062,01932-0007,2.4048788666,102.7267985521,25.6403541565,0,0,253.0243851239,4.080  ,-0.384   ,-1.066    ,-0.029    ,2021-08-05,03:41:21.500078,1628134881      ,500078               ,0000           ,5A4F           ,1         ,1             ,3.022                ,GPS-3.0       ,5           ,0.199     ,0.181     ,0.384     ,0.940  ,1.958  ,0       ,4                 ,10        ,4             ,0           ,0         ,3          ,           ,           ,           ,           ,           ,           ,           ,           ,           ,           ,0                     ,000000                     ,                 ,                 ,                 ,
000000063,01932-0007,2.4048683121,102.7267728259,25.7139854431,0,0,249.4045761091,7.255  ,-0.787   ,-1.855    ,-0.071    ,2021-08-05,03:41:23.850026,1628134883      ,850026               ,0000           ,5A4F           ,1         ,1             ,3.090                ,GPS-3.0       ,5           ,0.199     ,0.179     ,0.384     ,0.984  ,1.946  ,0       ,4                 ,10        ,4             ,0           ,0         ,3          ,           ,           ,           ,           ,           ,           ,           ,           ,           ,           ,0                     ,000000                     ,                 ,                 ,                 ,
000000064,01932-0007,2.4048597949,102.7267468959,25.6640357971,0,0,250.0891249884,3.934  ,-0.406   ,-1.014    ,0.134     ,2021-08-05,03:41:25.749996,1628134885      ,749996               ,0000           ,5A4F           ,1         ,1             ,3.032                ,GPS-3.0       ,5           ,0.200     ,0.180     ,0.386     ,0.843  ,1.657  ,0       ,4                 ,10        ,4             ,0           ,0         ,3          ,           ,           ,           ,           ,           ,           ,           ,           ,           ,           ,0                     ,000000                     ,                 ,                 ,                 ,
000000065,01932-0007,2.4048510033,102.7267211081,25.2305831909,0,0,242.4670436861,2.800  ,-0.359   ,-0.690    ,0.079     ,2021-08-05,03:41:29.850132,1628134889      ,850132               ,0000           ,5A2F           ,1         ,1             ,3.027                ,GPS-3.0       ,5           ,0.205     ,0.185     ,0.395     ,1.191  ,1.782  ,0       ,2                 ,10        ,4             ,0           ,0         ,4          ,           ,           ,           ,           ,           ,           ,           ,           ,           ,           ,0                     ,000000                     ,                 ,                 ,                 ,
000000066,01932-0007,2.4048329558,102.7267008946,25.6182518005,0,0,239.3198017995,2.984  ,-0.462   ,-0.688    ,-0.103    ,2021-08-05,03:41:36.100100,1628134896      ,100100               ,0000           ,5A2F           ,1         ,1             ,3.012                ,GPS-3.0       ,5           ,0.213     ,0.193     ,0.407     ,0.994  ,2.357  ,0       ,2                 ,10        ,4             ,0           ,0         ,4          ,           ,           ,           ,           ,           ,           ,           ,           ,           ,           ,0                     ,000000                     ,                 ,                 ,                 ,
000000067,01932-0007,2.4048219190,102.7266759953,25.5215873718,0,0,249.8289494226,6.515  ,-0.443   ,-1.755    ,-0.029    ,2021-08-05,03:41:38.700000,1628134898      ,700000               ,0000           ,5A2F           ,1         ,1             ,3.026                ,GPS-3.0       ,5           ,0.215     ,0.196     ,0.411     ,0.788  ,1.552  ,0       ,2                 ,10        ,4             ,0           ,0         ,2          ,           ,           ,           ,           ,           ,           ,           ,           ,           ,           ,0                     ,000000                     ,                 ,                 ,                 ,
000000068,01932-0007,2.4048152616,102.7266495107,25.4545059204,0,0,255.5302722473,9.911  ,-0.820   ,-2.628    ,0.051     ,2021-08-05,03:41:40.049996,1628134900      ,049996               ,0000           ,5A2F           ,1         ,1             ,3.034                ,GPS-3.0       ,5           ,0.217     ,0.197     ,0.413     ,0.821  ,1.845  ,0       ,2                 ,10        ,4             ,0           ,0         ,2          ,           ,           ,           ,           ,           ,           ,           ,           ,           ,           ,0                     ,000000                     ,                 ,                 ,                 ,
000000069,01932-0007,2.4048096224,102.7266224621,25.4678535461,0,0,257.0277229210,9.259  ,-0.604   ,-2.500    ,0.047     ,2021-08-05,03:41:41.200263,1628134901      ,200263               ,0000           ,5A2F           ,1         ,1             ,3.070                ,GPS-3.0       ,5           ,0.218     ,0.198     ,0.415     ,1.062  ,2.177  ,0       ,2                 ,10        ,4             ,0           ,0         ,2          ,           ,           ,           ,           ,           ,           ,           ,           ,           ,           ,0                     ,000000                     ,                 ,                 ,                 ,
000000070,01932-0007,2.4048045790,102.7265953165,25.5984363556,0,0,258.5659361636,11.169 ,-0.513   ,-3.060    ,-0.076    ,2021-08-05,03:41:42.249996,1628134902      ,249996               ,0000           ,5A2F           ,1         ,1             ,3.067                ,GPS-3.0       ,5           ,0.219     ,0.200     ,0.417     ,0.788  ,1.552  ,0       ,2                 ,10        ,4             ,0           ,0         ,2          ,           ,           ,           ,           ,           ,           ,           ,           ,           ,           ,0                     ,000000                     ,                 ,                 ,                 ,
000000071,01932-0007,2.4047992005,102.7265675675,25.7366542816,0,0,258.3172626363,13.482 ,-0.609   ,-3.695    ,-0.094    ,2021-08-05,03:41:43.149996,1628134903      ,149996               ,0000           ,5A2F           ,1         ,1             ,3.140                ,GPS-3.0       ,5           ,0.220     ,0.201     ,0.419     ,0.862  ,2.031  ,0       ,2                 ,10        ,4             ,0           ,0         ,2          ,           ,           ,           ,           ,           ,           ,           ,           ,           ,           ,0                     ,000000                     ,                 ,                 ,                 ,
000000072,01932-0007,2.4047936596,102.7265405925,25.9015541077,0,0,257.9646063090,13.372 ,-0.680   ,-3.652    ,-0.088    ,2021-08-05,03:41:43.949997,1628134903      ,949997               ,0000           ,5A2F           ,1         ,1             ,3.060                ,GPS-3.0       ,5           ,0.221     ,0.202     ,0.421     ,0.949  ,2.468  ,0       ,2                 ,10        ,4             ,0           ,0         ,2          ,           ,           ,           ,           ,           ,           ,           ,           ,           ,           ,0                     ,000000                     ,                 ,                 ,                 ,
000000073,01932-0007,2.4047877391,102.7265134838,26.0206661224,0,0,259.1550809606,12.157 ,-0.594   ,-3.324    ,-0.244    ,2021-08-05,03:41:44.800003,1628134904      ,800003               ,0000           ,5A2F           ,1         ,1             ,3.083                ,GPS-3.0       ,5           ,0.222     ,0.203     ,0.422     ,0.949  ,2.467  ,0       ,2                 ,10        ,4             ,0           ,0         ,2          ,           ,           ,           ,           ,           ,           ,           ,           ,           ,           ,0                     ,000000                     ,                 ,                 ,                 ,
000000074,01932-0007,2.4047825201,102.7264866406,26.0652446747,0,0,258.8902335454,12.145 ,-0.463   ,-3.342    ,-0.044    ,2021-08-05,03:41:45.700000,1628134905      ,700000               ,0000           ,5A2F           ,1         ,1             ,3.038                ,GPS-3.0       ,5           ,0.223     ,0.204     ,0.424     ,1.239  ,2.761  ,0       ,2                 ,10        ,4             ,0           ,0         ,2          ,           ,           ,           ,           ,           ,           ,           ,           ,           ,           ,0                     ,000000                     ,                 ,                 ,                 ,
000000075,01932-0007,2.4047770376,102.7264595745,26.2055416107,0,0,256.9299419328,13.370 ,-1.063   ,-3.559    ,-0.137    ,2021-08-05,03:41:46.550240,1628134906      ,550240               ,0000           ,5A2F           ,1         ,1             ,3.068                ,GPS-3.0       ,5           ,0.224     ,0.205     ,0.426     ,1.239  ,2.760  ,0       ,2                 ,10        ,4             ,0           ,0         ,2          ,           ,           ,           ,           ,           ,           ,           ,           ,           ,           ,0                     ,000000                     ,                 ,                 ,                 ,
000000076,01932-0007,2.4047702512,102.7264329006,26.2466087341,0,0,255.2355086035,13.464 ,-0.914   ,-3.627    ,-0.034    ,2021-08-05,03:41:47.350063,1628134907      ,350063               ,0000           ,5A2F           ,1         ,1             ,3.058                ,GPS-3.0       ,5           ,0.225     ,0.205     ,0.427     ,0.775  ,1.545  ,0       ,2                 ,10        ,4             ,0           ,0         ,2          ,           ,           ,           ,           ,           ,           ,           ,           ,           ,           ,0                     ,000000                     ,                 ,                 ,                 ,
000000077,01932-0007,2.4047628722,102.7264065319,26.3456554413,0,0,253.2923197846,12.847 ,-1.036   ,-3.415    ,-0.099    ,2021-08-05,03:41:48.200002,1628134908      ,200002               ,0000           ,5A2F           ,1         ,1             ,3.042                ,GPS-3.0       ,5           ,0.226     ,0.206     ,0.428     ,0.797  ,1.857  ,0       ,2                 ,10        ,4             ,0           ,0         ,2          ,           ,           ,           ,           ,           ,           ,           ,           ,           ,           ,0                     ,000000                     ,                 ,                 ,                 ,
000000078,01932-0007,2.4047556608,102.7263801120,26.3046684265,0,0,253.6154150531,11.967 ,-0.737   ,-3.241    ,-0.110    ,2021-08-05,03:41:49.100000,1628134909      ,100000               ,0000           ,5A2F           ,1         ,1             ,3.043                ,GPS-3.0       ,5           ,0.227     ,0.208     ,0.430     ,0.751  ,1.553  ,0       ,2                 ,10        ,4             ,0           ,0         ,2          ,           ,           ,           ,           ,           ,           ,           ,           ,           ,           ,0                     ,000000                     ,                 ,                 ,                 ,
000000079,01932-0007,2.4047490989,102.7263536698,26.3337001801,0,0,254.4011873360,7.008  ,-0.495   ,-1.883    ,-0.004    ,2021-08-05,03:41:50.149996,1628134910      ,149996               ,0000           ,5A2F           ,1         ,1             ,3.027                ,GPS-3.0       ,5           ,0.228     ,0.209     ,0.432     ,0.751  ,1.553  ,0       ,2                 ,10        ,4             ,0           ,0         ,2          ,           ,           ,           ,           ,           ,           ,           ,           ,           ,           ,0                     ,000000                     ,                 ,                 ,                 ,
000000080,01932-0007,2.4047425843,102.7263269451,26.3671646118,0,0,256.4923180523,4.497  ,-0.285   ,-1.216    ,0.029     ,2021-08-05,03:41:52.000016,1628134912      ,000016               ,0000           ,5A2F           ,1         ,1             ,3.056                ,GPS-3.0       ,5           ,0.230     ,0.211     ,0.436     ,0.775  ,1.545  ,0       ,2                 ,10        ,4             ,0           ,0         ,2          ,           ,           ,           ,           ,           ,           ,           ,           ,           ,           ,0                     ,000000                     ,                 ,                 ,                 ,
000000081,01932-0007,2.4047349700,102.7263004259,26.5145950317,0,0,253.5300650093,4.839  ,-0.620   ,-1.192    ,0.074     ,2021-08-05,03:41:56.250187,1628134916      ,250187               ,0000           ,5A2F           ,1         ,1             ,3.065                ,GPS-3.0       ,5           ,0.234     ,0.215     ,0.443     ,0.797  ,1.856  ,0       ,2                 ,10        ,4             ,0           ,0         ,2          ,           ,           ,           ,           ,           ,           ,           ,           ,           ,           ,0                     ,000000                     ,                 ,                 ,                 ,
000000082,01932-0007,2.4047254861,102.7262745711,26.8859786987,0,0,250.9216157652,4.823  ,-0.260   ,-1.314    ,-0.063    ,2021-08-05,03:41:58.449996,1628134918      ,449996               ,0000           ,5A2F           ,1         ,1             ,3.060                ,GPS-3.0       ,5           ,0.235     ,0.217     ,0.446     ,0.774  ,1.639  ,0       ,2                 ,10        ,4             ,0           ,0         ,2          ,           ,           ,           ,           ,           ,           ,           ,           ,           ,           ,0                     ,000000                     ,                 ,                 ,                 ,
000000083,01932-0007,2.4047200510,102.7262472238,26.8324642181,0,0,257.8565527164,8.255  ,-0.466   ,-2.245    ,-0.009    ,2021-08-05,03:42:00.099999,1628134920      ,099999               ,0000           ,5A2F           ,1         ,1             ,3.098                ,GPS-3.0       ,5           ,0.237     ,0.219     ,0.449     ,0.828  ,1.659  ,0       ,2                 ,10        ,4             ,0           ,0         ,3          ,           ,           ,           ,           ,           ,           ,           ,           ,           ,           ,0                     ,000000                     ,                 ,                 ,                 ,
000000084,01932-0007,2.4047147890,102.7262202114,26.8724002838,0,0,257.7624053888,10.272 ,-0.502   ,-2.809    ,-0.012    ,2021-08-05,03:42:01.299999,1628134921      ,299999               ,0000           ,5A2F           ,1         ,1             ,3.058                ,GPS-3.0       ,5           ,0.238     ,0.219     ,0.450     ,0.725  ,1.460  ,0       ,2                 ,10        ,4             ,0           ,0         ,3          ,           ,           ,           ,           ,           ,           ,           ,           ,           ,           ,0                     ,000000                     ,                 ,                 ,                 ,
000000085,01932-0007,2.4047077055,102.7261931298,26.9021091461,0,0,254.8283746875,11.376 ,-0.675   ,-3.087    ,-0.008    ,2021-08-05,03:42:02.300000,1628134922      ,300000               ,0000           ,5A2F           ,1         ,1             ,3.110                ,GPS-3.0       ,5           ,0.238     ,0.219     ,0.450     ,0.725  ,1.460  ,0       ,2                 ,10        ,4             ,0           ,0         ,3          ,           ,           ,           ,           ,           ,           ,           ,           ,           ,           ,0                     ,000000                     ,                 ,                 ,                 ,
000000086,01932-0007,2.4046999327,102.7261669922,27.0103893280,0,0,252.5569816186,14.072 ,-1.213   ,-3.716    ,-0.085    ,2021-08-05,03:42:03.150247,1628134923      ,150247               ,0000           ,5A2F           ,1         ,1             ,3.030                ,GPS-3.0       ,5           ,0.239     ,0.220     ,0.452     ,0.821  ,1.847  ,0       ,2                 ,10        ,4             ,0           ,0         ,3          ,           ,           ,           ,           ,           ,           ,           ,           ,           ,           ,0                     ,000000                     ,                 ,                 ,                 ,
000000087,01932-0007,2.4046911118,102.7261398950,27.0260658264,0,0,251.6557518180,15.007 ,-1.274   ,-3.969    ,-0.058    ,2021-08-05,03:42:03.950149,1628134923      ,950149               ,0000           ,5A2F           ,1         ,1             ,3.166                ,GPS-3.0       ,5           ,0.239     ,0.221     ,0.453     ,0.775  ,1.546  ,0       ,2                 ,10        ,4             ,0           ,0         ,3          ,           ,           ,           ,           ,           ,           ,           ,           ,           ,           ,0                     ,000000                     ,                 ,                 ,                 ,
000000088,01932-0007,2.4046819161,102.7261131483,27.1111392975,0,0,250.6112792901,14.864 ,-1.259   ,-3.932    ,-0.049    ,2021-08-05,03:42:04.700017,1628134924      ,700017               ,0000           ,5A2F           ,1         ,1             ,3.142                ,GPS-3.0       ,5           ,0.240     ,0.221     ,0.454     ,0.725  ,1.460  ,0       ,2                 ,10        ,4             ,0           ,0         ,3          ,           ,           ,           ,           ,           ,           ,           ,           ,           ,           ,0                     ,000000                     ,                 ,                 ,                 ,
000000089,01932-0007,2.4046732095,102.7260871798,27.1923923492,0,0,250.1467991058,13.883 ,-0.985   ,-3.728    ,-0.045    ,2021-08-05,03:42:05.449996,1628134925      ,449996               ,0000           ,5A2F           ,1         ,1             ,3.043                ,GPS-3.0       ,5           ,0.240     ,0.222     ,0.455     ,0.771  ,1.677  ,0       ,2                 ,10        ,4             ,0           ,0         ,3          ,           ,           ,           ,           ,           ,           ,           ,           ,           ,           ,0                     ,000000                     ,                 ,                 ,                 ,
